School_Name,School_Type,Longitude,Latitude,Address_Town,Address_Postcode,Region_Name,LGA_Name,LGA_ID
Parade College,Secondary,145.06698,-37.69018,BUNDOORA,3083,NORTH-WESTERN VICTORIA,Banyule (C),66
Simonds Catholic College,Secondary,144.95288,-37.80597,WEST MELBOURNE,3003,SOUTH-WESTERN VICTORIA,Melbourne (C),460
St Marys College Melbourne,Secondary,144.997,-37.85936,ST KILDA EAST,3183,SOUTH-EASTERN VICTORIA,Port Phillip (C),590
St Patrick's College Ballarat,Secondary,143.83156,-37.55971,BALLARAT,3350,SOUTH-WESTERN VICTORIA,Ballarat (C),57
St Patrick's School,Primary,143.84715,-37.5644,BALLARAT,3350,SOUTH-WESTERN VICTORIA,Ballarat (C),57
St Alipius' Parish School,Primary,143.87401,-37.5617,BALLARAT EAST,3350,SOUTH-WESTERN VICTORIA,Ballarat (C),57
Emmanuel College Warrnambool,Secondary,142.47736,-38.37099,WARRNAMBOOL,3280,SOUTH-WESTERN VICTORIA,Warrnambool (C),673
Loreto College,Secondary,143.82347,-37.55686,BALLARAT,3350,SOUTH-WESTERN VICTORIA,Ballarat (C),57
St Mary's School,Primary,146.08901,-37.05835,MANSFIELD,3722,NORTH-EASTERN VICTORIA,Mansfield (S),425
Sacred Heart School,Primary,144.8814,-37.84003,NEWPORT,3015,SOUTH-WESTERN VICTORIA,Hobsons Bay (C),311
St Mary's School,Primary,144.90089,-37.8635,WILLIAMSTOWN,3016,SOUTH-WESTERN VICTORIA,Hobsons Bay (C),311
St Michaels Primary School,Primary,144.94625,-37.7933,NORTH MELBOURNE,3051,SOUTH-WESTERN VICTORIA,Melbourne (C),460
St Patrick's School,Primary,146.32195,-36.35616,WANGARATTA,3677,NORTH-EASTERN VICTORIA,Wangaratta (RC),670
St Mary's School,Primary,144.99759,-37.85902,ST KILDA EAST,3183,SOUTH-EASTERN VICTORIA,Port Phillip (C),590
Assumption College,Secondary,144.94763,-37.30101,KILMORE,3764,NORTH-EASTERN VICTORIA,Mitchell (S),485
St Brendan's School,Primary,144.93173,-37.7847,FLEMINGTON,3031,SOUTH-WESTERN VICTORIA,Moonee Valley (C),506
Catherine McAuley College,Secondary,144.27336,-36.75344,BENDIGO,3550,NORTH-WESTERN VICTORIA,Greater Bendigo (C),262
St Augustine's School,Primary,143.7368,-37.05183,MARYBOROUGH,3465,NORTH-WESTERN VICTORIA,Central Goldfields (S),167
St Mary's School,Primary,147.58563,-37.8414,BAIRNSDALE,3875,SOUTH-EASTERN VICTORIA,East Gippsland (S),211
St Aloysius' School,Primary,143.83767,-37.57811,REDAN,3350,SOUTH-WESTERN VICTORIA,Ballarat (C),57
St Joseph's School,Primary,145.03432,-37.82646,HAWTHORN,3122,NORTH-EASTERN VICTORIA,Boroondara (C),111
Sacre Coeur,Pri/Sec,145.05157,-37.86175,GLEN IRIS,3146,SOUTH-EASTERN VICTORIA,Stonnington (C),635
St Joseph's School,Primary,144.99672,-37.77462,NORTHCOTE,3070,NORTH-WESTERN VICTORIA,Darebin (C),189
Sacred Heart School,Primary,145.00377,-37.74481,PRESTON,3072,NORTH-WESTERN VICTORIA,Darebin (C),189
Sacred Heart School,Primary,146.40432,-38.23943,MORWELL,3840,SOUTH-EASTERN VICTORIA,Latrobe (C),381
St Michael's School,Primary,146.5347,-38.19516,TRARALGON,3844,SOUTH-EASTERN VICTORIA,Latrobe (C),381
St Brendan's School,Primary,145.40765,-36.37473,SHEPPARTON,3630,NORTH-EASTERN VICTORIA,Greater Shepparton (C),283
St Mary's College,Pri/Sec,145.14092,-37.0199,SEYMOUR,3660,NORTH-EASTERN VICTORIA,Mitchell (S),485
St Mary's School,Primary,142.98517,-36.37358,DONALD,3480,NORTH-WESTERN VICTORIA,Buloke (S),127
St Mary's Primary School,Primary,147.06233,-38.11071,SALE,3850,SOUTH-EASTERN VICTORIA,Wellington (S),681
St Patrick's Primary School,Primary,144.94811,-37.29939,KILMORE,3764,NORTH-EASTERN VICTORIA,Mitchell (S),485
St Brigid's School,Primary,144.22873,-37.5999,BALLAN,3342,SOUTH-WESTERN VICTORIA,Moorabool (S),515
St Patrick's School,Primary,144.0909,-37.58065,GORDON,3345,SOUTH-WESTERN VICTORIA,Moorabool (S),515
St Mary's School,Primary,144.73173,-37.27876,LANCEFIELD,3435,NORTH-WESTERN VICTORIA,Macedon Ranges (S),413
St Augustine's School,Primary,143.89226,-37.42851,CRESWICK,3363,SOUTH-WESTERN VICTORIA,Hepburn (S),291
St Monica's School,Primary,144.2448,-36.7942,KANGAROO FLAT,3555,NORTH-WESTERN VICTORIA,Greater Bendigo (C),262
St Joseph's School,Primary,145.97412,-36.55396,BENALLA,3672,NORTH-EASTERN VICTORIA,Benalla (RC),101
Sacred Heart College,Secondary,144.34015,-38.1495,NEWTOWN,3220,SOUTH-WESTERN VICTORIA,Greater Geelong (C),275
St Patrick's School,Primary,143.24686,-36.61708,ST ARNAUD,3478,SOUTH-WESTERN VICTORIA,Northern Grampians (S),581
St Joseph's College Mildura,Secondary,142.15346,-34.18872,MILDURA,3500,NORTH-WESTERN VICTORIA,Mildura (RC),478
Star of the Sea College,Secondary,144.99678,-37.89673,BRIGHTON,3186,SOUTH-EASTERN VICTORIA,Bayside (C),91
St James' School,Primary,144.99766,-37.89794,BRIGHTON,3186,SOUTH-EASTERN VICTORIA,Bayside (C),91
St Peter's School,Primary,145.07091,-37.92304,BENTLEIGH EAST,3165,SOUTH-EASTERN VICTORIA,Glen Eira (C),231
St Liborius' School,Primary,144.25729,-36.72348,EAGLEHAWK,3556,NORTH-WESTERN VICTORIA,Greater Bendigo (C),262
Damascus College,Secondary,143.87035,-37.61146,MOUNT CLEAR,3350,SOUTH-WESTERN VICTORIA,Ballarat (C),57
St Mary's School,Primary,144.22096,-37.06396,CASTLEMAINE,3450,NORTH-WESTERN VICTORIA,Mount Alexander (S),543
Sacred Heart College,Secondary,144.45882,-37.25289,KYNETON,3444,NORTH-WESTERN VICTORIA,Macedon Ranges (S),413
St Ambrose's School,Primary,144.53049,-37.35779,WOODEND,3442,NORTH-WESTERN VICTORIA,Macedon Ranges (S),413
St Joseph's School,Primary,143.35105,-36.27177,CHARLTON,3525,NORTH-WESTERN VICTORIA,Buloke (S),127
Sacred Heart School,Primary,145.22392,-36.43983,TATURA,3616,NORTH-EASTERN VICTORIA,Greater Shepparton (C),283
St Paul's School,Primary,144.96785,-37.73893,COBURG,3058,NORTH-WESTERN VICTORIA,Merri-bek (C),525
St Andrew's School,Primary,144.65057,-37.90127,WERRIBEE,3030,SOUTH-WESTERN VICTORIA,Wyndham (C),726
St Brigid's School,Primary,144.59009,-37.49091,GISBORNE,3437,NORTH-WESTERN VICTORIA,Macedon Ranges (S),413
Our Lady of Mount Carmel School,Primary,144.7363,-37.58004,SUNBURY,3429,NORTH-WESTERN VICTORIA,Hume (C),327
St Joseph's School,Primary,146.60706,-36.14598,CHILTERN,3683,NORTH-EASTERN VICTORIA,Indigo (S),335
St Mary's School,Primary,146.46298,-36.05042,RUTHERGLEN,3685,NORTH-EASTERN VICTORIA,Indigo (S),335
St Mary's School,Primary,143.87249,-36.57114,INGLEWOOD,3517,NORTH-WESTERN VICTORIA,Loddon (S),394
FCJ College,Secondary,145.97539,-36.55277,BENALLA,3672,NORTH-EASTERN VICTORIA,Benalla (RC),101
St Patrick's School,Primary,145.47453,-38.06938,PAKENHAM,3810,SOUTH-EASTERN VICTORIA,Cardinia (S),145
Sacred Heart Primary School,Primary,146.00925,-36.01072,YARRAWONGA,3730,NORTH-EASTERN VICTORIA,Moira (S),490
Xavier College,Pri/Sec,145.0311,-37.81386,KEW,3101,NORTH-EASTERN VICTORIA,Boroondara (C),111
St Joseph's School,Primary,142.28978,-37.87751,PENSHURST,3289,SOUTH-WESTERN VICTORIA,Southern Grampians (S),626
Marian College,Secondary,142.93777,-37.28474,ARARAT,3377,SOUTH-WESTERN VICTORIA,Ararat (RC),26
Sacred Heart School,Primary,141.41363,-37.58601,CASTERTON,3311,SOUTH-WESTERN VICTORIA,Glenelg (S),241
St Bernard's School,Primary,144.43486,-37.67227,BACCHUS MARSH,3340,SOUTH-WESTERN VICTORIA,Moorabool (S),515
St Patrick's School,Primary,142.36897,-38.29989,KOROIT,3282,SOUTH-WESTERN VICTORIA,Moyne (S),549
Academy of Mary Immaculate,Secondary,144.97441,-37.80371,FITZROY,3065,NORTH-WESTERN VICTORIA,Yarra (C),735
Sacred Heart School,Primary,144.97852,-37.80205,FITZROY,3065,NORTH-WESTERN VICTORIA,Yarra (C),735
Mount Lilydale Mercy College,Secondary,145.35775,-37.75076,LILYDALE,3140,NORTH-EASTERN VICTORIA,Yarra Ranges (S),745
St Monica's School,Primary,144.90684,-37.80116,FOOTSCRAY,3011,SOUTH-WESTERN VICTORIA,Maribyrnong (C),433
St Augustine's School,Primary,144.8899,-37.8137,YARRAVILLE,3013,SOUTH-WESTERN VICTORIA,Maribyrnong (C),433
Ss Michael and John's Primary School,Primary,142.20399,-36.714,HORSHAM,3400,SOUTH-WESTERN VICTORIA,Horsham (RC),319
Trinity College Colac,Secondary,143.57693,-38.35203,COLAC,3250,SOUTH-WESTERN VICTORIA,Colac-Otway (S),175
St Mary's School,Primary,143.5854,-38.33473,COLAC,3250,SOUTH-WESTERN VICTORIA,Colac-Otway (S),175
Kilbreda College,Secondary,145.06571,-37.98415,MENTONE,3194,SOUTH-EASTERN VICTORIA,Kingston (C),343
Padua College,Secondary,145.072,-38.21826,MORNINGTON,3931,SOUTH-EASTERN VICTORIA,Mornington Peninsula (S),534
Notre Dame College,Secondary,145.40764,-36.37471,SHEPPARTON,3630,NORTH-EASTERN VICTORIA,Greater Shepparton (C),283
Sacred Heart College,Secondary,146.00921,-36.00866,YARRAWONGA,3730,NORTH-EASTERN VICTORIA,Moira (S),490
St Joseph's School,Primary,145.4436,-36.08646,NUMURKAH,3636,NORTH-EASTERN VICTORIA,Moira (S),490
St Joseph's School,Primary,142.48614,-38.37249,WARRNAMBOOL,3280,SOUTH-WESTERN VICTORIA,Warrnambool (C),673
St Mary's School,Primary,144.363,-38.15319,GEELONG,3220,SOUTH-WESTERN VICTORIA,Greater Geelong (C),275
St Patrick's School,Primary,144.34604,-38.13484,GEELONG WEST,3218,SOUTH-WESTERN VICTORIA,Greater Geelong (C),275
St Monica's Primary School,Primary,144.92318,-37.75966,MOONEE PONDS,3039,SOUTH-WESTERN VICTORIA,Moonee Valley (C),506
St Patrick's School,Primary,145.35261,-37.75273,LILYDALE,3140,NORTH-EASTERN VICTORIA,Yarra Ranges (S),745
Catholic Ladies' College Ltd,Secondary,145.14356,-37.71152,ELTHAM,3095,NORTH-WESTERN VICTORIA,Nillumbik (S),571
St Joseph's School,Primary,144.98639,-37.80046,COLLINGWOOD,3066,NORTH-WESTERN VICTORIA,Yarra (C),735
St Mary's School,Primary,142.3896,-36.25408,WARRACKNABEAL,3393,SOUTH-WESTERN VICTORIA,Yarriambiack (S),763
St Mary's School,Primary,144.72583,-36.13426,ECHUCA,3564,NORTH-WESTERN VICTORIA,Campaspe (S),137
Sacred Heart School,Primary,145.03744,-37.80817,KEW,3101,NORTH-EASTERN VICTORIA,Boroondara (C),111
St Mary's School,Primary,142.93861,-37.2855,ARARAT,3377,SOUTH-WESTERN VICTORIA,Ararat (RC),26
St Joseph's College,Secondary,144.74337,-36.11815,ECHUCA,3564,NORTH-WESTERN VICTORIA,Campaspe (S),137
St Patrick's School,Primary,142.23167,-38.38613,PORT FAIRY,3284,SOUTH-WESTERN VICTORIA,Moyne (S),549
St Joseph's School,Primary,144.70117,-36.36476,ROCHESTER,3561,NORTH-WESTERN VICTORIA,Campaspe (S),137
St Aloysius College,Secondary,144.94287,-37.79289,NORTH MELBOURNE,3051,SOUTH-WESTERN VICTORIA,Melbourne (C),460
All Saints Parish School,Primary,141.59279,-38.35947,PORTLAND,3305,SOUTH-WESTERN VICTORIA,Glenelg (S),241
Catholic College Sale,Secondary,147.06378,-38.10871,SALE,3850,SOUTH-EASTERN VICTORIA,Wellington (S),681
St Augustine's College,Pri/Sec,145.04471,-36.30955,KYABRAM,3620,NORTH-WESTERN VICTORIA,Campaspe (S),137
Our Holy Redeemer School,Primary,145.10008,-37.82032,SURREY HILLS,3127,NORTH-EASTERN VICTORIA,Boroondara (C),111
Our Lady of the Sacred Heart Primary,Primary,144.61562,-36.49302,ELMORE,3558,NORTH-WESTERN VICTORIA,Greater Bendigo (C),262
St Joseph's School,Primary,146.68281,-36.36007,BEECHWORTH,3747,NORTH-EASTERN VICTORIA,Indigo (S),335
St Joseph's School,Primary,141.69473,-37.60538,COLERAINE,3315,SOUTH-WESTERN VICTORIA,Southern Grampians (S),626
Mercy Regional College,Secondary,143.13956,-38.235,CAMPERDOWN,3260,SOUTH-WESTERN VICTORIA,Corangamite (S),183
St Patrick's School,Primary,143.139,-38.23503,CAMPERDOWN,3260,SOUTH-WESTERN VICTORIA,Corangamite (S),183
St Columba's College,Secondary,144.91429,-37.7572,ESSENDON,3040,SOUTH-WESTERN VICTORIA,Moonee Valley (C),506
St Michael's School,Primary,144.15136,-37.33724,DAYLESFORD,3460,SOUTH-WESTERN VICTORIA,Hepburn (S),291
St Mary's School,Primary,142.05091,-37.74114,HAMILTON,3300,SOUTH-WESTERN VICTORIA,Southern Grampians (S),626
St Kilian's School,Primary,144.28421,-36.75458,BENDIGO,3550,NORTH-WESTERN VICTORIA,Greater Bendigo (C),262
Genazzano FCJ College,Pri/Sec,145.05578,-37.80897,KEW,3101,NORTH-EASTERN VICTORIA,Boroondara (C),111
St Augustine's School,Primary,146.88922,-36.11702,WODONGA,3690,NORTH-EASTERN VICTORIA,Wodonga (C),717
St Patrick's School,Primary,142.78726,-37.05935,STAWELL,3380,SOUTH-WESTERN VICTORIA,Northern Grampians (S),581
St Patrick's School,Primary,145.07016,-37.98357,MENTONE,3194,SOUTH-EASTERN VICTORIA,Kingston (C),343
St Thomas' School,Primary,142.90996,-38.2398,TERANG,3264,SOUTH-WESTERN VICTORIA,Corangamite (S),183
St Joseph's School,Primary,145.91202,-38.15861,WARRAGUL,3820,SOUTH-EASTERN VICTORIA,Baw Baw (S),83
St Joseph's School,Primary,144.27835,-36.76942,QUARRY HILL,3550,NORTH-WESTERN VICTORIA,Greater Bendigo (C),262
St John's School,Primary,145.06655,-37.75764,HEIDELBERG,3084,NORTH-WESTERN VICTORIA,Banyule (C),66
Our Lady of Mercy College,Secondary,145.06759,-37.75793,HEIDELBERG,3084,NORTH-WESTERN VICTORIA,Banyule (C),66
St Joseph's School,Primary,144.94298,-37.76229,BRUNSWICK WEST,3055,NORTH-WESTERN VICTORIA,Merri-bek (C),525
St Brigid's School,Primary,145.09178,-38.00804,MORDIALLOC,3195,SOUTH-EASTERN VICTORIA,Kingston (C),343
St Columba's School,Primary,143.86007,-37.54591,BALLARAT NORTH,3350,SOUTH-WESTERN VICTORIA,Ballarat (C),57
Our Lady Help of Christians School,Primary,144.97786,-37.77634,BRUNSWICK EAST,3057,NORTH-WESTERN VICTORIA,Merri-bek (C),525
St Anthony's School,Primary,145.0471,-37.88689,GLEN HUNTLY,3163,SOUTH-EASTERN VICTORIA,Glen Eira (C),231
St Mary's School,Primary,145.22084,-37.99067,DANDENONG,3175,SOUTH-EASTERN VICTORIA,Greater Dandenong (C),267
Sacred Heart School,Primary,145.00855,-37.95148,SANDRINGHAM,3191,SOUTH-EASTERN VICTORIA,Bayside (C),91
St Joseph's School,Primary,145.60341,-38.60086,WONTHAGGI,3995,SOUTH-EASTERN VICTORIA,Bass Coast (S),74
St Mary's School,Primary,144.91127,-37.77384,ASCOT VALE,3032,SOUTH-WESTERN VICTORIA,Moonee Valley (C),506
St Joseph's School,Primary,143.91781,-35.72546,KERANG,3579,NORTH-WESTERN VICTORIA,Gannawarra (S),225
De La Salle College,Pri/Sec,145.03218,-37.85768,MALVERN,3144,SOUTH-EASTERN VICTORIA,Stonnington (C),635
St Margaret Mary's School,Primary,144.96825,-37.75863,BRUNSWICK NORTH,3056,NORTH-WESTERN VICTORIA,Merri-bek (C),525
St Francis Xavier School,Primary,143.90299,-37.56161,BALLARAT EAST,3350,SOUTH-WESTERN VICTORIA,Ballarat (C),57
St Laurence O'Toole School,Primary,145.9543,-38.47894,LEONGATHA,3953,SOUTH-EASTERN VICTORIA,South Gippsland (S),617
St Joseph's School,Primary,145.82232,-38.43604,KORUMBURRA,3950,SOUTH-EASTERN VICTORIA,South Gippsland (S),617
St Brigid's School,Primary,145.5158,-37.65868,HEALESVILLE,3777,NORTH-EASTERN VICTORIA,Yarra Ranges (S),745
St James School,Primary,145.57319,-38.07303,NAR NAR GOON,3812,SOUTH-EASTERN VICTORIA,Cardinia (S),145
St Mary's School,Primary,145.05292,-37.87302,MALVERN EAST,3145,SOUTH-EASTERN VICTORIA,Stonnington (C),635
Holy Rosary School,Primary,144.92878,-37.79558,KENSINGTON,3031,SOUTH-WESTERN VICTORIA,Melbourne (C),460
St Aloysius' School,Primary,144.6553,-38.26868,QUEENSCLIFF,3225,SOUTH-WESTERN VICTORIA,Queenscliffe (B),608
St Anthony's School,Primary,145.02036,-37.78007,ALPHINGTON,3078,NORTH-WESTERN VICTORIA,Darebin (C),189
St Joseph's School,Primary,145.03116,-37.85807,MALVERN,3144,SOUTH-EASTERN VICTORIA,Stonnington (C),635
St Mary's School,Primary,146.67597,-38.5569,YARRAM,3971,SOUTH-EASTERN VICTORIA,Wellington (S),681
Holy Rosary School,Primary,144.31057,-36.72487,WHITE HILLS,3550,NORTH-WESTERN VICTORIA,Greater Bendigo (C),262
St Columba's School,Primary,144.98112,-37.88253,ELWOOD,3184,SOUTH-EASTERN VICTORIA,Port Phillip (C),590
Our Lady of the Rosary,Primary,144.46212,-37.25051,KYNETON,3444,NORTH-WESTERN VICTORIA,Macedon Ranges (S),413
St Mary's School,Primary,143.5456,-35.32846,SWAN HILL,3585,NORTH-WESTERN VICTORIA,Swan Hill (RC),661
St Mary's School,Primary,145.1917,-38.30344,HASTINGS,3915,SOUTH-EASTERN VICTORIA,Mornington Peninsula (S),534
St Brendan's School,Primary,143.5188,-38.27065,CORAGULAC,3249,SOUTH-WESTERN VICTORIA,Colac-Otway (S),175
Our Lady of the Immaculate Conception School,Primary,144.83556,-37.78945,SUNSHINE,3020,SOUTH-WESTERN VICTORIA,Brimbank (C),118
St Mary's School,Primary,145.00166,-37.75684,THORNBURY,3071,NORTH-WESTERN VICTORIA,Darebin (C),189
St John's School,Primary,142.44614,-38.3515,DENNINGTON,3280,SOUTH-WESTERN VICTORIA,Warrnambool (C),673
St Brigid's College,Secondary,142.20795,-36.71731,HORSHAM,3400,SOUTH-WESTERN VICTORIA,Horsham (RC),319
St Joan of Arc School,Primary,144.99415,-37.92011,BRIGHTON,3186,SOUTH-EASTERN VICTORIA,Bayside (C),91
St John's School,Primary,145.56987,-36.75337,EUROA,3666,NORTH-EASTERN VICTORIA,Strathbogie (S),643
St John's School,Primary,144.88522,-37.79582,FOOTSCRAY,3011,SOUTH-WESTERN VICTORIA,Maribyrnong (C),433
St Joseph's School,Primary,145.65236,-35.91707,COBRAM,3644,NORTH-EASTERN VICTORIA,Moira (S),490
Mary Immaculate School,Primary,145.03876,-37.77194,IVANHOE,3079,NORTH-WESTERN VICTORIA,Banyule (C),66
St Joseph's School,Primary,145.15405,-36.78161,NAGAMBIE,3608,NORTH-EASTERN VICTORIA,Strathbogie (S),643
Our Lady of Lourdes School,Primary,145.00946,-37.85246,PRAHRAN EAST,3181,SOUTH-EASTERN VICTORIA,Stonnington (C),635
St Joseph's School,Primary,148.45563,-37.70917,ORBOST,3888,SOUTH-EASTERN VICTORIA,East Gippsland (S),211
St Mary's School,Primary,146.72693,-36.55357,MYRTLEFORD,3737,NORTH-EASTERN VICTORIA,Alpine (S),11
St Therese's School,Primary,144.91031,-37.75111,ESSENDON,3040,SOUTH-WESTERN VICTORIA,Moonee Valley (C),506
Sacred Heart School,Primary,145.42461,-37.21455,YEA,3717,NORTH-EASTERN VICTORIA,Murrindindi (S),562
Our Lady of Good Counsel School,Primary,145.06279,-37.81108,DEEPDENE,3103,NORTH-EASTERN VICTORIA,Boroondara (C),111
St Joseph's School,Primary,145.11859,-38.05544,CHELSEA,3196,SOUTH-EASTERN VICTORIA,Kingston (C),343
St Finbar's School,Primary,145.01746,-37.91628,BRIGHTON EAST,3187,SOUTH-EASTERN VICTORIA,Bayside (C),91
Loreto Mandeville Hall,Pri/Sec,145.01489,-37.84819,TOORAK,3142,SOUTH-EASTERN VICTORIA,Stonnington (C),635
St Dominic's School,Primary,145.08384,-37.83892,CAMBERWELL EAST,3124,NORTH-EASTERN VICTORIA,Boroondara (C),111
St Mary's School,Primary,145.0009,-37.93305,HAMPTON,3188,SOUTH-EASTERN VICTORIA,Bayside (C),91
Holy Rosary School,Primary,144.70111,-36.91768,HEATHCOTE,3523,NORTH-WESTERN VICTORIA,Greater Bendigo (C),262
St Mary's School,Primary,144.21854,-35.80823,COHUNA,3568,NORTH-WESTERN VICTORIA,Gannawarra (S),225
St Joseph's School,Primary,145.20281,-38.36147,CRIB POINT,3919,SOUTH-EASTERN VICTORIA,Mornington Peninsula (S),534
St Fidelis' School,Primary,144.95156,-37.74984,MORELAND,3058,NORTH-WESTERN VICTORIA,Merri-bek (C),525
St Francis Xavier's School,Primary,145.13149,-37.81849,BOX HILL,3128,NORTH-EASTERN VICTORIA,Whitehorse (C),698
St Mary's School,Primary,144.82838,-37.86666,ALTONA,3018,SOUTH-WESTERN VICTORIA,Hobsons Bay (C),311
Our Lady Help of Christians School,Primary,145.14791,-37.71612,ELTHAM,3095,NORTH-WESTERN VICTORIA,Nillumbik (S),571
Our Lady of the Sacred Heart School,Primary,142.05309,-34.16686,MERBEIN,3505,NORTH-WESTERN VICTORIA,Mildura (RC),478
St Francis Xavier School,Primary,145.1262,-38.1488,FRANKSTON,3199,SOUTH-EASTERN VICTORIA,Frankston (C),217
Our Lady of Sion College,Secondary,145.12992,-37.81835,BOX HILL,3128,NORTH-EASTERN VICTORIA,Whitehorse (C),698
St Gabriel's School,Primary,145.00512,-37.71802,RESERVOIR,3073,NORTH-WESTERN VICTORIA,Darebin (C),189
St Paul's School,Primary,145.04147,-37.92283,BENTLEIGH,3204,SOUTH-EASTERN VICTORIA,Glen Eira (C),231
Salesian College Sunbury,Secondary,144.73903,-37.57264,SUNBURY,3429,NORTH-WESTERN VICTORIA,Hume (C),327
St Patrick's School,Primary,147.07768,-37.96726,STRATFORD,3862,SOUTH-EASTERN VICTORIA,Wellington (S),681
St Joseph's School,Primary,146.15219,-38.20721,TRAFALGAR,3824,SOUTH-EASTERN VICTORIA,Baw Baw (S),83
St Patrick's School,Primary,145.06527,-37.90178,MURRUMBEENA,3163,SOUTH-EASTERN VICTORIA,Glen Eira (C),231
St Roch's School,Primary,145.05231,-37.85736,GLEN IRIS,3146,SOUTH-EASTERN VICTORIA,Stonnington (C),635
St Anne's School,Primary,145.04981,-37.79538,KEW EAST,3102,NORTH-EASTERN VICTORIA,Boroondara (C),111
Our Lady of Perpetual Help School,Primary,145.23218,-37.81642,RINGWOOD,3134,NORTH-EASTERN VICTORIA,Maroondah (C),441
St Francis Xavier Primary School,Primary,145.12656,-37.71601,MONTMORENCY,3094,NORTH-WESTERN VICTORIA,Banyule (C),66
St Joseph's School,Primary,144.7418,-38.34047,SORRENTO,3943,SOUTH-EASTERN VICTORIA,Mornington Peninsula (S),534
St Cecilia's School,Primary,145.0646,-37.85009,GLEN IRIS,3146,NORTH-EASTERN VICTORIA,Boroondara (C),111
St Joseph's School,Primary,145.00529,-37.88251,ELSTERNWICK,3185,SOUTH-EASTERN VICTORIA,Glen Eira (C),231
St Joseph's School,Primary,142.18796,-34.30235,RED CLIFFS,3496,NORTH-WESTERN VICTORIA,Mildura (RC),478
St Peter's School,Primary,145.02755,-37.65054,EPPING,3076,NORTH-WESTERN VICTORIA,Whittlesea (C),707
Santa Maria College,Secondary,145.00248,-37.77036,NORTHCOTE,3070,NORTH-WESTERN VICTORIA,Darebin (C),189
Sacred Heart School,Primary,145.08692,-37.90184,OAKLEIGH,3166,NORTH-EASTERN VICTORIA,Monash (C),497
St Mark's School,Primary,144.96362,-37.71628,FAWKNER,3060,NORTH-WESTERN VICTORIA,Merri-bek (C),525
St John the Baptist School,Primary,145.29517,-37.88738,FERNTREE GULLY,3156,NORTH-EASTERN VICTORIA,Knox (C),367
St John's School,Primary,145.1904,-37.81744,MITCHAM,3132,NORTH-EASTERN VICTORIA,Whitehorse (C),698
St Mary's School,Primary,145.35422,-36.39605,MOOROOPNA,3629,NORTH-EASTERN VICTORIA,Greater Shepparton (C),283
St Raphael's School,Primary,144.99262,-37.7341,PRESTON WEST,3072,NORTH-WESTERN VICTORIA,Darebin (C),189
St Kevin's College,Pri/Sec,145.0247,-37.8354,TOORAK,3142,SOUTH-EASTERN VICTORIA,Stonnington (C),635
St John the Baptist's School,Primary,145.48527,-38.19746,KOO WEE RUP,3981,SOUTH-EASTERN VICTORIA,Cardinia (S),145
St Vincent de Paul's School,Primary,144.92413,-37.74214,STRATHMORE,3041,SOUTH-WESTERN VICTORIA,Moonee Valley (C),506
St Joseph's College Geelong,Secondary,144.33186,-38.1502,NEWTOWN,3220,SOUTH-WESTERN VICTORIA,Greater Geelong (C),275
St Joseph's School,Primary,145.15034,-37.95323,SPRINGVALE,3171,SOUTH-EASTERN VICTORIA,Greater Dandenong (C),267
St Bede's College,Secondary,145.06821,-37.99116,MENTONE,3194,SOUTH-EASTERN VICTORIA,Kingston (C),343
Holy Name School,Primary,145.01857,-37.73026,PRESTON EAST,3073,NORTH-WESTERN VICTORIA,Darebin (C),189
Siena College Ltd,Secondary,145.08258,-37.83366,CAMBERWELL,3124,NORTH-EASTERN VICTORIA,Boroondara (C),111
St Bernard's School,Primary,144.97271,-37.74742,COBURG EAST,3058,NORTH-WESTERN VICTORIA,Merri-bek (C),525
St Oliver Plunkett's School,Primary,144.94186,-37.73089,PASCOE VALE,3044,NORTH-WESTERN VICTORIA,Merri-bek (C),525
Corpus Christi School,Primary,144.87292,-37.80853,KINGSVILLE,3012,SOUTH-WESTERN VICTORIA,Maribyrnong (C),433
St Robert's School,Primary,144.34301,-38.15641,NEWTOWN,3220,SOUTH-WESTERN VICTORIA,Greater Geelong (C),275
St Bernard's College,Secondary,144.8832,-37.74939,ESSENDON,3040,SOUTH-WESTERN VICTORIA,Moonee Valley (C),506
Whitefriars College,Secondary,145.19954,-37.7918,DONVALE,3111,NORTH-EASTERN VICTORIA,Manningham (C),421
St Michael's School,Primary,145.08248,-37.86413,ASHBURTON,3147,NORTH-EASTERN VICTORIA,Boroondara (C),111
St Mary's School,Primary,143.9887,-37.5004,CLARKES HILL,3352,SOUTH-WESTERN VICTORIA,Moorabool (S),515
Our Lady of the Sacred Heart College,Secondary,145.03994,-37.92572,BENTLEIGH,3204,SOUTH-EASTERN VICTORIA,Glen Eira (C),231
St Bede's School,Primary,145.0709,-37.79352,BALWYN NORTH,3104,NORTH-EASTERN VICTORIA,Boroondara (C),111
Salesian College Chadstone,Secondary,145.10026,-37.88273,CHADSTONE,3148,NORTH-EASTERN VICTORIA,Monash (C),497
St Patrick's School,Primary,141.64304,-36.33541,NHILL,3418,SOUTH-WESTERN VICTORIA,Hindmarsh (S),298
St Margaret's School,Primary,144.37393,-38.16462,GEELONG EAST,3219,SOUTH-WESTERN VICTORIA,Greater Geelong (C),275
St Kieran's School,Primary,146.25356,-38.17937,MOE,3825,SOUTH-EASTERN VICTORIA,Latrobe (C),381
Marcellin College,Secondary,145.08268,-37.77478,BULLEEN,3105,NORTH-EASTERN VICTORIA,Manningham (C),421
Marist-Sion College,Secondary,145.91527,-38.15903,WARRAGUL,3820,SOUTH-EASTERN VICTORIA,Baw Baw (S),83
St Theresa's School,Primary,144.8202,-37.78219,ALBION,3020,SOUTH-WESTERN VICTORIA,Brimbank (C),118
St Bernadette's School,Primary,145.03412,-37.76306,IVANHOE WEST,3079,NORTH-WESTERN VICTORIA,Banyule (C),66
St Colman's School,Primary,142.80202,-38.07994,MORTLAKE,3272,SOUTH-WESTERN VICTORIA,Moyne (S),549
St Agnes' School,Primary,145.03183,-37.9461,HIGHETT,3190,SOUTH-EASTERN VICTORIA,Bayside (C),91
Our Lady of the Assumption School,Primary,145.05971,-37.9655,CHELTENHAM,3192,SOUTH-EASTERN VICTORIA,Kingston (C),343
Sacred Heart School,Primary,145.27279,-37.79749,CROYDON,3136,NORTH-EASTERN VICTORIA,Maroondah (C),441
St Malachy's School,Primary,141.30005,-37.03403,EDENHOPE,3318,SOUTH-WESTERN VICTORIA,West Wimmera (S),689
St Mary's School,Primary,145.71338,-37.19127,ALEXANDRA,3714,NORTH-EASTERN VICTORIA,Murrindindi (S),562
Holy Spirit School,Primary,145.01619,-37.76085,THORNBURY EAST,3071,NORTH-WESTERN VICTORIA,Darebin (C),189
Sacred Heart School,Primary,144.80005,-37.73769,ST ALBANS,3021,SOUTH-WESTERN VICTORIA,Brimbank (C),118
St Thomas The Apostle School,Primary,145.15743,-37.82325,BLACKBURN,3130,NORTH-EASTERN VICTORIA,Whitehorse (C),698
St Mary's School,Primary,145.0112,-36.5878,RUSHWORTH,3612,NORTH-WESTERN VICTORIA,Campaspe (S),137
St Michael's School,Primary,146.78427,-37.98075,HEYFIELD,3858,SOUTH-EASTERN VICTORIA,Wellington (S),681
St Thomas Aquinas School,Primary,144.35882,-38.09017,NORLANE,3214,SOUTH-WESTERN VICTORIA,Greater Geelong (C),275
St Pius X School,Primary,145.04629,-37.74692,HEIDELBERG WEST,3081,NORTH-WESTERN VICTORIA,Banyule (C),66
St Margaret Mary's School,Primary,144.87773,-37.82908,SPOTSWOOD,3015,SOUTH-WESTERN VICTORIA,Hobsons Bay (C),311
Monivae College,Secondary,142.04945,-37.74204,HAMILTON,3300,SOUTH-WESTERN VICTORIA,Southern Grampians (S),626
St Anthony's School,Primary,145.17243,-37.97171,NOBLE PARK,3174,SOUTH-EASTERN VICTORIA,Greater Dandenong (C),267
St Peter's School,Primary,145.12186,-37.92314,CLAYTON,3168,NORTH-EASTERN VICTORIA,Monash (C),497
St Joseph's School,Primary,142.36219,-35.72393,HOPETOUN,3396,SOUTH-WESTERN VICTORIA,Yarriambiack (S),763
St John Bosco's School,Primary,144.88903,-37.74366,NIDDRIE,3042,SOUTH-WESTERN VICTORIA,Moonee Valley (C),506
Holy Family School,Primary,144.33833,-38.1111,BELL PARK,3215,SOUTH-WESTERN VICTORIA,Greater Geelong (C),275
Holy Spirit Parish School,Primary,144.32996,-38.13581,MANIFOLD HEIGHTS,3218,SOUTH-WESTERN VICTORIA,Greater Geelong (C),275
St Mary's School,Primary,145.09263,-37.70285,GREENSBOROUGH,3088,NORTH-WESTERN VICTORIA,Banyule (C),66
Mother of God School,Primary,144.80081,-37.77941,ARDEER,3022,SOUTH-WESTERN VICTORIA,Brimbank (C),118
St Peter Chanel School,Primary,144.76927,-37.76853,DEER PARK,3023,SOUTH-WESTERN VICTORIA,Brimbank (C),118
Christ the King Primary School,Primary,144.86196,-37.78761,BRAYBROOK,3019,SOUTH-WESTERN VICTORIA,Maribyrnong (C),433
Corpus Christi School,Primary,144.9228,-37.70389,GLENROY,3046,NORTH-WESTERN VICTORIA,Merri-bek (C),525
Killester College,Secondary,145.15202,-37.95907,SPRINGVALE,3171,SOUTH-EASTERN VICTORIA,Greater Dandenong (C),267
St Paul's School,Primary,144.80752,-37.78753,SUNSHINE WEST,3020,SOUTH-WESTERN VICTORIA,Brimbank (C),118
St Patrick's School,Primary,144.11184,-36.05485,PYRAMID HILL,3575,NORTH-WESTERN VICTORIA,Loddon (S),394
Clonard College,Secondary,144.33048,-38.13008,HERNE HILL,3218,SOUTH-WESTERN VICTORIA,Greater Geelong (C),275
Stella Maris School,Primary,145.04104,-37.98199,BEAUMARIS,3193,SOUTH-EASTERN VICTORIA,Bayside (C),91
St Therese's School,Primary,144.29824,-36.7669,KENNINGTON,3550,NORTH-WESTERN VICTORIA,Greater Bendigo (C),262
St Bernadette's School,Primary,144.83528,-37.77116,SUNSHINE NORTH,3020,SOUTH-WESTERN VICTORIA,Brimbank (C),118
St James' School,Primary,143.84018,-37.60347,SEBASTOPOL,3356,SOUTH-WESTERN VICTORIA,Ballarat (C),57
Sacred Heart School,Primary,142.15224,-34.18733,MILDURA,3500,NORTH-WESTERN VICTORIA,Mildura (RC),478
St Margaret's Primary School,Primary,144.89104,-37.7669,MARIBYRNONG,3032,SOUTH-WESTERN VICTORIA,Maribyrnong (C),433
Immaculate Heart of Mary School,Primary,146.29159,-38.18474,NEWBOROUGH,3825,SOUTH-EASTERN VICTORIA,Latrobe (C),381
Holy Family School,Primary,145.12963,-37.87426,MOUNT WAVERLEY,3149,NORTH-EASTERN VICTORIA,Monash (C),497
St Gerard's School,Primary,145.20582,-37.97133,DANDENONG NORTH,3175,SOUTH-EASTERN VICTORIA,Greater Dandenong (C),267
St Mel's School,Primary,145.41068,-36.39247,SHEPPARTON SOUTH,3630,NORTH-EASTERN VICTORIA,Greater Shepparton (C),283
Our Lady of Perpetual Succour School,Primary,145.11139,-37.83006,SURREY HILLS,3127,NORTH-EASTERN VICTORIA,Whitehorse (C),698
St Catherine's School,Primary,145.05217,-37.93822,MOORABBIN,3189,SOUTH-EASTERN VICTORIA,Kingston (C),343
Sacred Heart Girls' College,Secondary,145.08608,-37.90216,HUGHESDALE,3166,NORTH-EASTERN VICTORIA,Monash (C),497
St Vincent de Paul's School,Primary,146.41548,-38.23061,MORWELL EAST,3840,SOUTH-EASTERN VICTORIA,Latrobe (C),381
St Mary's School,Primary,142.85067,-35.50183,SEA LAKE,3533,NORTH-WESTERN VICTORIA,Buloke (S),127
St Joseph's School,Primary,145.61681,-37.79217,YARRA JUNCTION,3797,NORTH-EASTERN VICTORIA,Yarra Ranges (S),745
St Stephen's School,Primary,145.0192,-37.71157,RESERVOIR EAST,3073,NORTH-WESTERN VICTORIA,Darebin (C),189
St Brendan's School,Primary,148.01234,-37.87102,LAKES ENTRANCE,3909,SOUTH-EASTERN VICTORIA,East Gippsland (S),211
St Martin of Tours School,Primary,145.07698,-37.73518,ROSANNA,3084,NORTH-WESTERN VICTORIA,Banyule (C),66
St Michael's School,Primary,147.17342,-36.21623,TALLANGATTA,3700,NORTH-EASTERN VICTORIA,Towong (S),667
Christ Our Holy Redeemer School,Primary,145.10575,-37.89616,OAKLEIGH EAST,3166,NORTH-EASTERN VICTORIA,Monash (C),497
Our Lady of the Nativity School,Primary,144.89658,-37.75635,ABERFELDIE,3040,SOUTH-WESTERN VICTORIA,Moonee Valley (C),506
St John's Regional College,Secondary,145.22626,-37.99023,DANDENONG,3175,SOUTH-EASTERN VICTORIA,Greater Dandenong (C),267
Nagle College,Secondary,147.58766,-37.8371,BAIRNSDALE,3875,SOUTH-EASTERN VICTORIA,East Gippsland (S),211
St Mary's School,Pri/Sec,142.77851,-34.58471,ROBINVALE,3549,NORTH-WESTERN VICTORIA,Swan Hill (RC),661
Our Lady's School,Primary,146.32114,-36.37219,WANGARATTA,3677,NORTH-EASTERN VICTORIA,Wangaratta (RC),670
Emmaus College,Secondary,145.17411,-37.84779,VERMONT SOUTH,3133,NORTH-EASTERN VICTORIA,Whitehorse (C),698
St Dominic's School,Primary,144.9237,-37.68506,BROADMEADOWS,3047,NORTH-WESTERN VICTORIA,Hume (C),327
St Patrick's School,Primary,144.95359,-36.25266,TONGALA,3621,NORTH-WESTERN VICTORIA,Campaspe (S),137
St Leonard's School,Primary,145.16389,-37.8868,GLEN WAVERLEY,3150,NORTH-EASTERN VICTORIA,Monash (C),497
St Scholastica's School,Primary,145.12591,-37.85165,BENNETTSWOOD,3125,NORTH-EASTERN VICTORIA,Whitehorse (C),698
St Christopher's School,Primary,145.1502,-37.8711,GLEN WAVERLEY,3150,NORTH-EASTERN VICTORIA,Monash (C),497
St John Vianney's School,Primary,145.09249,-37.99047,PARKDALE EAST,3195,SOUTH-EASTERN VICTORIA,Kingston (C),343
Ss Peter & Paul's School,Primary,145.1534,-37.79055,DONCASTER EAST,3109,NORTH-EASTERN VICTORIA,Manningham (C),421
St Mary of the Angels College,Secondary,145.20875,-36.05766,NATHALIA,3638,NORTH-EASTERN VICTORIA,Moira (S),490
Holy Family School,Primary,145.23863,-37.9905,DOVETON,3177,SOUTH-EASTERN VICTORIA,Casey (C),161
Aquinas College,Secondary,145.23494,-37.82306,RINGWOOD,3134,NORTH-EASTERN VICTORIA,Maroondah (C),441
St Matthew's School,Primary,144.96795,-37.69816,FAWKNER NORTH,3060,NORTH-WESTERN VICTORIA,Merri-bek (C),525
St John Vianney's School,Primary,145.15956,-37.93272,MULGRAVE,3170,NORTH-EASTERN VICTORIA,Monash (C),497
St Luke's School,Primary,145.01883,-37.67237,LALOR,3075,NORTH-WESTERN VICTORIA,Whittlesea (C),707
St Francis de Sales School,Primary,144.92108,-37.71885,OAK PARK,3046,NORTH-WESTERN VICTORIA,Merri-bek (C),525
St Thomas More's School,Primary,145.35268,-37.90841,BELGRAVE,3160,NORTH-EASTERN VICTORIA,Yarra Ranges (S),745
St Pius X School,Primary,142.46583,-38.36492,WARRNAMBOOL WEST,3280,SOUTH-WESTERN VICTORIA,Warrnambool (C),673
St Christopher's School,Primary,144.88025,-37.72501,AIRPORT WEST,3042,SOUTH-WESTERN VICTORIA,Moonee Valley (C),506
Sacred Heart School,Primary,143.57855,-38.35316,ELIMINYT,3250,SOUTH-WESTERN VICTORIA,Colac-Otway (S),175
Sacred Heart School,Primary,145.15878,-37.67215,DIAMOND CREEK,3089,NORTH-WESTERN VICTORIA,Nillumbik (S),571
St Michael's School,Primary,145.35357,-38.03382,BERWICK,3806,SOUTH-EASTERN VICTORIA,Casey (C),161
Ave Maria College,Secondary,144.89796,-37.75662,ABERFELDIE,3040,SOUTH-WESTERN VICTORIA,Moonee Valley (C),506
Our Lady of the Way School,Primary,145.03552,-37.71526,KINGSBURY,3083,NORTH-WESTERN VICTORIA,Darebin (C),189
St Luke the Evangelist School,Primary,145.14671,-37.83555,BLACKBURN SOUTH,3130,NORTH-EASTERN VICTORIA,Whitehorse (C),698
St Bernard's School,Primary,146.3056,-36.34656,WANGARATTA,3677,NORTH-EASTERN VICTORIA,Wangaratta (RC),670
Our Lady Help of Christians School,Primary,142.47365,-36.62268,MURTOA,3390,SOUTH-WESTERN VICTORIA,Yarriambiack (S),763
Marian College,Secondary,144.80613,-37.78773,SUNSHINE WEST,3020,SOUTH-WESTERN VICTORIA,Brimbank (C),118
Mount St Joseph Girls' College,Secondary,144.81167,-37.8639,ALTONA,3018,SOUTH-WESTERN VICTORIA,Hobsons Bay (C),311
Our Lady Help of Christians School,Primary,143.82561,-37.52544,WENDOUREE,3355,SOUTH-WESTERN VICTORIA,Ballarat (C),57
St Clement of Rome School,Primary,145.09033,-37.7673,BULLEEN,3105,NORTH-EASTERN VICTORIA,Manningham (C),421
St Joseph's Primary School,Primary,145.27481,-37.86271,BORONIA,3155,NORTH-EASTERN VICTORIA,Knox (C),367
Sacred Heart School,Primary,147.89919,-36.19824,CORRYONG,3707,NORTH-EASTERN VICTORIA,Towong (S),667
Mater Christi College,Secondary,145.35889,-37.91064,BELGRAVE,3160,NORTH-EASTERN VICTORIA,Yarra Ranges (S),745
Our Lady of Lourdes School,Primary,145.26576,-37.84898,BAYSWATER,3153,NORTH-EASTERN VICTORIA,Knox (C),367
St Joseph's College,Secondary,145.29509,-37.89049,FERNTREE GULLY,3156,NORTH-EASTERN VICTORIA,Knox (C),367
Annunciation School,Primary,144.84796,-37.82099,BROOKLYN,3012,SOUTH-WESTERN VICTORIA,Hobsons Bay (C),311
St Louis de Montfort's School,Primary,145.10226,-38.01813,ASPENDALE,3195,SOUTH-EASTERN VICTORIA,Kingston (C),343
St Thomas More's School,Primary,144.94494,-37.70729,HADFIELD,3046,NORTH-WESTERN VICTORIA,Merri-bek (C),525
Avila College,Secondary,145.13326,-37.87467,MOUNT WAVERLEY,3149,NORTH-EASTERN VICTORIA,Monash (C),497
St Philip's School,Primary,145.16659,-37.80764,BLACKBURN NORTH,3130,NORTH-EASTERN VICTORIA,Whitehorse (C),698
Holy Child School,Primary,144.93198,-37.66574,DALLAS,3047,NORTH-WESTERN VICTORIA,Hume (C),327
Emmanuel College,Secondary,144.84239,-37.83162,ALTONA NORTH,3025,SOUTH-WESTERN VICTORIA,Hobsons Bay (C),311
St Peter Julian Eymard,Primary,145.31752,-37.78791,MOOROOLBARK,3138,NORTH-EASTERN VICTORIA,Yarra Ranges (S),745
St Damian's School,Primary,145.05722,-37.69849,BUNDOORA,3083,NORTH-WESTERN VICTORIA,Whittlesea (C),707
St Monica's College,Secondary,145.03141,-37.65518,EPPING,3076,NORTH-WESTERN VICTORIA,Whittlesea (C),707
Christ the King School,Primary,144.3931,-38.16655,NEWCOMB,3219,SOUTH-WESTERN VICTORIA,Greater Geelong (C),275
Mercy College,Secondary,144.96456,-37.7304,COBURG,3058,NORTH-WESTERN VICTORIA,Merri-bek (C),525
St Timothy's School,Primary,145.18365,-37.84039,VERMONT,3133,NORTH-EASTERN VICTORIA,Whitehorse (C),698
St Mary's School,Primary,146.97239,-37.9635,MAFFRA,3860,SOUTH-EASTERN VICTORIA,Wellington (S),681
St Macartan's School,Primary,145.07046,-38.22321,MORNINGTON,3931,SOUTH-EASTERN VICTORIA,Mornington Peninsula (S),534
St John's School,Primary,145.1481,-38.14582,FRANKSTON EAST,3199,SOUTH-EASTERN VICTORIA,Frankston (C),217
St Mary's College for the Deaf,Special,145.24279,-37.8779,WANTIRNA SOUTH,3152,NORTH-EASTERN VICTORIA,Knox (C),367
John Paul College,Secondary,145.13887,-38.13557,FRANKSTON,3199,SOUTH-EASTERN VICTORIA,Frankston (C),217
St Anne's School,Primary,145.14095,-38.1066,SEAFORD,3198,SOUTH-EASTERN VICTORIA,Frankston (C),217
Mazenod College,Secondary,145.16614,-37.9152,MULGRAVE,3170,NORTH-EASTERN VICTORIA,Monash (C),497
St Martin de Porres School,Primary,144.86162,-37.75847,AVONDALE HEIGHTS,3034,SOUTH-WESTERN VICTORIA,Moonee Valley (C),506
St Gregory the Great School,Primary,145.12228,-37.7806,DONCASTER,3108,NORTH-EASTERN VICTORIA,Manningham (C),421
St Kevin's School,Primary,145.12287,-37.76127,TEMPLESTOWE LOWER,3107,NORTH-EASTERN VICTORIA,Manningham (C),421
St James' School,Primary,145.20969,-37.83675,VERMONT,3133,NORTH-EASTERN VICTORIA,Whitehorse (C),698
Good Shepherd School,Primary,145.16605,-37.90812,WHEELERS HILL,3150,NORTH-EASTERN VICTORIA,Monash (C),497
MacKillop Catholic Regional College,Secondary,144.6651,-37.9095,WERRIBEE,3030,SOUTH-WESTERN VICTORIA,Wyndham (C),726
St Thomas' School,Primary,147.08331,-38.0994,SALE,3850,SOUTH-EASTERN VICTORIA,Wellington (S),681
St Leo the Great Primary School,Primary,144.85169,-37.83922,ALTONA NORTH,3025,SOUTH-WESTERN VICTORIA,Hobsons Bay (C),311
St Peter's School,Primary,144.85942,-37.74424,KEILOR EAST,3033,SOUTH-WESTERN VICTORIA,Moonee Valley (C),506
Our Lady Help of Christians School,Primary,142.51953,-38.38525,WARRNAMBOOL EAST,3280,SOUTH-WESTERN VICTORIA,Warrnambool (C),673
Marian College,Secondary,146.72536,-36.55334,MYRTLEFORD,3737,NORTH-EASTERN VICTORIA,Alpine (S),11
St Martin de Porres School,Primary,144.77698,-37.85378,LAVERTON,3028,SOUTH-WESTERN VICTORIA,Hobsons Bay (C),311
St Jude the Apostle School,Primary,145.22596,-37.88984,SCORESBY,3179,NORTH-EASTERN VICTORIA,Knox (C),367
St Monica's School,Primary,146.87264,-36.12675,WODONGA WEST,3690,NORTH-EASTERN VICTORIA,Wodonga (C),717
St Peter's School,Primary,144.27274,-36.74417,BENDIGO NORTH,3550,NORTH-WESTERN VICTORIA,Greater Bendigo (C),262
St Mark's School,Primary,145.12957,-37.98666,DINGLEY,3172,SOUTH-EASTERN VICTORIA,Kingston (C),343
Holy Eucharist School,Primary,144.81141,-37.75644,ST ALBANS,3021,SOUTH-WESTERN VICTORIA,Brimbank (C),118
St Paul's Primary School,Primary,142.15603,-34.2046,MILDURA,3500,NORTH-WESTERN VICTORIA,Mildura (RC),478
St Peter Apostle School,Primary,144.69031,-37.87464,HOPPERS CROSSING,3029,SOUTH-WESTERN VICTORIA,Wyndham (C),726
St John XXIII Primary School,Primary,145.0392,-37.67842,THOMASTOWN EAST,3074,NORTH-WESTERN VICTORIA,Whittlesea (C),707
School of the Good Shepherd,Primary,144.88946,-37.69303,GLADSTONE PARK,3043,NORTH-WESTERN VICTORIA,Hume (C),327
St Agatha's School,Primary,145.27885,-38.11164,CRANBOURNE,3977,SOUTH-EASTERN VICTORIA,Casey (C),161
Resurrection School,Primary,145.16293,-37.98994,KEYSBOROUGH,3173,SOUTH-EASTERN VICTORIA,Greater Dandenong (C),267
St Dominic's School,Primary,144.58464,-37.68092,MELTON,3337,SOUTH-WESTERN VICTORIA,Melton (C),465
St Francis Xavier School,Primary,144.35813,-38.07203,CORIO,3214,SOUTH-WESTERN VICTORIA,Greater Geelong (C),275
Galen Catholic College,Secondary,146.31054,-36.33875,WANGARATTA,3677,NORTH-EASTERN VICTORIA,Wangaratta (RC),670
Holy Spirit School,Primary,145.23692,-37.79323,RINGWOOD NORTH,3134,NORTH-EASTERN VICTORIA,Maroondah (C),441
Lumen Christi School,Primary,146.41571,-38.3164,CHURCHILL,3842,SOUTH-EASTERN VICTORIA,Latrobe (C),381
Holy Saviour Parish School,Primary,145.17504,-37.86234,VERMONT SOUTH,3133,NORTH-EASTERN VICTORIA,Whitehorse (C),698
St Clare's School,Primary,144.99772,-37.67775,THOMASTOWN WEST,3074,NORTH-WESTERN VICTORIA,Whittlesea (C),707
St Anne's School,Primary,144.71746,-37.56839,SUNBURY,3429,NORTH-WESTERN VICTORIA,Hume (C),327
Our Lady of the Pines School,Primary,145.17721,-37.77444,DONVALE,3111,NORTH-EASTERN VICTORIA,Manningham (C),421
St Jude's School,Primary,145.19111,-38.15528,LANGWARRIN,3910,SOUTH-EASTERN VICTORIA,Frankston (C),217
St Paul's Kealba Catholic School,Primary,144.81963,-37.73374,KEALBA,3021,SOUTH-WESTERN VICTORIA,Brimbank (C),118
St Elizabeth's School,Primary,145.19888,-37.94632,DANDENONG NORTH,3175,SOUTH-EASTERN VICTORIA,Greater Dandenong (C),267
St Joseph the Worker School,Primary,144.99292,-37.70222,RESERVOIR NORTH,3073,NORTH-WESTERN VICTORIA,Darebin (C),189
Resurrection School,Primary,144.77539,-37.7363,KINGS PARK,3021,SOUTH-WESTERN VICTORIA,Brimbank (C),118
Catholic Regional College St Albans,Secondary,144.79909,-37.73889,ST ALBANS,3021,SOUTH-WESTERN VICTORIA,Brimbank (C),118
St Francis Xavier College,Secondary,145.37311,-38.052,BEACONSFIELD,3807,SOUTH-EASTERN VICTORIA,Cardinia (S),145
Nazareth School,Primary,144.33011,-38.20252,GROVEDALE,3216,SOUTH-WESTERN VICTORIA,Greater Geelong (C),275
St Augustine's Primary School,Primary,144.82052,-37.71063,KEILOR,3036,SOUTH-WESTERN VICTORIA,Brimbank (C),118
St Anthony's School,Primary,144.5729,-37.70966,MELTON SOUTH,3338,SOUTH-WESTERN VICTORIA,Melton (C),465
St Thomas the Apostle School,Primary,145.11911,-37.68219,GREENSBOROUGH NORTH,3088,NORTH-WESTERN VICTORIA,Nillumbik (S),571
St Luke's School,Primary,145.23507,-37.85338,WANTIRNA,3152,NORTH-EASTERN VICTORIA,Knox (C),367
St Peter's School,Primary,144.81962,-37.80028,SUNSHINE WEST,3020,SOUTH-WESTERN VICTORIA,Brimbank (C),118
Catholic College Wodonga,Secondary,146.86239,-36.12962,WODONGA,3690,NORTH-EASTERN VICTORIA,Wodonga (C),717
Caroline Chisholm Catholic College,Secondary,144.8501,-37.78586,BRAYBROOK,3019,SOUTH-WESTERN VICTORIA,Maribyrnong (C),433
St Thomas More School,Primary,143.79995,-37.55349,ALFREDTON,3350,SOUTH-WESTERN VICTORIA,Ballarat (C),57
St Mary's School,Primary,145.39586,-37.79052,MOUNT EVELYN,3796,NORTH-EASTERN VICTORIA,Yarra Ranges (S),745
St Anne's School,Primary,145.21859,-37.7733,PARK ORCHARDS,3114,NORTH-EASTERN VICTORIA,Manningham (C),421
St Gabriel's School,Primary,146.51105,-38.18765,TRARALGON WEST,3844,SOUTH-EASTERN VICTORIA,Latrobe (C),381
Our Lady's School,Primary,144.93137,-37.5986,CRAIGIEBURN,3064,NORTH-WESTERN VICTORIA,Hume (C),327
St Augustine's School,Primary,145.14587,-38.17205,FRANKSTON SOUTH,3199,SOUTH-EASTERN VICTORIA,Frankston (C),217
St Francis of Assisi School,Primary,145.05891,-37.66499,MILL PARK,3082,NORTH-WESTERN VICTORIA,Whittlesea (C),707
Loyola College,Secondary,145.08073,-37.7034,WATSONIA,3087,NORTH-WESTERN VICTORIA,Banyule (C),66
St Francis Catholic College,Secondary,144.55041,-37.67725,MELTON,3337,SOUTH-WESTERN VICTORIA,Melton (C),465
St Paul Apostle South School,Primary,145.25793,-37.98052,ENDEAVOUR HILLS,3802,SOUTH-EASTERN VICTORIA,Casey (C),161
St Andrew's School,Primary,145.10719,-37.93489,CLAYTON SOUTH,3169,SOUTH-EASTERN VICTORIA,Kingston (C),343
St Thomas More's School,Primary,145.10114,-38.19773,MOUNT ELIZA,3930,SOUTH-EASTERN VICTORIA,Mornington Peninsula (S),534
St Francis' School,Primary,145.20774,-36.0586,NATHALIA,3638,NORTH-EASTERN VICTORIA,Moira (S),490
St James the Apostle School,Primary,144.68749,-37.85729,HOPPERS CROSSING NORTH,3029,SOUTH-WESTERN VICTORIA,Wyndham (C),726
St Simon's School,Primary,145.24533,-37.92568,ROWVILLE,3178,NORTH-EASTERN VICTORIA,Knox (C),367
Queen of Peace Primary School,Primary,144.7917,-37.87515,ALTONA MEADOWS,3028,SOUTH-WESTERN VICTORIA,Hobsons Bay (C),311
Don Bosco School,Primary,145.31501,-38.02597,NARRE WARREN,3805,SOUTH-EASTERN VICTORIA,Casey (C),161
Our Lady Star of the Sea School,Primary,144.54016,-38.26078,OCEAN GROVE,3226,SOUTH-WESTERN VICTORIA,Greater Geelong (C),275
Catholic Regional College Institute of Training,Secondary,144.77101,-37.69914,SYDENHAM,3037,SOUTH-WESTERN VICTORIA,Brimbank (C),118
Catholic Regional College North Keilor,Secondary,144.80506,-37.69994,KEILOR NORTH,3036,SOUTH-WESTERN VICTORIA,Brimbank (C),118
St Bernadette's Catholic Primary School,Primary,145.31084,-37.8539,THE BASIN,3154,NORTH-EASTERN VICTORIA,Knox (C),367
St Catherine's School,Primary,145.00324,-37.6656,LALOR WEST,3075,NORTH-WESTERN VICTORIA,Whittlesea (C),707
St Anthony's School,Primary,144.39058,-38.01519,LARA,3212,SOUTH-WESTERN VICTORIA,Greater Geelong (C),275
St Mary's School,Primary,145.11454,-37.50906,WHITTLESEA,3757,NORTH-WESTERN VICTORIA,Whittlesea (C),707
St Charles Borromeo School,Primary,145.15431,-37.76748,TEMPLESTOWE,3106,NORTH-EASTERN VICTORIA,Manningham (C),421
St Mary MacKillop Primary School,Primary,144.80435,-37.71462,KEILOR DOWNS,3038,SOUTH-WESTERN VICTORIA,Brimbank (C),118
St Catherine of Siena School,Primary,144.5502,-37.67878,MELTON WEST,3337,SOUTH-WESTERN VICTORIA,Melton (C),465
St Paul's School,Primary,145.41206,-37.868,MONBULK,3793,NORTH-EASTERN VICTORIA,Yarra Ranges (S),745
Our Lady of Fatima School,Primary,144.89754,-38.37133,ROSEBUD,3939,SOUTH-EASTERN VICTORIA,Mornington Peninsula (S),534
St Justin's School,Primary,145.19051,-37.91781,WHEELERS HILL,3150,NORTH-EASTERN VICTORIA,Monash (C),497
St Richard's Primary School,Primary,145.32174,-37.80656,KILSYTH,3137,NORTH-EASTERN VICTORIA,Yarra Ranges (S),745
Holy Trinity School,Primary,145.24291,-37.87747,WANTIRNA SOUTH,3152,NORTH-EASTERN VICTORIA,Knox (C),367
St Paul Apostle North School,Primary,145.26266,-37.96753,ENDEAVOUR HILLS,3802,SOUTH-EASTERN VICTORIA,Casey (C),161
Corpus Christi School,Primary,144.66344,-37.90995,WERRIBEE,3030,SOUTH-WESTERN VICTORIA,Wyndham (C),726
Nazareth College,Secondary,145.19546,-37.94023,NOBLE PARK NORTH,3174,SOUTH-EASTERN VICTORIA,Greater Dandenong (C),267
St Therese School,Primary,144.31185,-38.32112,TORQUAY,3228,SOUTH-WESTERN VICTORIA,Surf Coast (S),649
Mary MacKillop Catholic Regional College,Secondary,145.96354,-38.46673,LEONGATHA,3953,SOUTH-EASTERN VICTORIA,South Gippsland (S),617
St Joachim's School,Primary,145.17847,-38.10335,CARRUM DOWNS,3201,SOUTH-EASTERN VICTORIA,Frankston (C),217
Holy Trinity Primary School,Primary,145.13546,-37.69844,ELTHAM NORTH,3095,NORTH-WESTERN VICTORIA,Banyule (C),66
St Carlo Borromeo School,Primary,144.88864,-37.65364,GREENVALE,3059,NORTH-WESTERN VICTORIA,Hume (C),327
St Mary MacKillop College,Secondary,143.5568,-35.34192,SWAN HILL,3585,NORTH-WESTERN VICTORIA,Swan Hill (RC),661
St Kevin's School,Primary,145.2674,-38.03932,HAMPTON PARK,3976,SOUTH-EASTERN VICTORIA,Casey (C),161
St Peter's College,Secondary,145.25687,-38.10841,CRANBOURNE,3977,SOUTH-EASTERN VICTORIA,Casey (C),161
St Therese's School,Primary,145.26724,-38.07727,CRANBOURNE,3977,SOUTH-EASTERN VICTORIA,Casey (C),161
St Ita's School,Primary,145.862,-38.13244,DROUIN,3818,SOUTH-EASTERN VICTORIA,Baw Baw (S),83
Lumen Christi School,Primary,143.81724,-37.58019,DELACOMBE,3356,SOUTH-WESTERN VICTORIA,Ballarat (C),57
St Francis of the Fields School,Primary,144.36129,-36.80447,STRATHFIELDSAYE,3551,NORTH-WESTERN VICTORIA,Greater Bendigo (C),262
Galilee Regional Catholic Primary School,Primary,144.95481,-37.83616,SOUTH MELBOURNE,3205,SOUTH-EASTERN VICTORIA,Port Phillip (C),590
St Brendan's School,Primary,145.1684,-38.23365,SOMERVILLE,3912,SOUTH-EASTERN VICTORIA,Mornington Peninsula (S),534
Mary MacKillop School,Primary,145.31128,-37.99584,NARRE WARREN NORTH,3804,SOUTH-EASTERN VICTORIA,Casey (C),161
Bethany Catholic Primary School,Primary,144.65866,-37.87559,WERRIBEE NORTH,3030,SOUTH-WESTERN VICTORIA,Wyndham (C),726
Penola Catholic College,Secondary,144.91826,-37.68786,BROADMEADOWS,3047,NORTH-WESTERN VICTORIA,Hume (C),327
Good Samaritan Catholic Primary School,Primary,144.93432,-37.62344,ROXBURGH PARK,3064,NORTH-WESTERN VICTORIA,Hume (C),327
Holy Cross Primary School,Primary,144.59778,-37.45589,NEW GISBORNE,3438,NORTH-WESTERN VICTORIA,Macedon Ranges (S),413
St Catherine's Primary School,Primary,145.33695,-38.06977,BERWICK,3806,SOUTH-EASTERN VICTORIA,Casey (C),161
Emmaus Catholic Primary School,Primary,144.77224,-37.7003,SYDENHAM,3037,SOUTH-WESTERN VICTORIA,Brimbank (C),118
Thomas Carr College,Secondary,144.70206,-37.84768,TARNEIT,3029,SOUTH-WESTERN VICTORIA,Wyndham (C),726
St Thomas Primary School,Primary,144.55617,-38.18801,DRYSDALE,3222,SOUTH-WESTERN VICTORIA,Greater Geelong (C),275
Clairvaux Catholic School,Primary,144.3249,-38.18552,BELMONT,3216,SOUTH-WESTERN VICTORIA,Greater Geelong (C),275
Christ the Priest Catholic Primary School,Primary,144.73744,-37.74772,CAROLINE SPRINGS,3023,SOUTH-WESTERN VICTORIA,Melton (C),465
Lumen Christi School,Primary,144.75334,-37.8926,POINT COOK,3030,SOUTH-WESTERN VICTORIA,Wyndham (C),726
Trinity Catholic Primary School,Primary,145.29799,-38.05539,NARRE WARREN SOUTH,3805,SOUTH-EASTERN VICTORIA,Casey (C),161
Columba Catholic School,Primary,145.71586,-38.09326,BUNYIP,3815,SOUTH-EASTERN VICTORIA,Cardinia (S),145
Lavalla Catholic College,Secondary,146.51425,-38.2009,TRARALGON,3844,SOUTH-EASTERN VICTORIA,Latrobe (C),381
Antonine College,Pri/Sec,144.94274,-37.74119,PASCOE VALE SOUTH,3044,NORTH-WESTERN VICTORIA,Merri-bek (C),525
Cana Catholic Primary School,Primary,144.74715,-37.68792,HILLSIDE,3037,SOUTH-WESTERN VICTORIA,Melton (C),465
St Luke's Catholic Primary School,Primary,145.41203,-36.32432,SHEPPARTON NORTH,3631,NORTH-EASTERN VICTORIA,Greater Shepparton (C),283
"St Francis of Assisi Primary School, Wodonga",Primary,146.93993,-36.17389,BARANDUDA,3691,NORTH-EASTERN VICTORIA,Wodonga (C),717
Marymede Catholic College,Pri/Sec,145.09103,-37.64332,SOUTH MORANG,3752,NORTH-WESTERN VICTORIA,Whittlesea (C),707
Stella Maris Catholic Primary School,Primary,144.72868,-37.89076,POINT COOK,3030,SOUTH-WESTERN VICTORIA,Wyndham (C),726
Trinity Catholic School,Primary,145.00824,-37.81585,RICHMOND,3121,NORTH-WESTERN VICTORIA,Yarra (C),735
DOXA School Bendigo,Special,144.28602,-36.75554,BENDIGO,3550,NORTH-WESTERN VICTORIA,Greater Bendigo (C),262
Catholic Regional College Caroline Springs,Secondary,144.7396,-37.72888,CAROLINE SPRINGS,3023,SOUTH-WESTERN VICTORIA,Melton (C),465
Emmaus Catholic Primary School,Primary,143.87158,-37.61258,MOUNT CLEAR,3350,SOUTH-WESTERN VICTORIA,Ballarat (C),57
Kolbe Catholic College,Secondary,144.90947,-37.61532,GREENVALE LAKES,3059,NORTH-WESTERN VICTORIA,Hume (C),327
Mother Teresa School,Primary,144.93276,-37.57522,MT RIDLEY,3064,NORTH-WESTERN VICTORIA,Hume (C),327
Our Lady of the Southern Cross,Primary,144.60622,-37.87585,MANOR LAKES,3024,SOUTH-WESTERN VICTORIA,Wyndham (C),726
St George Preca School,Primary,144.73671,-37.71349,CAROLINE SPRINGS,3023,SOUTH-WESTERN VICTORIA,Melton (C),465
St Joseph's School,Primary,145.0906,-37.59574,MERNDA,3754,NORTH-WESTERN VICTORIA,Whittlesea (C),707
"Borinya, Wangaratta Community Partnership",Special,146.30898,-36.33783,WANGARATTA,3676,NORTH-EASTERN VICTORIA,Wangaratta (RC),670
St Brigid's School,Primary,145.40567,-38.05462,OFFICER,3809,SOUTH-EASTERN VICTORIA,Cardinia (S),145
St Francis de Sales Catholic Primary School,Primary,145.25248,-38.05901,LYNBROOK,3975,SOUTH-EASTERN VICTORIA,Casey (C),161
St Lawrence Catholic Primary School,Primary,144.76052,-37.79068,DERRIMUT,3026,SOUTH-WESTERN VICTORIA,Brimbank (C),118
MacKillop Specialist School,Special,144.38711,-38.17432,WHITTINGTON,3219,SOUTH-WESTERN VICTORIA,Greater Geelong (C),275
St Francis of Assisi Catholic Primary School,Primary,144.69823,-37.84829,TARNEIT,3029,SOUTH-WESTERN VICTORIA,Wyndham (C),726
St Joseph's,Special,144.95494,-37.80384,NORTH MELBOURNE,3051,SOUTH-WESTERN VICTORIA,Melbourne (C),460
St Mary of the Cross MacKillop Catholic Parish Primary School,Primary,145.0126,-37.626,EPPING NORTH,3076,NORTH-WESTERN VICTORIA,Whittlesea (C),707
St Mary of the Cross Catholic Primary School,Primary,144.76595,-37.9088,POINT COOK,3030,SOUTH-WESTERN VICTORIA,Wyndham (C),726
St Thomas the Apostle Catholic Primary School,Primary,145.31704,-38.11617,CRANBOURNE EAST,3977,SOUTH-EASTERN VICTORIA,Casey (C),161
St John the Apostle Catholic Primary School,Primary,144.66571,-37.83342,TARNEIT,3029,SOUTH-WESTERN VICTORIA,Wyndham (C),726
St Clare's Catholic Primary School,Primary,144.72821,-37.84381,TRUGANINA SOUTH,3029,SOUTH-WESTERN VICTORIA,Wyndham (C),726
St Clare's Primary School,Primary,145.43271,-38.06277,OFFICER,3809,SOUTH-EASTERN VICTORIA,Cardinia (S),145
St Paul the Apostle Catholic Primary School,Primary,145.11522,-37.59693,DOREEN,3754,NORTH-WESTERN VICTORIA,Whittlesea (C),707
Marist College Bendigo,Pri/Sec,144.22169,-36.73171,MAIDEN GULLY,3551,NORTH-WESTERN VICTORIA,Greater Bendigo (C),262
Siena Catholic Primary School,Primary,143.78041,-37.54597,LUCAS,3350,SOUTH-WESTERN VICTORIA,Ballarat (C),57
Oscar Romero Catholic Primary School,Primary,144.8961,-37.58197,CRAIGIEBURN WEST,3064,NORTH-WESTERN VICTORIA,Hume (C),327
St Mary MacKillop Catholic Primary School,Primary,144.1701,-38.04693,BANNOCKBURN,3331,SOUTH-WESTERN VICTORIA,Golden Plains (S),249
Our Lady of the Way Catholic Primary School,Primary,144.99984,-37.4241,WALLAN EAST,3756,NORTH-EASTERN VICTORIA,Mitchell (S),485
Lisieux Catholic Primary School,Primary,144.33228,-38.30332,TORQUAY NORTH,3228,SOUTH-WESTERN VICTORIA,Surf Coast (S),649
Our Lady Star of the Sea Catholic Primary School,Primary,145.2398,-38.4637,COWES,3922,SOUTH-EASTERN VICTORIA,Bass Coast (S),74
St Anne's College,Pri/Sec,145.40034,-36.43612,KIALLA,3631,NORTH-EASTERN VICTORIA,Greater Shepparton (C),283
Holy Trinity Catholic Primary School,Primary,144.70532,-37.58479,SUNBURY,3429,NORTH-WESTERN VICTORIA,Hume (C),327
Glowrey Catholic Primary School,Primary,145.03178,-37.61582,WOLLERT,3750,NORTH-WESTERN VICTORIA,Whittlesea (C),707
St Catherine of Siena Catholic Primary School,Primary,144.36945,-38.24009,ARMSTRONG CREEK,3217,SOUTH-WESTERN VICTORIA,Greater Geelong (C),275
Iona College Geelong,Secondary,144.35671,-38.21912,CHARLEMONT,3217,SOUTH-WESTERN VICTORIA,Greater Geelong (C),275
St Josephs Catholic Primary School,Primary,144.61028,-37.9033,WERRIBEE,3030,SOUTH-WESTERN VICTORIA,Wyndham (C),726
St Angela of the Cross Primary School,Primary,145.96161,-38.14153,WARRAGUL,3820,SOUTH-EASTERN VICTORIA,Baw Baw (S),83
Ignatius Learning Centre,Secondary,144.99848,-37.82191,RICHMOND,3121,NORTH-WESTERN VICTORIA,Yarra (C),735
St Lawrence of Brindisi Catholic Primary School,Primary,144.57246,-37.73305,WEIR VIEWS,3338,SOUTH-WESTERN VICTORIA,Melton (C),465
Holy Cross Catholic Primary School,Primary,144.9052,-37.53046,MICKLEHAM,3064,NORTH-WESTERN VICTORIA,Hume (C),327
Mary Queen of Heaven Catholic Primary School,Primary,144.88566,-37.62974,GREENVALE,3059,NORTH-WESTERN VICTORIA,Hume (C),327
St Teresa of Kolkata Catholic Primary School,Primary,144.68607,-37.82362,TARNEIT NORTH,3029,SOUTH-WESTERN VICTORIA,Wyndham (C),726
Alberton Primary School,Primary,146.6666,-38.61771,Alberton,3971,SOUTH-EASTERN VICTORIA,Wellington (S),681
Allansford and District Primary School,Primary,142.59039,-38.38628,Allansford,3277,SOUTH-WESTERN VICTORIA,Warrnambool (C),673
Avoca Primary School,Primary,143.47565,-37.0845,Avoca,3467,SOUTH-WESTERN VICTORIA,Pyrenees (S),599
Avenel Primary School,Primary,145.23472,-36.90137,Avenel,3664,NORTH-EASTERN VICTORIA,Strathbogie (S),643
Warrandyte Primary School,Primary,145.21398,-37.74268,Warrandyte,3113,NORTH-EASTERN VICTORIA,Manningham (C),421
Belmont Primary School,Primary,144.3421,-38.17067,Belmont,3216,SOUTH-WESTERN VICTORIA,Greater Geelong (C),275
Bacchus Marsh Primary School,Primary,144.44312,-37.67303,Bacchus Marsh,3340,SOUTH-WESTERN VICTORIA,Moorabool (S),515
Ballarat Primary School (Dana Street),Primary,143.85394,-37.56401,Ballarat,3350,SOUTH-WESTERN VICTORIA,Ballarat (C),57
Wodonga Primary School,Primary,146.88982,-36.12921,Wodonga,3690,NORTH-EASTERN VICTORIA,Wodonga (C),717
Berwick Primary School,Primary,145.35442,-38.04409,Berwick,3806,SOUTH-EASTERN VICTORIA,Casey (C),161
Beaufort Primary School,Primary,143.38172,-37.43852,Beaufort,3373,SOUTH-WESTERN VICTORIA,Pyrenees (S),599
Cheltenham Primary School,Primary,145.05463,-37.96861,Cheltenham,3192,SOUTH-EASTERN VICTORIA,Bayside (C),91
Cudgee Primary School,Primary,142.65084,-38.34794,Cudgee,3265,SOUTH-WESTERN VICTORIA,Moyne (S),549
Newport Lakes Primary School,Primary,144.87834,-37.83842,Newport,3015,SOUTH-WESTERN VICTORIA,Hobsons Bay (C),311
Cavendish Primary School,Primary,142.03989,-37.53087,Cavendish,3314,SOUTH-WESTERN VICTORIA,Southern Grampians (S),626
Colac Primary School,Primary,143.59834,-38.33722,Colac,3250,SOUTH-WESTERN VICTORIA,Colac-Otway (S),175
Castlemaine Primary School,Primary,144.22233,-37.0666,Castlemaine,3450,NORTH-WESTERN VICTORIA,Mount Alexander (S),543
Campbells Creek Primary School,Primary,144.20466,-37.09293,Campbells Creek,3451,NORTH-WESTERN VICTORIA,Mount Alexander (S),543
Creswick Primary School,Primary,143.89156,-37.42411,Creswick,3363,SOUTH-WESTERN VICTORIA,Hepburn (S),291
California Gully Primary School,Primary,144.24986,-36.73321,California Gully,3556,NORTH-WESTERN VICTORIA,Greater Bendigo (C),262
St Andrews Primary School,Primary,145.26983,-37.60232,St Andrews,3761,NORTH-WESTERN VICTORIA,Nillumbik (S),571
Warrnambool West Primary School,Primary,142.4668,-38.36634,Warrnambool,3280,SOUTH-WESTERN VICTORIA,Warrnambool (C),673
Dromana Primary School,Primary,144.95965,-38.33964,Dromana,3936,SOUTH-EASTERN VICTORIA,Mornington Peninsula (S),534
Doncaster Primary School,Primary,145.12967,-37.7868,Doncaster,3108,NORTH-EASTERN VICTORIA,Manningham (C),421
Echuca Primary School,Primary,144.74746,-36.1282,Echuca,3564,NORTH-WESTERN VICTORIA,Campaspe (S),137
Eltham Primary School,Primary,145.1478,-37.72498,Eltham,3095,NORTH-WESTERN VICTORIA,Nillumbik (S),571
Eaglehawk Primary School,Primary,144.25426,-36.72058,Eaglehawk,3556,NORTH-WESTERN VICTORIA,Greater Bendigo (C),262
Elphinstone Primary School,Primary,144.3329,-37.105,Elphinstone,3448,NORTH-WESTERN VICTORIA,Mount Alexander (S),543
Hallam Primary School,Primary,145.25824,-38.00176,Hallam,3803,SOUTH-EASTERN VICTORIA,Casey (C),161
Flemington Primary School,Primary,144.93392,-37.78067,Flemington,3031,SOUTH-WESTERN VICTORIA,Moonee Valley (C),506
Footscray Primary School,Primary,144.89267,-37.79838,Footscray,3011,SOUTH-WESTERN VICTORIA,Maribyrnong (C),433
Gisborne Primary School,Primary,144.58844,-37.49086,Gisborne,3437,NORTH-WESTERN VICTORIA,Macedon Ranges (S),413
Sandringham Primary School,Primary,145.00947,-37.94704,Sandringham,3191,SOUTH-EASTERN VICTORIA,Bayside (C),91
Wandiligong Primary School,Primary,146.98292,-36.76886,Wandiligong,3744,NORTH-EASTERN VICTORIA,Alpine (S),11
Grovedale Primary School,Primary,144.34776,-38.19764,Grovedale,3216,SOUTH-WESTERN VICTORIA,Greater Geelong (C),275
Hawthorn West Primary School,Primary,145.01838,-37.82011,Hawthorn,3122,NORTH-EASTERN VICTORIA,Boroondara (C),111
Heidelberg Primary School,Primary,145.0678,-37.7547,Heidelberg,3084,NORTH-WESTERN VICTORIA,Banyule (C),66
Hamilton (Gray Street) Primary School,Primary,142.02138,-37.74491,Hamilton,3300,SOUTH-WESTERN VICTORIA,Southern Grampians (S),626
Heathcote Primary School,Primary,144.70685,-36.92401,Heathcote,3523,NORTH-WESTERN VICTORIA,Greater Bendigo (C),262
Highton Primary School,Primary,144.31708,-38.17216,Highton,3216,SOUTH-WESTERN VICTORIA,Greater Geelong (C),275
Huntly Primary School,Primary,144.3344,-36.66254,Huntly,3551,NORTH-WESTERN VICTORIA,Greater Bendigo (C),262
Bellbrae Primary School,Primary,144.263,-38.33364,Bellbrae,3228,SOUTH-WESTERN VICTORIA,Surf Coast (S),649
Chiltern Primary School,Primary,146.6066,-36.14707,Chiltern,3683,NORTH-EASTERN VICTORIA,Indigo (S),335
Kyneton Primary School,Primary,144.46269,-37.24889,Kyneton,3444,NORTH-WESTERN VICTORIA,Macedon Ranges (S),413
Romsey Primary School,Primary,144.74538,-37.35418,Romsey,3434,NORTH-WESTERN VICTORIA,Macedon Ranges (S),413
Shelford Primary School,Primary,143.98214,-38.01399,Shelford,3329,SOUTH-WESTERN VICTORIA,Golden Plains (S),249
Lockwood South Primary School,Primary,144.15675,-36.8416,Lockwood South,3551,NORTH-WESTERN VICTORIA,Greater Bendigo (C),262
Marong Primary School,Primary,144.13537,-36.73568,Marong,3515,NORTH-WESTERN VICTORIA,Greater Bendigo (C),262
Mount Macedon Primary School,Primary,144.58413,-37.40479,Mount Macedon,3441,NORTH-WESTERN VICTORIA,Macedon Ranges (S),413
Mount Clear Primary School,Primary,143.86837,-37.60474,Mount Clear,3350,SOUTH-WESTERN VICTORIA,Ballarat (C),57
Melton Primary School,Primary,144.58702,-37.68046,Melton,3337,SOUTH-WESTERN VICTORIA,Melton (C),465
Fitzroy Primary School,Primary,144.98151,-37.7996,Fitzroy,3065,NORTH-WESTERN VICTORIA,Yarra (C),735
Newstead Primary School,Primary,144.06719,-37.10592,Newstead,3462,NORTH-WESTERN VICTORIA,Mount Alexander (S),543
Newlyn Primary School,Primary,143.98443,-37.41202,Newlyn,3364,SOUTH-WESTERN VICTORIA,Hepburn (S),291
Burwood East Primary School,Primary,145.15181,-37.85973,Burwood East,3151,NORTH-EASTERN VICTORIA,Whitehorse (C),698
New Gisborne Primary School,Primary,144.59658,-37.46289,New Gisborne,3438,NORTH-WESTERN VICTORIA,Macedon Ranges (S),413
Beeac Primary School,Primary,143.64428,-38.19397,Beeac,3251,SOUTH-WESTERN VICTORIA,Colac-Otway (S),175
Essendon Primary School,Primary,144.92104,-37.7531,Essendon,3040,SOUTH-WESTERN VICTORIA,Moonee Valley (C),506
Coburg Primary School,Primary,144.96821,-37.7413,Coburg,3058,NORTH-WESTERN VICTORIA,Merri-bek (C),525
Penshurst Primary School,Primary,142.29133,-37.87918,Penshurst,3289,SOUTH-WESTERN VICTORIA,Southern Grampians (S),626
Myrniong Primary School,Primary,144.34632,-37.61972,Myrniong,3341,SOUTH-WESTERN VICTORIA,Moorabool (S),515
Mernda Primary School,Primary,145.09224,-37.5946,Mernda,3754,NORTH-WESTERN VICTORIA,Whittlesea (C),707
Portland Primary School,Primary,141.59941,-38.3473,Portland,3305,SOUTH-WESTERN VICTORIA,Glenelg (S),241
Stawell Primary School,Primary,142.77378,-37.05613,Stawell,3380,SOUTH-WESTERN VICTORIA,Northern Grampians (S),581
Rutherglen Primary School,Primary,146.46061,-36.05621,Rutherglen,3685,NORTH-EASTERN VICTORIA,Indigo (S),335
Riddells Creek Primary School,Primary,144.67978,-37.46122,Riddells Creek,3431,NORTH-WESTERN VICTORIA,Macedon Ranges (S),413
Rokewood Primary School,Primary,143.72281,-37.90366,Rokewood,3330,SOUTH-WESTERN VICTORIA,Golden Plains (S),249
Geelong East Primary School,Primary,144.38277,-38.17551,Geelong East,3219,SOUTH-WESTERN VICTORIA,Greater Geelong (C),275
Sale Primary School,Primary,147.07364,-38.1083,Sale,3850,SOUTH-EASTERN VICTORIA,Wellington (S),681
Skipton Primary School,Primary,143.36816,-37.68686,Skipton,3361,SOUTH-WESTERN VICTORIA,Corangamite (S),183
South Yarra Primary School,Primary,144.98562,-37.84135,South Yarra,3141,SOUTH-EASTERN VICTORIA,Melbourne (C),460
Stratford Primary School,Primary,147.08539,-37.96725,Stratford,3862,SOUTH-EASTERN VICTORIA,Wellington (S),681
Taradale Primary School,Primary,144.35106,-37.14131,Taradale,3447,NORTH-WESTERN VICTORIA,Mount Alexander (S),543
Koroit And District Primary School,Primary,142.3687,-38.29244,Koroit,3282,SOUTH-WESTERN VICTORIA,Moyne (S),549
Tylden Primary School,Primary,144.40878,-37.32497,Tylden,3444,NORTH-WESTERN VICTORIA,Macedon Ranges (S),413
Thomastown Primary School,Primary,145.0115,-37.68227,Thomastown,3074,NORTH-WESTERN VICTORIA,Whittlesea (C),707
Wangaratta Primary School,Primary,146.32942,-36.35528,Wangaratta,3677,NORTH-EASTERN VICTORIA,Wangaratta (RC),670
Wahgunyah Primary School,Primary,146.39792,-36.01365,Wahgunyah,3687,NORTH-EASTERN VICTORIA,Indigo (S),335
Woodend Primary School,Primary,144.53294,-37.35342,Woodend,3442,NORTH-WESTERN VICTORIA,Macedon Ranges (S),413
Woodford Primary School,Primary,142.4845,-38.31681,Woodford,3281,SOUTH-WESTERN VICTORIA,Warrnambool (C),673
Werribee Primary School,Primary,144.65874,-37.90687,Werribee,3030,SOUTH-WESTERN VICTORIA,Wyndham (C),726
Winters Flat Primary School,Primary,144.20749,-37.07016,Castlemaine,3450,NORTH-WESTERN VICTORIA,Mount Alexander (S),543
Wooragee Primary School,Primary,146.73088,-36.29048,Wooragee,3747,NORTH-EASTERN VICTORIA,Indigo (S),335
Wallan Primary School,Primary,144.97504,-37.41146,Wallan,3756,NORTH-EASTERN VICTORIA,Mitchell (S),485
Woolsthorpe Primary School,Primary,142.43176,-38.18741,Woolsthorpe,3276,SOUTH-WESTERN VICTORIA,Moyne (S),549
Yandoit Primary School,Primary,144.08844,-37.214,Yandoit,3461,SOUTH-WESTERN VICTORIA,Hepburn (S),291
Yarram Primary School,Primary,146.67532,-38.55853,Yarram,3971,SOUTH-EASTERN VICTORIA,Wellington (S),681
Pleasant Street Primary School (Ballarat),Primary,143.8385,-37.55633,Lake Wendouree,3350,SOUTH-WESTERN VICTORIA,Ballarat (C),57
Yea Primary School,Primary,145.4283,-37.21273,Yea,3717,NORTH-EASTERN VICTORIA,Murrindindi (S),562
Lancefield Primary School,Primary,144.72642,-37.27495,Lancefield,3435,NORTH-WESTERN VICTORIA,Macedon Ranges (S),413
Coimadai Primary School,Primary,144.47831,-37.61379,Coimadai,3340,SOUTH-WESTERN VICTORIA,Moorabool (S),515
Birregurra Primary School,Primary,143.78651,-38.34046,Birregurra,3242,SOUTH-WESTERN VICTORIA,Colac-Otway (S),175
Clayton North Primary School,Primary,145.12267,-37.91194,Clayton,3168,NORTH-EASTERN VICTORIA,Monash (C),497
Milawa Primary School,Primary,146.43248,-36.44454,Milawa,3678,NORTH-EASTERN VICTORIA,Wangaratta (RC),670
Lockwood Primary School,Primary,144.16156,-36.80258,Lockwood,3551,NORTH-WESTERN VICTORIA,Greater Bendigo (C),262
Bealiba Primary School,Primary,143.5519,-36.78994,Bealiba,3475,NORTH-WESTERN VICTORIA,Central Goldfields (S),167
Bairnsdale Primary School,Primary,147.62323,-37.82742,Bairnsdale,3875,SOUTH-EASTERN VICTORIA,East Gippsland (S),211
Gordon Primary School,Primary,144.10505,-37.58385,Gordon,3345,SOUTH-WESTERN VICTORIA,Moorabool (S),515
Hepburn Primary School,Primary,144.13276,-37.30972,Hepburn,3461,SOUTH-WESTERN VICTORIA,Hepburn (S),291
Lara Lake Primary School,Primary,144.39564,-38.0304,Lara Lake,3212,SOUTH-WESTERN VICTORIA,Greater Geelong (C),275
Rosedale Primary School,Primary,146.7739,-38.1546,Rosedale,3847,SOUTH-EASTERN VICTORIA,Wellington (S),681
Bright P-12 College,Pri/Sec,146.96093,-36.7331,Bright,3741,NORTH-EASTERN VICTORIA,Alpine (S),11
Rochester Primary School,Primary,144.698,-36.3546,Rochester,3561,NORTH-WESTERN VICTORIA,Campaspe (S),137
Ararat Primary School,Primary,142.93731,-37.28594,Ararat,3377,SOUTH-WESTERN VICTORIA,Ararat (RC),26
Jamieson Primary School,Primary,146.14,-37.30126,Jamieson,3723,NORTH-EASTERN VICTORIA,Mansfield (S),425
Preston South Primary School,Primary,145.00745,-37.74787,Preston,3072,NORTH-WESTERN VICTORIA,Darebin (C),189
Omeo Primary School,Primary,147.59308,-37.10022,Omeo,3898,SOUTH-EASTERN VICTORIA,East Gippsland (S),211
Harrietville Primary School,Primary,147.06494,-36.88771,Harrietville,3741,NORTH-EASTERN VICTORIA,Alpine (S),11
Mordialloc Beach Primary School,Primary,145.08881,-38.00558,Mordialloc,3195,SOUTH-EASTERN VICTORIA,Kingston (C),343
Healesville Primary School,Primary,145.51604,-37.65713,Healesville,3777,NORTH-EASTERN VICTORIA,Yarra Ranges (S),745
Lake Bolac College,Pri/Sec,142.8379,-37.72024,Lake Bolac,3351,SOUTH-WESTERN VICTORIA,Ararat (RC),26
Toongabbie Primary School,Primary,146.62518,-38.05697,Toongabbie,3856,SOUTH-EASTERN VICTORIA,Latrobe (C),381
Waubra Primary School,Primary,143.63446,-37.35384,Waubra,3352,SOUTH-WESTERN VICTORIA,Pyrenees (S),599
Great Western Primary School,Primary,142.85173,-37.14851,Great Western,3374,SOUTH-WESTERN VICTORIA,Northern Grampians (S),581
Maffra Primary School,Primary,146.97677,-37.964,Maffra,3860,SOUTH-EASTERN VICTORIA,Wellington (S),681
Broken Creek Primary School,Primary,145.88923,-36.42328,Broken Creek,3673,NORTH-EASTERN VICTORIA,Benalla (RC),101
Lal Lal Primary School,Primary,144.01071,-37.67672,Lal Lal,3352,SOUTH-WESTERN VICTORIA,Moorabool (S),515
Cobden Primary School,Primary,143.07812,-38.32712,Cobden,3266,SOUTH-WESTERN VICTORIA,Corangamite (S),183
St Leonards Primary School,Primary,144.71475,-38.17184,St Leonards,3223,SOUTH-WESTERN VICTORIA,Greater Geelong (C),275
Lilydale Primary School,Primary,145.35407,-37.75367,Lilydale,3140,NORTH-EASTERN VICTORIA,Yarra Ranges (S),745
Bendigo Primary School,Primary,144.26524,-36.75702,Bendigo,3550,NORTH-WESTERN VICTORIA,Greater Bendigo (C),262
Darraweit Guim Primary School,Primary,144.89357,-37.40103,Darraweit Guim,3756,NORTH-WESTERN VICTORIA,Macedon Ranges (S),413
Linton Primary School,Primary,143.56131,-37.68407,Linton,3360,SOUTH-WESTERN VICTORIA,Golden Plains (S),249
Invermay Primary School,Primary,143.87458,-37.52053,Invermay,3352,SOUTH-WESTERN VICTORIA,Ballarat (C),57
Mitta Mitta Primary School,Primary,147.37948,-36.53341,Mitta Mitta,3701,NORTH-EASTERN VICTORIA,Towong (S),667
Camberwell Primary School,Primary,145.05805,-37.83268,Camberwell,3124,NORTH-EASTERN VICTORIA,Boroondara (C),111
Greenvale Primary School,Primary,144.88618,-37.63983,Greenvale,3059,NORTH-WESTERN VICTORIA,Hume (C),327
Alexandra Primary School,Primary,145.7117,-37.19257,Alexandra,3714,NORTH-EASTERN VICTORIA,Murrindindi (S),562
Rockbank Primary School,Primary,144.6619,-37.73215,Rockbank,3335,SOUTH-WESTERN VICTORIA,Melton (C),465
Bannockburn P-12 College,Pri/Sec,144.16067,-38.042,Bannockburn,3331,SOUTH-WESTERN VICTORIA,Golden Plains (S),249
Doreen Primary School,Primary,145.14554,-37.60601,Doreen,3754,NORTH-WESTERN VICTORIA,Nillumbik (S),571
Talbot Primary School,Primary,143.7036,-37.16865,Talbot,3371,NORTH-WESTERN VICTORIA,Central Goldfields (S),167
Yarra Glen Primary School,Primary,145.37241,-37.6497,Yarra Glen,3775,NORTH-EASTERN VICTORIA,Yarra Ranges (S),745
Kangaroo Flat Primary School,Primary,144.23409,-36.78768,Kangaroo Flat,3555,NORTH-WESTERN VICTORIA,Greater Bendigo (C),262
Westmeadows Primary School,Primary,144.8957,-37.67565,Westmeadows,3049,NORTH-WESTERN VICTORIA,Hume (C),327
Sunbury Primary School,Primary,144.72814,-37.59769,Sunbury,3429,NORTH-WESTERN VICTORIA,Hume (C),327
Diamond Creek Primary School,Primary,145.15165,-37.67185,Diamond Creek,3089,NORTH-WESTERN VICTORIA,Nillumbik (S),571
Hesket Primary School,Primary,144.61978,-37.34781,Hesket,3442,NORTH-WESTERN VICTORIA,Macedon Ranges (S),413
Axedale Primary School,Primary,144.50146,-36.78623,Axedale,3551,NORTH-WESTERN VICTORIA,Greater Bendigo (C),262
Vermont Primary School,Primary,145.1943,-37.83736,Vermont,3133,NORTH-EASTERN VICTORIA,Whitehorse (C),698
Tarnagulla Primary School,Primary,143.8284,-36.77126,Tarnagulla,3551,NORTH-WESTERN VICTORIA,Loddon (S),394
Balwyn Primary School,Primary,145.08138,-37.81394,Balwyn,3103,NORTH-EASTERN VICTORIA,Boroondara (C),111
Scoresby Primary School,Primary,145.2275,-37.89395,Scoresby,3179,NORTH-EASTERN VICTORIA,Knox (C),367
Carisbrook Primary School,Primary,143.81266,-37.05206,Carisbrook,3464,NORTH-WESTERN VICTORIA,Central Goldfields (S),167
Wandin Yallock Primary School,Primary,145.43595,-37.79025,Wandin North,3139,NORTH-EASTERN VICTORIA,Yarra Ranges (S),745
Yering Primary School,Primary,145.38222,-37.70535,Yering,3770,NORTH-EASTERN VICTORIA,Yarra Ranges (S),745
Dartmoor Primary School,Primary,141.27673,-37.92302,Dartmoor,3304,SOUTH-WESTERN VICTORIA,Glenelg (S),241
Mickleham Primary School,Primary,144.87655,-37.5635,Mickleham,3064,NORTH-WESTERN VICTORIA,Hume (C),327
Inglewood Primary School,Primary,143.87045,-36.57394,Inglewood,3517,NORTH-WESTERN VICTORIA,Loddon (S),394
Chewton Primary School,Primary,144.26116,-37.08233,Chewton,3451,NORTH-WESTERN VICTORIA,Mount Alexander (S),543
Bolinda Primary School,Primary,144.7454,-37.43373,Bolinda,3432,NORTH-WESTERN VICTORIA,Macedon Ranges (S),413
Napoleons Primary School,Primary,143.82646,-37.67863,Napoleons,3352,SOUTH-WESTERN VICTORIA,Golden Plains (S),249
Kew Primary School,Primary,145.03339,-37.80364,Kew,3101,NORTH-EASTERN VICTORIA,Boroondara (C),111
Haddon Primary School,Primary,143.72171,-37.58864,Haddon,3351,SOUTH-WESTERN VICTORIA,Golden Plains (S),249
Panmure Primary School,Primary,142.73253,-38.32935,Panmure,3265,SOUTH-WESTERN VICTORIA,Moyne (S),549
Sorrento Primary School,Primary,144.74069,-38.34148,Sorrento,3943,SOUTH-EASTERN VICTORIA,Mornington Peninsula (S),534
Alfredton Primary School,Primary,143.8021,-37.5548,Alfredton,3350,SOUTH-WESTERN VICTORIA,Ballarat (C),57
Bridgewater Primary School,Primary,143.94592,-36.6031,Bridgewater On Loddon,3516,NORTH-WESTERN VICTORIA,Loddon (S),394
Hastings Primary School,Primary,145.18947,-38.2997,Hastings,3915,SOUTH-EASTERN VICTORIA,Mornington Peninsula (S),534
Yackandandah Primary School,Primary,146.83646,-36.3121,Yackandandah,3749,NORTH-EASTERN VICTORIA,Indigo (S),335
Nagambie Primary School,Primary,145.15723,-36.78759,Nagambie,3608,NORTH-EASTERN VICTORIA,Strathbogie (S),643
Heyfield Primary School,Primary,146.78494,-37.98211,Heyfield,3858,SOUTH-EASTERN VICTORIA,Wellington (S),681
Moorabbin Primary School,Primary,145.03959,-37.94202,Moorabbin,3189,SOUTH-EASTERN VICTORIA,Kingston (C),343
Mansfield Primary School,Primary,146.08482,-37.05559,Mansfield,3722,NORTH-EASTERN VICTORIA,Mansfield (S),425
Middle Indigo Primary School,Primary,146.72484,-36.15601,Indigo Valley,3688,NORTH-EASTERN VICTORIA,Indigo (S),335
Briagolong Primary School,Primary,147.06784,-37.8428,Briagolong,3860,SOUTH-EASTERN VICTORIA,Wellington (S),681
Lindenow Primary School,Primary,147.45327,-37.80088,Lindenow,3865,SOUTH-EASTERN VICTORIA,East Gippsland (S),211
Broadford Primary School,Primary,145.0463,-37.20257,Broadford,3658,NORTH-EASTERN VICTORIA,Mitchell (S),485
Murchison Primary School,Primary,145.21429,-36.61718,Murchison,3610,NORTH-EASTERN VICTORIA,Greater Shepparton (C),283
Panton Hill Primary School,Primary,145.23956,-37.64161,Panton Hill,3759,NORTH-WESTERN VICTORIA,Nillumbik (S),571
Glen Park Primary School,Primary,143.9348,-37.52478,Glen Park,3352,SOUTH-WESTERN VICTORIA,Moorabool (S),515
Concongella Primary School,Primary,142.82232,-37.04956,CONCONGELLA,3384,SOUTH-WESTERN VICTORIA,Northern Grampians (S),581
Bruthen Primary School,Primary,147.83349,-37.70421,Bruthen,3885,SOUTH-EASTERN VICTORIA,East Gippsland (S),211
Swan Hill Primary School,Primary,143.54325,-35.34691,Swan Hill,3585,NORTH-WESTERN VICTORIA,Swan Hill (RC),661
Porepunkah Primary School,Primary,146.91102,-36.69949,Porepunkah,3740,NORTH-EASTERN VICTORIA,Alpine (S),11
Leopold Primary School,Primary,144.46437,-38.18726,Leopold,3224,SOUTH-WESTERN VICTORIA,Greater Geelong (C),275
Inverleigh Primary School,Primary,144.05469,-38.10094,Inverleigh,3321,SOUTH-WESTERN VICTORIA,Golden Plains (S),249
Glen Iris Primary School,Primary,145.06589,-37.86048,Glen Iris,3146,NORTH-EASTERN VICTORIA,Boroondara (C),111
Trawalla Primary School,Primary,143.46986,-37.43773,Trawalla,3373,SOUTH-WESTERN VICTORIA,Pyrenees (S),599
Quarry Hill Primary School,Primary,144.27998,-36.77512,Quarry Hill,3550,NORTH-WESTERN VICTORIA,Greater Bendigo (C),262
Sebastopol Primary School,Primary,143.84472,-37.59643,Sebastopol,3356,SOUTH-WESTERN VICTORIA,Ballarat (C),57
Woodside Primary School,Primary,146.87674,-38.52633,Woodside,3874,SOUTH-EASTERN VICTORIA,Wellington (S),681
Noorat Primary School,Primary,142.92873,-38.19075,Noorat,3265,SOUTH-WESTERN VICTORIA,Corangamite (S),183
Albert Park Primary School,Primary,144.95277,-37.84188,Albert Park,3206,SOUTH-EASTERN VICTORIA,Port Phillip (C),590
Williamstown Primary School,Primary,144.90041,-37.8638,Williamstown,3016,SOUTH-WESTERN VICTORIA,Hobsons Bay (C),311
Boneo Primary School,Primary,144.88711,-38.41198,Boneo,3939,SOUTH-EASTERN VICTORIA,Mornington Peninsula (S),534
Queenscliff Primary School,Primary,144.65621,-38.26722,Queenscliff,3225,SOUTH-WESTERN VICTORIA,Queenscliffe (B),608
Portland North Primary School,Primary,141.57233,-38.31764,Portland North,3305,SOUTH-WESTERN VICTORIA,Glenelg (S),241
Timor Primary School,Primary,143.71199,-36.98422,Timor,3465,NORTH-WESTERN VICTORIA,Central Goldfields (S),167
Apsley Primary School,Primary,141.08249,-36.97371,Apsley,3319,SOUTH-WESTERN VICTORIA,West Wimmera (S),689
Strathfieldsaye Primary School,Primary,144.35291,-36.80436,Strathfieldsaye,3551,NORTH-WESTERN VICTORIA,Greater Bendigo (C),262
Skye Primary School,Primary,145.20124,-38.11771,Skye,3977,SOUTH-EASTERN VICTORIA,Frankston (C),217
Lucknow Primary School,Primary,147.63075,-37.81267,Eastwood,3875,SOUTH-EASTERN VICTORIA,East Gippsland (S),211
Upper Plenty Primary School,Primary,145.05787,-37.42371,Upper Plenty,3756,NORTH-EASTERN VICTORIA,Mitchell (S),485
Carlton North Primary School,Primary,144.97303,-37.79106,Carlton North,3054,NORTH-WESTERN VICTORIA,Yarra (C),735
Maldon Primary School,Primary,144.06581,-36.99504,Maldon,3463,NORTH-WESTERN VICTORIA,Mount Alexander (S),543
Woori Yallock Primary School,Primary,145.53269,-37.77737,Woori Yallock,3139,NORTH-EASTERN VICTORIA,Yarra Ranges (S),745
Moyston Primary School,Primary,142.76785,-37.30166,Moyston,3377,SOUTH-WESTERN VICTORIA,Ararat (RC),26
Buninyong Primary School,Primary,143.88625,-37.65423,Buninyong,3357,SOUTH-WESTERN VICTORIA,Ballarat (C),57
Marysville Primary School,Primary,145.74894,-37.51198,Marysville,3779,NORTH-EASTERN VICTORIA,Murrindindi (S),562
Langley Primary School,Primary,144.48966,-37.17118,Langley,3444,NORTH-WESTERN VICTORIA,Mount Alexander (S),543
Wandong Primary School,Primary,145.02786,-37.3603,Wandong,3758,NORTH-EASTERN VICTORIA,Mitchell (S),485
Cowes Primary School,Primary,145.24131,-38.45628,Cowes,3922,SOUTH-EASTERN VICTORIA,Bass Coast (S),74
Bullarto Primary School,Primary,144.21822,-37.40538,Bullarto,3461,SOUTH-WESTERN VICTORIA,Hepburn (S),291
Lismore Primary School,Primary,143.3393,-37.9546,Lismore,3324,SOUTH-WESTERN VICTORIA,Corangamite (S),183
Lower Plenty Primary School,Primary,145.1155,-37.72617,Lower Plenty,3093,NORTH-WESTERN VICTORIA,Banyule (C),66
Specimen Hill Primary School,Primary,144.24834,-36.76187,Golden Square,3555,NORTH-WESTERN VICTORIA,Greater Bendigo (C),262
Bolwarra Primary School,Primary,141.6138,-38.28161,Bolwarra,3305,SOUTH-WESTERN VICTORIA,Glenelg (S),241
Navarre Primary School,Primary,143.11134,-36.90074,Navarre,3384,SOUTH-WESTERN VICTORIA,Northern Grampians (S),581
Warracknabeal Primary School,Primary,142.39126,-36.25788,Warracknabeal,3393,SOUTH-WESTERN VICTORIA,Yarriambiack (S),763
Moyhu Primary School,Primary,146.38309,-36.59317,Moyhu,3732,NORTH-EASTERN VICTORIA,Wangaratta (RC),670
Natte Yallock Primary School,Primary,143.468,-36.94213,Natte Yallock,3465,SOUTH-WESTERN VICTORIA,Pyrenees (S),599
Clifton Hill Primary School,Primary,144.98925,-37.79231,Clifton Hill,3068,NORTH-WESTERN VICTORIA,Yarra (C),735
Christmas Hills Primary School,Primary,145.3042,-37.65352,Christmas Hills,3775,NORTH-WESTERN VICTORIA,Nillumbik (S),571
Tallangatta Primary School,Primary,147.1742,-36.2148,Tallangatta,3700,NORTH-EASTERN VICTORIA,Towong (S),667
Kialla Central Primary School,Primary,145.43115,-36.4527,Kialla,3631,NORTH-EASTERN VICTORIA,Greater Shepparton (C),283
Mount Eliza Primary School,Primary,145.09219,-38.19539,Mount Eliza,3930,SOUTH-EASTERN VICTORIA,Mornington Peninsula (S),534
San Remo Primary School,Primary,145.36945,-38.52385,San Remo,3925,SOUTH-EASTERN VICTORIA,Bass Coast (S),74
Dimboola Primary School,Primary,142.0304,-36.45336,Dimboola,3414,SOUTH-WESTERN VICTORIA,Hindmarsh (S),298
Whorouly Primary School,Primary,146.58665,-36.50544,Whorouly,3735,NORTH-EASTERN VICTORIA,Wangaratta (RC),670
Merrijig Primary School,Primary,146.25688,-37.1028,Merrijig,3723,NORTH-EASTERN VICTORIA,Mansfield (S),425
Lethbridge Primary School,Primary,144.13456,-37.96906,Lethbridge,3332,SOUTH-WESTERN VICTORIA,Golden Plains (S),249
Oxley Primary School,Primary,146.36064,-36.44156,Oxley,3678,NORTH-EASTERN VICTORIA,Wangaratta (RC),670
Northcote Primary School,Primary,144.99688,-37.77176,Northcote,3070,NORTH-WESTERN VICTORIA,Darebin (C),189
North Melbourne Primary School,Primary,144.95064,-37.79873,North Melbourne,3051,SOUTH-WESTERN VICTORIA,Melbourne (C),460
Dandenong Primary School,Primary,145.21982,-37.98792,Dandenong,3175,SOUTH-EASTERN VICTORIA,Greater Dandenong (C),267
Malmsbury Primary School,Primary,144.38694,-37.18732,Malmsbury,3446,NORTH-WESTERN VICTORIA,Macedon Ranges (S),413
Williamstown North Primary School,Primary,144.89176,-37.8559,Williamstown,3016,SOUTH-WESTERN VICTORIA,Hobsons Bay (C),311
Kerang Primary School,Primary,143.92114,-35.73169,Kerang,3579,NORTH-WESTERN VICTORIA,Gannawarra (S),225
Drouin West Primary School,Primary,145.87172,-38.08711,Drouin West,3818,SOUTH-EASTERN VICTORIA,Baw Baw (S),83
Meredith Primary School,Primary,144.07781,-37.84271,Meredith,3333,SOUTH-WESTERN VICTORIA,Golden Plains (S),249
Edi Upper Primary School,Primary,146.44881,-36.70647,Edi Upper,3678,NORTH-EASTERN VICTORIA,Wangaratta (RC),670
Eaglehawk North Primary School,Primary,144.23727,-36.70707,Eaglehawk,3556,NORTH-WESTERN VICTORIA,Greater Bendigo (C),262
Mooroopna Primary School,Primary,145.36029,-36.39136,Mooroopna,3629,NORTH-EASTERN VICTORIA,Greater Shepparton (C),283
Cairnlea Park Primary School,Primary,144.788,-37.75885,Cairnlea,3023,SOUTH-WESTERN VICTORIA,Brimbank (C),118
Ballan Primary School,Primary,144.2311,-37.60168,Ballan,3342,SOUTH-WESTERN VICTORIA,Moorabool (S),515
Mount Pleasant Primary School,Primary,143.85781,-37.57836,Ballarat,3350,SOUTH-WESTERN VICTORIA,Ballarat (C),57
Tatura Primary School,Primary,145.22992,-36.44497,Tatura,3616,NORTH-EASTERN VICTORIA,Greater Shepparton (C),283
Toolamba Primary School,Primary,145.34418,-36.49052,Toolamba,3614,NORTH-EASTERN VICTORIA,Greater Shepparton (C),283
Harston Primary School,Primary,145.14175,-36.46986,Tatura,3616,NORTH-EASTERN VICTORIA,Greater Shepparton (C),283
Osbornes Flat Primary School,Primary,146.89257,-36.31716,Osbornes Flat,3691,NORTH-EASTERN VICTORIA,Indigo (S),335
Frankston Primary School,Primary,145.12403,-38.14756,Frankston,3199,SOUTH-EASTERN VICTORIA,Frankston (C),217
Donald Primary School,Primary,142.98463,-36.36721,Donald,3480,SOUTH-WESTERN VICTORIA,Buloke (S),127
Beveridge Primary School,Primary,144.97776,-37.47206,Beveridge,3753,NORTH-EASTERN VICTORIA,Mitchell (S),485
St Kilda Primary School,Primary,144.98902,-37.87022,St Kilda,3182,SOUTH-EASTERN VICTORIA,Port Phillip (C),590
Cape Clear Primary School,Primary,143.60821,-37.79196,Cape Clear,3351,SOUTH-WESTERN VICTORIA,Golden Plains (S),249
Warburton Primary School,Primary,145.7017,-37.7558,Warburton,3799,NORTH-EASTERN VICTORIA,Yarra Ranges (S),745
Tallarook Primary School,Primary,145.10067,-37.09676,Tallarook,3659,NORTH-EASTERN VICTORIA,Mitchell (S),485
Barnawartha Primary School,Primary,146.67589,-36.10131,Barnawartha,3688,NORTH-EASTERN VICTORIA,Indigo (S),335
Fitzroy North Primary School,Primary,144.98415,-37.78502,Fitzroy North,3068,NORTH-WESTERN VICTORIA,Yarra (C),735
Ashby Primary School,Primary,144.3471,-38.13856,Geelong West,3218,SOUTH-WESTERN VICTORIA,Greater Geelong (C),275
Preston Primary School,Primary,145.01031,-37.73055,Preston,3072,NORTH-WESTERN VICTORIA,Darebin (C),189
Tooradin Primary School,Primary,145.37849,-38.20763,Tooradin,3980,SOUTH-EASTERN VICTORIA,Casey (C),161
Glenferrie Primary School,Primary,145.03397,-37.82405,Hawthorn,3122,NORTH-EASTERN VICTORIA,Boroondara (C),111
Elmore Primary School,Primary,144.60891,-36.4972,Elmore,3558,NORTH-WESTERN VICTORIA,Greater Bendigo (C),262
Dookie Primary School,Primary,145.68279,-36.33107,Dookie,3646,NORTH-EASTERN VICTORIA,Greater Shepparton (C),283
Brighton Primary School,Primary,145.00108,-37.91221,Brighton,3186,SOUTH-EASTERN VICTORIA,Bayside (C),91
Natimuk Primary School,Primary,141.9505,-36.74124,Natimuk,3409,SOUTH-WESTERN VICTORIA,Horsham (RC),319
Murtoa College,Pri/Sec,142.47574,-36.6235,Murtoa,3390,SOUTH-WESTERN VICTORIA,Yarriambiack (S),763
Big Hill Primary School,Primary,144.24247,-36.83058,Big Hill,3555,NORTH-WESTERN VICTORIA,Greater Bendigo (C),262
Clunes Primary School,Primary,143.79211,-37.29075,Clunes,3370,SOUTH-WESTERN VICTORIA,Hepburn (S),291
Marnoo Primary School,Primary,142.87035,-36.67685,Marnoo,3387,SOUTH-WESTERN VICTORIA,Northern Grampians (S),581
Beechworth Primary School,Primary,146.69357,-36.35543,Beechworth,3747,NORTH-EASTERN VICTORIA,Indigo (S),335
Ardmona Primary School,Primary,145.31307,-36.38546,Ardmona,3629,NORTH-EASTERN VICTORIA,Greater Shepparton (C),283
Kilmore Primary School,Primary,144.94752,-37.29577,Kilmore,3764,NORTH-EASTERN VICTORIA,Mitchell (S),485
Macarthur Primary School,Primary,142.00147,-38.03088,Macarthur,3286,SOUTH-WESTERN VICTORIA,Moyne (S),549
Barwon Heads Primary School,Primary,144.48704,-38.28119,Barwon Heads,3227,SOUTH-WESTERN VICTORIA,Greater Geelong (C),275
Keilor Primary School,Primary,144.8357,-37.7169,Keilor,3036,SOUTH-WESTERN VICTORIA,Brimbank (C),118
Dunolly Primary School,Primary,143.73358,-36.85155,Dunolly,3472,NORTH-WESTERN VICTORIA,Central Goldfields (S),167
Springhurst Primary School,Primary,146.4681,-36.18467,Springhurst,3682,NORTH-EASTERN VICTORIA,Wangaratta (RC),670
Trentham District Primary School,Primary,144.3281,-37.38797,Trentham,3458,SOUTH-WESTERN VICTORIA,Hepburn (S),291
Warrenheip Primary School,Primary,143.92743,-37.5741,Warrenheip,3352,SOUTH-WESTERN VICTORIA,Ballarat (C),57
Maiden Gully Primary School,Primary,144.2097,-36.74419,Maiden Gully,3551,NORTH-WESTERN VICTORIA,Greater Bendigo (C),262
Rupanyup Primary School,Primary,142.62861,-36.63222,Rupanyup,3388,SOUTH-WESTERN VICTORIA,Yarriambiack (S),763
Goornong Primary School,Primary,144.50468,-36.617,Goornong,3557,NORTH-WESTERN VICTORIA,Greater Bendigo (C),262
Oakleigh Primary School,Primary,145.08862,-37.89447,Oakleigh,3166,NORTH-EASTERN VICTORIA,Monash (C),497
Ceres Primary School,Primary,144.26673,-38.17355,Ceres,3221,SOUTH-WESTERN VICTORIA,Greater Geelong (C),275
Malvern Central School,Primary,145.0344,-37.85601,Malvern,3144,SOUTH-EASTERN VICTORIA,Stonnington (C),635
Daylesford Primary School,Primary,144.14156,-37.3451,Daylesford,3460,SOUTH-WESTERN VICTORIA,Hepburn (S),291
Mooroopna North Primary School,Primary,145.29849,-36.32914,Mooroopna,3629,NORTH-EASTERN VICTORIA,Greater Shepparton (C),283
Swan Reach Primary School,Primary,147.86479,-37.82108,Swan Reach,3903,SOUTH-EASTERN VICTORIA,East Gippsland (S),211
Amphitheatre Primary School,Primary,143.39924,-37.18413,Amphitheatre,3468,SOUTH-WESTERN VICTORIA,Pyrenees (S),599
Deans Marsh Primary School,Primary,143.88575,-38.39988,Deans Marsh,3235,SOUTH-WESTERN VICTORIA,Surf Coast (S),649
Drysdale Primary School,Primary,144.57175,-38.16916,Drysdale,3222,SOUTH-WESTERN VICTORIA,Greater Geelong (C),275
St Arnaud Primary School,Primary,143.25754,-36.6102,St Arnaud,3478,SOUTH-WESTERN VICTORIA,Northern Grampians (S),581
Nullawarre and District Primary School,Primary,142.73443,-38.46676,Nullawarre,3268,SOUTH-WESTERN VICTORIA,Moyne (S),549
Macedon Primary School,Primary,144.56268,-37.41869,Macedon,3440,NORTH-WESTERN VICTORIA,Macedon Ranges (S),413
Arthurs Creek Primary School,Primary,145.2025,-37.579,Arthurs Creek,3099,NORTH-WESTERN VICTORIA,Nillumbik (S),571
Rye Primary School,Primary,144.82382,-38.37312,Rye,3941,SOUTH-EASTERN VICTORIA,Mornington Peninsula (S),534
Buxton Primary School,Primary,145.70905,-37.4214,Buxton,3711,NORTH-EASTERN VICTORIA,Murrindindi (S),562
Moonambel Primary School,Primary,143.32074,-36.98986,Moonambel,3478,SOUTH-WESTERN VICTORIA,Pyrenees (S),599
Longford Primary School,Primary,147.08841,-38.16956,Longford,3851,SOUTH-EASTERN VICTORIA,Wellington (S),681
Harkaway Primary School,Primary,145.34517,-38.00085,Harkaway,3806,SOUTH-EASTERN VICTORIA,Casey (C),161
Balnarring Primary School,Primary,145.12282,-38.37672,Balnarring,3926,SOUTH-EASTERN VICTORIA,Mornington Peninsula (S),534
Carraragarmungee Primary School,Primary,146.46086,-36.3289,Londrigan,3678,NORTH-EASTERN VICTORIA,Wangaratta (RC),670
Euroa Primary School,Primary,145.57208,-36.75596,Euroa,3666,NORTH-EASTERN VICTORIA,Strathbogie (S),643
Pyramid Hill College,Pri/Sec,144.11368,-36.04736,Pyramid Hill,3575,NORTH-WESTERN VICTORIA,Loddon (S),394
Shepparton East Primary School,Primary,145.47925,-36.39993,Shepparton East,3631,NORTH-EASTERN VICTORIA,Greater Shepparton (C),283
Nicholson Primary School,Primary,147.74791,-37.81578,Nicholson,3882,SOUTH-EASTERN VICTORIA,East Gippsland (S),211
Kialla West Primary School,Primary,145.38946,-36.46601,Kialla West,3631,NORTH-EASTERN VICTORIA,Greater Shepparton (C),283
Miners Rest Primary School,Primary,143.7947,-37.47788,Miners Rest,3352,SOUTH-WESTERN VICTORIA,Ballarat (C),57
Glenrowan Primary School,Primary,146.22234,-36.46019,Glenrowan,3675,NORTH-EASTERN VICTORIA,Wangaratta (RC),670
Warrnambool Primary School,Primary,142.48257,-38.37728,Warrnambool,3280,SOUTH-WESTERN VICTORIA,Warrnambool (C),673
Undera Primary School,Primary,145.21893,-36.27636,Undera,3629,NORTH-EASTERN VICTORIA,Greater Shepparton (C),283
Dederang Primary School,Primary,147.01531,-36.46925,Dederang,3691,NORTH-EASTERN VICTORIA,Alpine (S),11
Eppalock Primary School,Primary,144.38773,-36.84177,Axe Creek,3551,NORTH-WESTERN VICTORIA,Greater Bendigo (C),262
Silvan Primary School,Primary,145.42132,-37.8246,Silvan,3795,NORTH-EASTERN VICTORIA,Yarra Ranges (S),745
Wendouree Primary School,Primary,143.82816,-37.53928,Wendouree,3355,SOUTH-WESTERN VICTORIA,Ballarat (C),57
Lancaster Primary School,Primary,145.13282,-36.31325,Lancaster,3620,NORTH-WESTERN VICTORIA,Campaspe (S),137
Raywood Primary School,Primary,144.2048,-36.53947,Raywood,3570,NORTH-WESTERN VICTORIA,Greater Bendigo (C),262
Puckapunyal Primary School,Primary,145.03351,-37.00263,Puckapunyal,3662,NORTH-EASTERN VICTORIA,Mitchell (S),485
Landsborough Primary School,Primary,143.13591,-37.00586,Landsborough,3384,SOUTH-WESTERN VICTORIA,Pyrenees (S),599
Lysterfield Primary School,Primary,145.27623,-37.9116,Lysterfield,3156,NORTH-EASTERN VICTORIA,Knox (C),367
Winton Primary School,Primary,146.08134,-36.51633,Winton,3673,NORTH-EASTERN VICTORIA,Benalla (RC),101
Merrigum Primary School,Primary,145.12966,-36.36932,Merrigum,3618,NORTH-EASTERN VICTORIA,Greater Shepparton (C),283
Bethanga Primary School,Primary,147.09576,-36.12064,Bethanga,3691,NORTH-EASTERN VICTORIA,Towong (S),667
Abbotsford Primary School,Primary,144.99881,-37.80898,Abbotsford,3067,NORTH-WESTERN VICTORIA,Yarra (C),735
Newtown Primary School,Primary,144.3372,-38.14577,Newtown,3220,SOUTH-WESTERN VICTORIA,Greater Geelong (C),275
Windsor Primary School,Primary,144.99569,-37.8573,Windsor,3181,SOUTH-EASTERN VICTORIA,Stonnington (C),635
Narre Warren North Primary School,Primary,145.31692,-37.97859,Narre Warren North,3804,SOUTH-EASTERN VICTORIA,Casey (C),161
Buchan Primary School,Primary,148.18082,-37.49774,Buchan,3885,SOUTH-EASTERN VICTORIA,East Gippsland (S),211
Anakie Primary School,Primary,144.25511,-37.91267,Anakie,3213,SOUTH-WESTERN VICTORIA,Greater Geelong (C),275
Moolap Primary School,Primary,144.42431,-38.17096,Moolap,3221,SOUTH-WESTERN VICTORIA,Greater Geelong (C),275
Footscray City Primary School,Primary,144.90025,-37.8064,Footscray,3011,SOUTH-WESTERN VICTORIA,Maribyrnong (C),433
Newham Primary School,Primary,144.59476,-37.31215,Newham,3442,NORTH-WESTERN VICTORIA,Macedon Ranges (S),413
Plenty Parklands Primary School,Primary,145.07694,-37.66973,Mill Park,3082,NORTH-WESTERN VICTORIA,Whittlesea (C),707
White Hills Primary School,Primary,144.30415,-36.72794,White Hills,3550,NORTH-WESTERN VICTORIA,Greater Bendigo (C),262
Mount Egerton Primary School,Primary,144.10217,-37.62852,Mount Egerton,3352,SOUTH-WESTERN VICTORIA,Moorabool (S),515
Drouin Primary School,Primary,145.85384,-38.13286,Drouin,3818,SOUTH-EASTERN VICTORIA,Baw Baw (S),83
Wunghnu Primary School,Primary,145.4306,-36.15066,Wunghnu,3635,NORTH-EASTERN VICTORIA,Moira (S),490
Maroona Primary School,Primary,142.85847,-37.4328,Maroona,3377,SOUTH-WESTERN VICTORIA,Ararat (RC),26
Jindivick Primary School,Primary,145.90113,-38.02762,Jindivick,3818,SOUTH-EASTERN VICTORIA,Baw Baw (S),83
Talgarno Primary School,Primary,147.15915,-36.0658,Talgarno,3691,NORTH-EASTERN VICTORIA,Towong (S),667
Bungaree Primary School,Primary,144.0071,-37.55759,Bungaree,3352,SOUTH-WESTERN VICTORIA,Moorabool (S),515
Little River Primary School,Primary,144.50037,-37.96501,Little River,3211,SOUTH-WESTERN VICTORIA,Wyndham (C),726
Cowwarr Primary School,Primary,146.69896,-38.0137,Cowwarr,3857,SOUTH-EASTERN VICTORIA,Wellington (S),681
Morang South Primary School,Primary,145.09467,-37.65287,South Morang,3752,NORTH-WESTERN VICTORIA,Whittlesea (C),707
Camp Hill Primary School,Primary,144.27804,-36.75571,Bendigo,3550,NORTH-WESTERN VICTORIA,Greater Bendigo (C),262
Pyalong Primary School,Primary,144.85709,-37.11724,Pyalong,3521,NORTH-EASTERN VICTORIA,Mitchell (S),485
Winchelsea Primary School,Primary,143.98428,-38.24449,Winchelsea,3241,SOUTH-WESTERN VICTORIA,Surf Coast (S),649
Buln Buln Primary School,Primary,145.93817,-38.09935,Buln Buln,3821,SOUTH-EASTERN VICTORIA,Baw Baw (S),83
Macarthur Street Primary School,Primary,143.85749,-37.55115,Soldiers Hill,3350,SOUTH-WESTERN VICTORIA,Ballarat (C),57
Elliminyt Primary School,Primary,143.5837,-38.36135,Elliminyt,3249,SOUTH-WESTERN VICTORIA,Colac-Otway (S),175
Mornington Primary School,Primary,145.04309,-38.22181,Mornington,3931,SOUTH-EASTERN VICTORIA,Mornington Peninsula (S),534
Hamilton North Primary School,Primary,141.99515,-37.72646,Hamilton,3300,SOUTH-WESTERN VICTORIA,Southern Grampians (S),626
Mount Blowhard Primary School,Primary,143.78644,-37.42924,Blowhard,3352,SOUTH-WESTERN VICTORIA,Ballarat (C),57
Creswick North Primary School,Primary,143.89082,-37.40884,Creswick,3363,SOUTH-WESTERN VICTORIA,Hepburn (S),291
Black Hill Primary School,Primary,143.86978,-37.54984,Ballarat,3350,SOUTH-WESTERN VICTORIA,Ballarat (C),57
Brighton Beach Primary School,Primary,144.99611,-37.9221,Brighton,3186,SOUTH-EASTERN VICTORIA,Bayside (C),91
Castlemaine North Primary School,Primary,144.21899,-37.05783,Castlemaine,3450,NORTH-WESTERN VICTORIA,Mount Alexander (S),543
Yarrambat Primary School,Primary,145.1331,-37.64124,Yarrambat,3091,NORTH-WESTERN VICTORIA,Nillumbik (S),571
Casterton Primary School,Primary,141.4052,-37.58655,Casterton,3311,SOUTH-WESTERN VICTORIA,Glenelg (S),241
Nathalia Primary School,Primary,145.20589,-36.05752,Nathalia,3638,NORTH-EASTERN VICTORIA,Moira (S),490
Chilwell Primary School,Primary,144.34538,-38.15511,Newtown,3220,SOUTH-WESTERN VICTORIA,Greater Geelong (C),275
Greensborough Primary School,Primary,145.1005,-37.70357,Greensborough,3088,NORTH-WESTERN VICTORIA,Banyule (C),66
Teesdale Primary School,Primary,144.05459,-38.02923,Teesdale,3328,SOUTH-WESTERN VICTORIA,Golden Plains (S),249
Cranbourne Primary School,Primary,145.28785,-38.11186,Cranbourne,3977,SOUTH-EASTERN VICTORIA,Casey (C),161
Katamatite Primary School,Primary,145.6853,-36.07735,Katamatite,3649,NORTH-EASTERN VICTORIA,Moira (S),490
Buangor Primary School,Primary,143.17502,-37.36404,Buangor,3375,SOUTH-WESTERN VICTORIA,Ararat (RC),26
Leitchville Primary School,Primary,144.30209,-35.90955,Leitchville,3567,NORTH-WESTERN VICTORIA,Gannawarra (S),225
Whittlesea Primary School,Primary,145.11405,-37.51427,Whittlesea,3757,NORTH-WESTERN VICTORIA,Whittlesea (C),707
Little Bendigo Primary School,Primary,143.89506,-37.5429,Nerrina,3350,SOUTH-WESTERN VICTORIA,Ballarat (C),57
Newington Primary School,Primary,143.83122,-37.56602,Ballarat,3350,SOUTH-WESTERN VICTORIA,Ballarat (C),57
Warragul Primary School,Primary,145.92814,-38.15634,Warragul,3820,SOUTH-EASTERN VICTORIA,Baw Baw (S),83
Kangaroo Ground Primary School,Primary,145.21466,-37.69174,Kangaroo Ground,3097,NORTH-WESTERN VICTORIA,Nillumbik (S),571
Traralgon South Primary School,Primary,146.54015,-38.29726,Traralgon South,3844,SOUTH-EASTERN VICTORIA,Latrobe (C),381
Coleraine Primary School,Primary,141.68404,-37.60184,Coleraine,3315,SOUTH-WESTERN VICTORIA,Southern Grampians (S),626
Ripplebrook Primary School,Primary,145.75849,-38.20349,Ripplebrook,3818,SOUTH-EASTERN VICTORIA,Baw Baw (S),83
Numurkah Primary School,Primary,145.445,-36.09024,Numurkah,3636,NORTH-EASTERN VICTORIA,Moira (S),490
Moe (Albert Street) Primary School,Primary,146.26435,-38.17471,Moe,3825,SOUTH-EASTERN VICTORIA,Latrobe (C),381
Geelong South Primary School,Primary,144.35857,-38.15694,South Geelong,3220,SOUTH-WESTERN VICTORIA,Greater Geelong (C),275
Bayswater Primary School,Primary,145.25936,-37.8433,Bayswater,3153,NORTH-EASTERN VICTORIA,Knox (C),367
Minyip Primary School,Primary,142.5841,-36.46271,Minyip,3392,SOUTH-WESTERN VICTORIA,Yarriambiack (S),763
Mulgrave Primary School,Primary,145.19737,-37.93295,Mulgrave,3170,NORTH-EASTERN VICTORIA,Monash (C),497
Yarragon Primary School,Primary,146.06096,-38.20937,Yarragon,3823,SOUTH-EASTERN VICTORIA,Baw Baw (S),83
Tyers Primary School,Primary,146.47754,-38.14911,Tyers,3844,SOUTH-EASTERN VICTORIA,Latrobe (C),381
Trafalgar Primary School,Primary,146.15987,-38.21476,Trafalgar,3824,SOUTH-EASTERN VICTORIA,Baw Baw (S),83
Kinglake Primary School,Primary,145.35664,-37.52157,Kinglake,3763,NORTH-EASTERN VICTORIA,Murrindindi (S),562
Ellinbank Primary School,Primary,145.93563,-38.24023,Ellinbank,3821,SOUTH-EASTERN VICTORIA,Baw Baw (S),83
Tambo Upper Primary School,Primary,147.8452,-37.7662,Tambo Upper,3885,SOUTH-EASTERN VICTORIA,East Gippsland (S),211
Baranduda Primary School,Primary,146.94812,-36.18053,Baranduda,3691,NORTH-EASTERN VICTORIA,Wodonga (C),717
Tungamah Primary School,Primary,145.87947,-36.16131,Tungamah,3728,NORTH-EASTERN VICTORIA,Moira (S),490
Bunyip Primary School,Primary,145.71251,-38.09884,Bunyip,3815,SOUTH-EASTERN VICTORIA,Cardinia (S),145
Gunbower Primary School,Primary,144.37232,-35.95463,Gunbower,3566,NORTH-WESTERN VICTORIA,Campaspe (S),137
Nar Nar Goon Primary School,Primary,145.57401,-38.08277,Nar Nar Goon,3812,SOUTH-EASTERN VICTORIA,Cardinia (S),145
Toora Primary School,Primary,146.32799,-38.66352,Toora,3962,SOUTH-EASTERN VICTORIA,South Gippsland (S),617
Montrose Primary School,Primary,145.34369,-37.8081,Montrose,3765,NORTH-EASTERN VICTORIA,Yarra Ranges (S),745
Koondrook Primary School,Primary,144.12987,-35.63487,Koondrook,3580,NORTH-WESTERN VICTORIA,Gannawarra (S),225
Magpie Primary School,Primary,143.84327,-37.61571,Magpie,3352,SOUTH-WESTERN VICTORIA,Ballarat (C),57
Tawonga Primary School,Primary,147.14325,-36.6914,Tawonga,3697,NORTH-EASTERN VICTORIA,Alpine (S),11
Narracan Primary School,Primary,146.23163,-38.26158,Narracan,3824,SOUTH-EASTERN VICTORIA,Baw Baw (S),83
Drouin South Primary School,Primary,145.82682,-38.17057,Drouin South,3818,SOUTH-EASTERN VICTORIA,Baw Baw (S),83
Eskdale Primary School,Primary,147.25125,-36.46527,Eskdale,3701,NORTH-EASTERN VICTORIA,Towong (S),667
Darnum Primary School,Primary,145.9997,-38.18773,Darnum,3822,SOUTH-EASTERN VICTORIA,Baw Baw (S),83
Moorooduc Primary School,Primary,145.10517,-38.24809,Moorooduc,3933,SOUTH-EASTERN VICTORIA,Mornington Peninsula (S),534
The Basin Primary School,Primary,145.30842,-37.84951,The Basin,3154,NORTH-EASTERN VICTORIA,Knox (C),367
Paynesville Primary School,Primary,147.7147,-37.91128,Paynesville,3880,SOUTH-EASTERN VICTORIA,East Gippsland (S),211
Epsom Primary School,Primary,144.31269,-36.70505,Epsom,3551,NORTH-WESTERN VICTORIA,Greater Bendigo (C),262
Kensington Primary School,Primary,144.92762,-37.79267,Kensington,3031,SOUTH-WESTERN VICTORIA,Melbourne (C),460
Hazelwood North Primary School,Primary,146.44768,-38.26819,Hazelwood North,3840,SOUTH-EASTERN VICTORIA,Latrobe (C),381
Mirboo North Primary School,Primary,146.15109,-38.40049,Mirboo North,3871,SOUTH-EASTERN VICTORIA,South Gippsland (S),617
Yinnar Primary School,Primary,146.32891,-38.32109,Yinnar,3869,SOUTH-EASTERN VICTORIA,Latrobe (C),381
Neerim South Primary School,Primary,145.95536,-38.01531,Neerim South,3831,SOUTH-EASTERN VICTORIA,Baw Baw (S),83
Ivanhoe Primary School,Primary,145.04298,-37.76657,Ivanhoe,3079,NORTH-WESTERN VICTORIA,Banyule (C),66
Portarlington Primary School,Primary,144.65498,-38.11552,Portarlington,3223,SOUTH-WESTERN VICTORIA,Greater Geelong (C),275
Menzies Creek Primary School,Primary,145.39427,-37.91735,Menzies Creek,3159,NORTH-EASTERN VICTORIA,Yarra Ranges (S),745
St Kilda Park Primary School,Primary,144.97779,-37.85812,St Kilda,3182,SOUTH-EASTERN VICTORIA,Port Phillip (C),590
Labertouche Primary School,Primary,145.80494,-38.03767,Labertouche,3816,SOUTH-EASTERN VICTORIA,Baw Baw (S),83
Diggers Rest Primary School,Primary,144.70923,-37.62263,Diggers Rest,3427,SOUTH-WESTERN VICTORIA,Melton (C),465
Longwarry Primary School,Primary,145.76914,-38.1141,Longwarry,3816,SOUTH-EASTERN VICTORIA,Baw Baw (S),83
Gembrook Primary School,Primary,145.54532,-37.95164,Gembrook,3783,NORTH-EASTERN VICTORIA,Cardinia (S),145
Wurruk Primary School,Primary,147.03995,-38.1068,Wurruk,3850,SOUTH-EASTERN VICTORIA,Wellington (S),681
Willow Grove Primary School,Primary,146.17734,-38.07139,Willow Grove,3825,SOUTH-EASTERN VICTORIA,Baw Baw (S),83
Hoddles Creek Primary School,Primary,145.59775,-37.83174,Hoddles Creek,3139,NORTH-EASTERN VICTORIA,Yarra Ranges (S),745
Beaconsfield Upper Primary School,Primary,145.41476,-37.9954,BEACONSFIELD UPPER,3808,SOUTH-EASTERN VICTORIA,Cardinia (S),145
Congupna Primary School,Primary,145.43428,-36.29987,Congupna,3633,NORTH-EASTERN VICTORIA,Greater Shepparton (C),283
Redesdale Mia Mia Primary School,Primary,144.53089,-37.01952,Redesdale,3444,NORTH-WESTERN VICTORIA,Greater Bendigo (C),262
Malvern Primary School,Primary,145.03846,-37.87159,Malvern East,3145,SOUTH-EASTERN VICTORIA,Stonnington (C),635
Launching Place Primary School,Primary,145.57077,-37.7825,Launching Place,3139,NORTH-EASTERN VICTORIA,Yarra Ranges (S),745
Carlton Gardens Primary School,Primary,144.96951,-37.80205,Carlton,3053,SOUTH-WESTERN VICTORIA,Melbourne (C),460
