listing_id,suburb,postcode,weekly_rent,bond,available_date,date_listed,days_listed,bedrooms,bathrooms,carspaces,property_type,address,lat,lon,scraped_date,domain_page_id,property_id,photo_count,video_count,floorplans_count,virtual_tour,primary_type,secondary_type,agency,agency_id,agent_names,structured_features,url
15193024,ARMADALE,3143,1400,6083.0,"Wednesday, 01 October 2025",2025-09-02,7,3,3,2.0,House,2B Sutherland Road,-37.860703,145.01688,2025-09-09 16:27:15,15193024,IW-7335-EX,6,1,0,False,House,House,Thomson ,176,Kerry Kyloh,,https://www.domain.com.au/2b-sutherland-road-armadale-vic-3143-15193024
15846727,ARMADALE,3143,950,4128.0,"Sunday, 07 September 2025",2025-08-28,12,3,1,,House,42 Armadale Street,-37.858173,145.01897,2025-09-09 16:27:15,15846727,FS-3565-CG,7,1,0,False,House,House,Thomson ,176,Harriet Henderson,,https://www.domain.com.au/42-armadale-street-armadale-vic-3143-15846727
17144898,ARMADALE,3143,610,2651.0,"Friday, 26 September 2025",2025-09-02,7,1,1,1.0,Apartment / Unit / Flat,204/1 Evergreen Mews,-37.851562,145.01222,2025-09-09 16:27:15,17144898,FL-9625-RY,6,0,0,False,Apartment,Apartment / Unit / Flat,LongView Real Estate,7797,Ashlen Lont,"Gas, Gym, Built in wardrobes, Swimming Pool",https://www.domain.com.au/204-1-evergreen-mews-armadale-vic-3143-17144898
17680467,ARMADALE,3143,700,3042.0,"Tuesday, 22 July 2025",2025-07-22,49,2,2,1.0,Apartment / Unit / Flat,308/948 - 960 High Street,-37.855503,145.01987,2025-09-09 16:27:15,17680467,,6,0,0,False,Apartment,Apartment / Unit / Flat,Abercrombys ,6813,Paul Tunney,,https://www.domain.com.au/308-948-960-high-street-armadale-vic-3143-17680467
17693839,ARMADALE,3143,540,2346.0,"Saturday, 30 August 2025",2025-07-31,40,2,1,1.0,Apartment / Unit / Flat,13/7 Sutherland Road,-37.859913,145.01657,2025-09-09 16:27:15,17693839,,13,0,0,False,Apartment,Apartment / Unit / Flat,Barry Marshall Real Estate,20024,"Paula Porter, Bruce Richards",,https://www.domain.com.au/13-7-sutherland-road-armadale-vic-3143-17693839
17713646,ARMADALE,3143,545,2368.0,"Tuesday, 09 September 2025",2025-08-13,27,2,1,2.0,Apartment / Unit / Flat,5/9 Barnato Grove,-37.857113,145.0129,2025-09-09 16:27:15,17713646,,5,0,1,False,Apartment,Apartment / Unit / Flat,Hodges Prahran South Yarra,3916,"Kate Wills, Prahran Leasing","Internal Laundry, Heating, Air conditioning, Balcony / Deck, Built in wardrobes, Dishwasher, Gas, Remote Garage, Secure Parking",https://www.domain.com.au/5-9-barnato-grove-armadale-vic-3143-17713646
17715722,ARMADALE,3143,1350,5866.0,"Friday, 15 August 2025",2025-08-14,26,3,2,2.0,Apartment / Unit / Flat,106/599 Dandenong Road,-37.86506,145.0258,2025-09-09 16:27:15,17715722,,15,0,1,False,Apartment,Apartment / Unit / Flat,Melbournia,31564,Kei Chang,"Ensuite(s), Secure Parking, Air conditioning, Ensuite, Floorboards, Intercom, Built in wardrobes, Internal Laundry, Cable or Satellite, Gas, Broadband internet access, Bath, Heating, Dishwasher, Study, Double glazed windows, Energy efficient appliances, Water efficient appliances, Wall / ceiling insulation, Rainwater storage tank, Greywater system, Water efficient fixtures, Shed, Fully fenced, Balcony / Deck, Energy Eff. Rating: 8.2",https://www.domain.com.au/106-599-dandenong-road-armadale-vic-3143-17715722
17717253,ARMADALE,3143,650,2824.0,"Friday, 15 August 2025",2025-08-15,25,2,1,1.0,Apartment / Unit / Flat,5/38 Northcote Road,-37.853123,145.0173,2025-09-09 16:27:15,17717253,,7,0,1,False,Apartment,Apartment / Unit / Flat,Marshall White Stonnington,4450,"Grace Morley, Emily Jago",,https://www.domain.com.au/5-38-northcote-road-armadale-vic-3143-17717253
17727079,ARMADALE,3143,1500,9000.0,"Monday, 22 September 2025",2025-08-22,18,3,2,1.0,House,11 Egerton Rd,-37.86263,145.0222,2025-09-09 16:27:15,17727079,,12,0,1,False,House,House,Abercrombys ,6813,Paul Tunney,,https://www.domain.com.au/11-egerton-rd-armadale-vic-3143-17727079
17730968,ARMADALE,3143,600,2607.0,"Wednesday, 03 September 2025",2025-08-25,14,3,1,1.0,Apartment / Unit / Flat,7/28 St Georges Rd,-37.860718,145.0219,2025-09-09 16:27:15,17730968,,11,1,0,False,Apartment,Apartment / Unit / Flat, Gary Peer,273,Leasing Concierge,"Balcony / Deck, Built in wardrobes, Internal Laundry",https://www.domain.com.au/7-28-st-georges-rd-armadale-vic-3143-17730968
17732020,ARMADALE,3143,785,3411.0,"Tuesday, 26 August 2025",2025-08-26,14,2,1,3.0,Townhouse,4/391 Dandenong Road,-37.86137,145.01729,2025-09-09 16:27:15,17732020,,8,0,1,False,Townhouse/Villa,Townhouse,Marshall White Stonnington,4450,"Grace Morley, Emily Jago","Split System Air Con, Alarm System, Split System Heating, Built in wardrobes, Garden / Courtyard, Balcony / Deck, Dishwasher, Floorboards, Fully fenced, Remote Garage, Secure Parking",https://www.domain.com.au/4-391-dandenong-road-armadale-vic-3143-17732020
17743559,ARMADALE,3143,750,3259.0,"Monday, 15 September 2025",2025-09-02,7,2,1,1.0,Apartment / Unit / Flat,102/1200 High St,-37.856525,145.02698,2025-09-09 16:27:15,17743559,,8,0,0,False,Apartment,Apartment / Unit / Flat,BigginScott Richmond,3355,"Jade McMorrow, Anna Skapetis","Air conditioning, Secure Parking, Intercom, Balcony / Deck, Built in wardrobes, Dishwasher, Floorboards, Study, Internal Laundry",https://www.domain.com.au/102-1200-high-st-armadale-vic-3143-17743559
17743887,ARMADALE,3143,450,1955.0,"Monday, 08 September 2025",2025-09-02,7,1,1,1.0,Apartment / Unit / Flat,11/11 Kooyong Road,-37.861584,145.01944,2025-09-09 16:27:15,17743887,,11,0,1,False,Apartment,Apartment / Unit / Flat,Belle Property Armadale,3703,Xavier Sukra,,https://www.domain.com.au/11-11-kooyong-road-armadale-vic-3143-17743887
17745052,ARMADALE,3143,710,3085.0,"Friday, 12 September 2025",2025-09-03,6,2,2,1.0,Apartment / Unit / Flat,1.06/511 Dandenong Rd,-37.862617,145.02028,2025-09-09 16:27:15,17745052,,15,0,1,True,Apartment,Apartment / Unit / Flat, Jellis Craig Stonnington,5489,Shannon Contin,"Secure Parking, Air conditioning, Balcony / Deck, Built in wardrobes, Dishwasher",https://www.domain.com.au/1-06-511-dandenong-rd-armadale-vic-3143-17745052
17747998,ARMADALE,3143,570,2477.0,"Thursday, 02 October 2025",2025-09-04,4,1,1,1.0,Apartment / Unit / Flat,2/1 Evergreen Mews,-37.851562,145.01222,2025-09-09 16:27:15,17747998,,17,0,0,False,Apartment,Apartment / Unit / Flat,Barry Plant Docklands,4786,Hans Ong,"Internal Laundry, Floorboards, Built in wardrobes, Split System Air Conditioning, Furnished",https://www.domain.com.au/2-1-evergreen-mews-armadale-vic-3143-17747998
17752014,ARMADALE,3143,420,1825.0,"Monday, 15 September 2025",2025-09-08,1,1,1,1.0,Apartment / Unit / Flat,10/42 Wattletree Road,-37.861294,145.01878,2025-09-09 16:27:15,17752014,,11,0,1,False,Apartment,Apartment / Unit / Flat,Shape Property ,26902,Amelie Frere,"Balcony, Built in wardrobes, Dishwasher, Floorboards, Intercom, Reverse Cycle AirCon",https://www.domain.com.au/10-42-wattletree-road-armadale-vic-3143-17752014
17752085,ARMADALE,3143,690,2998.0,"Friday, 10 October 2025",2025-09-08,1,2,1,1.0,Apartment / Unit / Flat,5/50A Wattletree Road,-37.861366,145.01932,2025-09-09 16:27:15,17752085,,10,0,1,False,Apartment,Apartment / Unit / Flat,McGrath,19308,Daniel Hamilton,Furnished,https://www.domain.com.au/5-50a-wattletree-road-armadale-vic-3143-17752085
17752378,ARMADALE,3143,845,3672.0,"Monday, 08 September 2025",2025-09-08,0,3,1,1.0,Townhouse,7/17 Mercer Road,-37.854485,145.02574,2025-09-09 16:27:15,17752378,,10,0,0,False,Townhouse/Villa,Townhouse,Beck & Small Property,32041,Elizabeth Lopez,,https://www.domain.com.au/7-17-mercer-road-armadale-vic-3143-17752378
17752427,ARMADALE,3143,595,2585.0,"Saturday, 04 October 2025",2025-09-08,0,2,1,1.0,Apartment / Unit / Flat,3/50a Wattletree Road,-37.861366,145.01932,2025-09-09 16:27:15,17752427,,10,0,1,True,Apartment,Apartment / Unit / Flat, Jellis Craig & Company Pty Ltd,6525,Thea Toogood,"Air conditioning, Intercom, Built in wardrobes",https://www.domain.com.au/3-50a-wattletree-road-armadale-vic-3143-17752427
17753005,ARMADALE,3143,730,3172.0,"Wednesday, 22 October 2025",2025-09-09,0,2,2,1.0,Apartment / Unit / Flat,9/60 Wattletree Road,-37.861595,145.02112,2025-09-09 16:27:15,17753005,,9,0,1,True,Apartment,Apartment / Unit / Flat,Belle Property Armadale,3703,Xavier Sukra,,https://www.domain.com.au/9-60-wattletree-road-armadale-vic-3143-17753005
8303216,ARMADALE,3143,1575,,"Saturday, 18 June 2022",2013-04-22,4522,2,2,1.0,Apartment / Unit / Flat,,-37.857254,145.01903,2025-09-09 16:27:20,8303216,,10,1,0,True,Apartment,Apartment / Unit / Flat,Westprecinct,15184,Westprecinct Melbourne,"Ducted Cooling, Ducted Heating, Kitchen, Built in wardrobes, Balcony, Floorboards, Air conditioning, Broadband, Cable or Satellite, Dishwasher, Intercom, Furnished, Pets Allowed, Swimming Pool, Inside Spa, Gym, Laundry",https://www.domain.com.au/armadale-vic-3143-8303216
16007252,ARMADALE,3143,580,,"Monday, 25 August 2025",2025-08-22,18,1,1,1.0,Apartment / Unit / Flat,unit 1002/8c Evergreen Mews,-37.851765,145.01404,2025-09-09 16:27:20,16007252,BB-1010-XV,23,1,0,False,Apartment,Apartment / Unit / Flat,DPG Property Group,29532,"DPG Rentals, Patsy He","Gas, Internal Laundry, Balcony, Courtyard, Secure Parking, Swimming Pool - In Ground, Alarm System, Broadband Internet Available, Built in wardrobes, Dishwasher, Gym, Intercom, Pay TV Access, Air conditioning, Ducted Cooling, Ducted Heating",https://www.domain.com.au/unit-1002-8c-evergreen-mews-armadale-vic-3143-16007252
17538748,ARMADALE,3143,895,3889.0,"Tuesday, 13 May 2025",2025-04-22,140,3,2,1.0,Townhouse,4/31 Kooyong Road,-37.86007,145.01926,2025-09-09 16:27:20,17538748,OL-8248-ED,12,0,0,False,Townhouse/Villa,Townhouse,Woodards Camberwell,3601,Lindsay Mai,"Gas, Internal Laundry, Bath, Dishwasher",https://www.domain.com.au/4-31-kooyong-road-armadale-vic-3143-17538748
17565228,ARMADALE,3143,425,1847.0,"Monday, 12 May 2025",2025-05-09,123,1,1,1.0,Apartment / Unit / Flat,5/26 Armadale Street,-37.85927,145.0187,2025-09-09 16:27:20,17565228,AH-7381-XE,8,0,1,False,Apartment,Apartment / Unit / Flat, Jellis Craig & Company Pty Ltd,6525,Leo Zuo,"Balcony / Deck, Built in wardrobes, Dishwasher, Gas",https://www.domain.com.au/5-26-armadale-street-armadale-vic-3143-17565228
17642866,ARMADALE,3143,780,3389.0,"Friday, 27 June 2025",2025-06-27,74,2,1,1.0,Apartment / Unit / Flat,8/2 Seymour Avenue,-37.858917,145.02542,2025-09-09 16:27:20,17642866,,7,0,1,False,Apartment,Apartment / Unit / Flat,Kay & Burton Stonnington,88,Jonathan Boon,Reverse Cycle AirCon,https://www.domain.com.au/8-2-seymour-avenue-armadale-vic-3143-17642866
17677763,ARMADALE,3143,1370,8220.0,"Friday, 08 August 2025",2025-07-21,50,3,2,2.0,Apartment / Unit / Flat,3/2 Seymour Avenue,-37.858917,145.02542,2025-09-09 16:27:20,17677763,,11,0,1,False,Apartment,Apartment / Unit / Flat,Kay & Burton Stonnington,88,Jonathan Boon,,https://www.domain.com.au/3-2-seymour-avenue-armadale-vic-3143-17677763
17697131,ARMADALE,3143,2250,13500.0,"Friday, 08 August 2025",2025-08-01,39,3,2,2.0,House,42 Mercer Road,-37.85152,145.02702,2025-09-09 16:27:20,17697131,,10,0,1,False,House,House,Kay & Burton Stonnington,88,"Hudson Keppell, Tamara Uzelac",,https://www.domain.com.au/42-mercer-road-armadale-vic-3143-17697131
17700366,ARMADALE,3143,985,5910.0,"Tuesday, 05 August 2025",2025-08-05,35,2,2,1.0,Apartment / Unit / Flat,404/6B Evergreen Mews,-37.852097,145.01375,2025-09-09 16:27:20,17700366,,10,0,0,False,Apartment,Apartment / Unit / Flat,Kay & Burton Stonnington,88,Sophie Dumas,Furnished,https://www.domain.com.au/404-6b-evergreen-mews-armadale-vic-3143-17700366
17706032,ARMADALE,3143,750,3259.0,"Monday, 11 August 2025",2025-08-07,32,2,1,2.0,House,6/71 Denbigh Road,-37.85521,145.01598,2025-09-09 16:27:20,17706032,,11,0,0,False,House,House,Ray White Oakleigh,12122,"David Hua, Rachel Clements",,https://www.domain.com.au/6-71-denbigh-road-armadale-vic-3143-17706032
17707754,ARMADALE,3143,665,2890.0,"Thursday, 14 August 2025",2025-08-08,32,2,1,1.0,House,38 Willis Street,-37.857204,145.02718,2025-09-09 16:27:20,17707754,,10,0,0,False,House,House,Luxe Property,20536,Brooke Single,"Internal Laundry, Heating, Fully fenced",https://www.domain.com.au/38-willis-street-armadale-vic-3143-17707754
17715668,ARMADALE,3143,850,3693.0,"Friday, 15 August 2025",2025-08-14,26,2,1,1.0,Apartment / Unit / Flat,G01/599 Dandenong Road,-37.86506,145.0258,2025-09-09 16:27:20,17715668,,8,0,1,False,Apartment,Apartment / Unit / Flat,Melbournia,31564,Kei Chang,"Air conditioning, Floorboards, Intercom, Built in wardrobes, Internal Laundry, Pets Allowed, Cable or Satellite, Gas, Broadband internet access, Heating, Dishwasher, Ground floor, Double glazed windows, Energy efficient appliances, Water efficient appliances, Wall / ceiling insulation, Rainwater storage tank, Greywater system, Water efficient fixtures, Secure Parking, Shed, Fully fenced, Balcony / Deck, Garden / Courtyard, Energy Eff. Rating: 5.7",https://www.domain.com.au/g01-599-dandenong-road-armadale-vic-3143-17715668
17715698,ARMADALE,3143,820,3563.0,"Friday, 15 August 2025",2025-08-14,26,2,2,1.0,Apartment / Unit / Flat,104/599 Dandenong Road,-37.86506,145.0258,2025-09-09 16:27:20,17715698,,10,0,1,False,Apartment,Apartment / Unit / Flat,Melbournia,31564,Kei Chang,"Ensuite(s), Air conditioning, Ensuite, Floorboards, Intercom, Built in wardrobes, Internal Laundry, Cable or Satellite, Gas, Broadband internet access, Heating, Dishwasher, Study, Secure Parking, Shed, Fully fenced, Balcony / Deck, Double glazed windows, Energy efficient appliances, Water efficient appliances, Wall / ceiling insulation, Rainwater storage tank, Greywater system, Water efficient fixtures, Energy Eff. Rating: 8.6",https://www.domain.com.au/104-599-dandenong-road-armadale-vic-3143-17715698
17715740,ARMADALE,3143,1150,4997.0,"Friday, 15 August 2025",2025-08-14,26,3,2,2.0,Apartment / Unit / Flat,202/599 Dandenong Road,-37.86506,145.0258,2025-09-09 16:27:20,17715740,,14,0,1,False,Apartment,Apartment / Unit / Flat,Melbournia,31564,Kei Chang,"Ensuite(s), Secure Parking, Air conditioning, Ensuite, Floorboards, Intercom, Built in wardrobes, Internal Laundry, Cable or Satellite, Gas, Broadband internet access, Heating, Dishwasher, Study, Double glazed windows, Energy efficient appliances, Water efficient appliances, Wall / ceiling insulation, Rainwater storage tank, Greywater system, Water efficient fixtures, Shed, Fully fenced, Balcony / Deck, Energy Eff. Rating: 7.8",https://www.domain.com.au/202-599-dandenong-road-armadale-vic-3143-17715740
17720759,ARMADALE,3143,1050,5250.0,"Friday, 12 September 2025",2025-08-18,21,3,1,1.0,House,2 Elgin Avenue,-37.85482,145.01227,2025-09-09 16:27:20,17720759,,9,0,0,False,House,House,McGrath,19308,Daniel Hamilton,"Air conditioning, Alarm System, Art Deco, Duplex, Garden Apartment",https://www.domain.com.au/2-elgin-avenue-armadale-vic-3143-17720759
17727913,ARMADALE,3143,2700,16200.0,"Friday, 03 October 2025",2025-08-22,18,4,2,3.0,House,2a Denbigh Road,-37.860126,145.01566,2025-09-09 16:27:20,17727913,,11,0,1,False,House,House,Kay & Burton Stonnington,88,Evelyne Surja,,https://www.domain.com.au/2a-denbigh-road-armadale-vic-3143-17727913
17730356,ARMADALE,3143,770,3346.0,"Friday, 17 October 2025",2025-08-25,15,3,1,2.0,House,67 Union Street,-37.85929,145.02779,2025-09-09 16:27:20,17730356,,11,0,1,True,House,House,Belle Property Armadale,3703,Xavier Sukra,,https://www.domain.com.au/67-union-street-armadale-vic-3143-17730356
