listing_id,suburb,postcode,weekly_rent,bond,available_date,date_listed,days_listed,bedrooms,bathrooms,carspaces,property_type,address,lat,lon,scraped_date,domain_page_id,property_id,photo_count,video_count,floorplans_count,virtual_tour,primary_type,secondary_type,agency,agency_id,agent_names,structured_features,url
12981625,BENALLA,3672,30.0,200,"Tuesday, 10 June 2025",2019-03-08,2377,,,,House,58 Saleyards Road,-36.538006,145.99277,2025-09-09 16:29:39,12981625,PU-9837-PZ,5,0,0,False,House,House,Living Here Benalla,32239,Brittney Harris,,https://www.domain.com.au/58-saleyards-road-benalla-vic-3672-12981625
12981632,BENALLA,3672,30.0,200,"Tuesday, 10 June 2025",2019-03-08,2377,,,,House,40 Gay Street,-36.54243,145.99792,2025-09-09 16:29:39,12981632,RS-9558-FU,3,0,0,False,House,House,Living Here Benalla,32239,Brittney Harris,,https://www.domain.com.au/40-gay-street-benalla-vic-3672-12981632
15546102,BENALLA,3672,350.0,1516,"Friday, 10 October 2025",2025-09-05,4,2.0,1.0,1.0,Apartment / Unit / Flat,1/6a Kent Street,-36.549007,145.97351,2025-09-09 16:29:39,15546102,FQ-2837-BS,7,0,0,False,Apartment,Apartment / Unit / Flat,Living Here Benalla,32239,"Eliza Manning, Shen Green","Gas, Internal Laundry, Shed, Built in wardrobes, Heating",https://www.domain.com.au/1-6a-kent-street-benalla-vic-3672-15546102
15876551,BENALLA,3672,460.0,1999,"Thursday, 04 September 2025",2025-07-31,40,4.0,1.0,2.0,House,50 Riverview Road,-36.558865,145.98994,2025-09-09 16:29:39,15876551,WZ-3084-BX,8,0,1,False,House,House,Ray White Benalla,18940,Elly Havers,"Built in wardrobes, Gas, Bath, Heating, Dishwasher",https://www.domain.com.au/50-riverview-road-benalla-vic-3672-15876551
15914662,BENALLA,3672,420.0,1820,"Friday, 05 September 2025",2025-07-31,40,2.0,1.0,1.0,House,11 Exton Crescent,-36.562473,145.96379,2025-09-09 16:29:39,15914662,SI-4200-NF,8,0,0,False,House,House,Living Here Benalla,32239,Eliza Manning,"Heating, Study, Built in wardrobes, Secure Parking",https://www.domain.com.au/11-exton-crescent-benalla-vic-3672-15914662
16104128,BENALLA,3672,900.0,3900,"Friday, 15 August 2025",2025-07-29,42,5.0,2.0,2.0,House,86 Gardner Road,-36.507988,145.97885,2025-09-09 16:29:39,16104128,TX-9450-AR,15,0,0,False,House,House,Living Here Benalla,32239,Eliza Manning,"Internal Laundry, Swimming Pool, Furnished, Bath, Heating",https://www.domain.com.au/86-gardner-road-benalla-vic-3672-16104128
16169934,BENALLA,3672,360.0,1560,"Friday, 19 September 2025",2025-08-11,29,2.0,1.0,1.0,House,5/37A Hannah Street,-36.54309,145.98497,2025-09-09 16:29:39,16169934,JI-9695-EM,12,0,0,False,House,House,Living Here Benalla,32239,Eliza Manning,"Gas, Internal Laundry, Heating, Air conditioning, Built in wardrobes",https://www.domain.com.au/5-37a-hannah-street-benalla-vic-3672-16169934
16185208,BENALLA,3672,480.0,2080,"Friday, 12 September 2025",2025-08-08,31,3.0,1.0,2.0,House,88 Coish Ave,-36.546,145.9641,2025-09-09 16:29:39,16185208,IH-8308-DU,11,0,0,False,House,House,Living Here Benalla,32239,Elda Britton,"Built in wardrobes, Internal Laundry, Pets Allowed, Gas, Bath, Separate Dining Room, Heating, Secure Parking, Shed, Ground floor",https://www.domain.com.au/88-coish-ave-benalla-vic-3672-16185208
16419811,BENALLA,3672,480.0,2086,"Wednesday, 27 August 2025",2025-08-12,28,3.0,2.0,,House,27 Railway Place,-36.543858,145.9829,2025-09-09 16:29:39,16419811,OI-3672-EV,8,0,0,False,House,House,Brian Howe Real Estate,23851,Roth Howe,"Furnished, Air conditioning, Split-System Air Conditioning, Split-System Heating",https://www.domain.com.au/27-railway-place-benalla-vic-3672-16419811
16575691,BENALLA,3672,450.0,1950,"Friday, 05 September 2025",2025-07-31,40,3.0,1.0,3.0,Townhouse,2/5 Goodenia Dve,-36.56238,145.97665,2025-09-09 16:29:39,16575691,LJ-3462-CP,14,0,1,False,Townhouse/Villa,Townhouse,Living Here Benalla,32239,Eliza Manning,"Dishwasher, Air conditioning, Floorboards, Built in wardrobes, Secure Parking",https://www.domain.com.au/2-5-goodenia-dve-benalla-vic-3672-16575691
16578864,BENALLA,3672,460.0,1994,"Saturday, 04 October 2025",2025-09-08,1,3.0,1.0,2.0,House,19 Commercial Road,-36.542164,145.9825,2025-09-09 16:29:39,16578864,MH-9572-KE,12,0,0,False,House,House,Living Here Benalla,32239,Elda Britton,"Study, Floorboards, Built in wardrobes, Internal Laundry, Pets Allowed, Gas, Bath, Separate Dining Room, Heating, Dishwasher, Secure Parking, Shed, Fully fenced, Ground floor",https://www.domain.com.au/19-commercial-road-benalla-vic-3672-16578864
16758990,BENALLA,3672,430.0,1863,"Friday, 10 October 2025",2025-09-05,4,2.0,1.0,1.0,House,85 Church Street,-36.54764,145.9906,2025-09-09 16:29:39,16758990,FA-3360-IG,12,0,0,False,House,House,Living Here Benalla,32239,Shen Green,"Built in wardrobes, Heating, Dishwasher",https://www.domain.com.au/85-church-street-benalla-vic-3672-16758990
16800637,BENALLA,3672,570.0,2477,"Monday, 01 September 2025",2025-09-01,8,4.0,2.0,2.0,House,35 Senator Drive,-36.568077,145.96915,2025-09-09 16:29:39,16800637,ZX-0345-JZ,13,0,1,False,House,House,Ray White Benalla,18940,"Sharlene Payne, Jo Toms","Heating, Ensuite",https://www.domain.com.au/35-senator-drive-benalla-vic-3672-16800637
16804702,BENALLA,3672,550.0,2383,"Wednesday, 30 July 2025",2025-08-05,35,4.0,1.0,2.0,House,2775 Midland Hwy Nalinga,-36.569214,145.9609,2025-09-09 16:29:39,16804702,,9,0,0,False,House,House,Ray White Benalla,18940,Leann Birch,Built in wardrobes,https://www.domain.com.au/2775-midland-hwy-nalinga-benalla-vic-3672-16804702
17492008,BENALLA,3672,600.0,2600,"Wednesday, 01 October 2025",2025-08-01,38,3.0,2.0,2.0,House,48 Monds Avenue,-36.557243,145.9636,2025-09-09 16:29:39,17492008,NL-6898-IW,13,0,0,False,House,House,Living Here Benalla,32239,Elda Britton,"Ensuite, Built in wardrobes, Internal Laundry, Gas, Bath, Heating, Dishwasher, Secure Parking, Shed, Garden / Courtyard, Ground floor",https://www.domain.com.au/48-monds-avenue-benalla-vic-3672-17492008
17680502,BENALLA,3672,800.0,3466,"Friday, 08 August 2025",2025-08-01,39,3.0,2.0,3.0,House,5a Gillies Street,-36.542088,145.98657,2025-09-09 16:29:39,17680502,,14,0,0,False,House,House,Ray White Benalla,18940,Jo Toms,"Furnished, Ensuite",https://www.domain.com.au/5a-gillies-street-benalla-vic-3672-17680502
17714169,BENALLA,3672,580.0,2513,"Monday, 03 November 2025",2025-08-13,27,3.0,1.0,,House,65 Gunn Road,-36.56357,145.95377,2025-09-09 16:29:39,17714169,,16,0,0,False,House,House,Living Here Benalla,32239,Eliza Manning,"Built in wardrobes, Heating, Dishwasher, Study",https://www.domain.com.au/65-gunn-road-benalla-vic-3672-17714169
17738764,BENALLA,3672,580.0,2514,"Monday, 15 September 2025",2025-08-29,11,4.0,2.0,2.0,House,2 Honeyeater Street,-36.543415,145.99994,2025-09-09 16:29:39,17738764,,18,0,0,False,House,House,Living Here Benalla,32239,Elda Britton,"Air conditioning, Ensuite, Built in wardrobes, Internal Laundry, Bath, Heating, Dishwasher, Secure Parking, Fully fenced, Balcony / Deck, Ground floor, Double glazed windows, Energy efficient appliances, Water efficient appliances, Wall / ceiling insulation, Water efficient fixtures, Solar panels",https://www.domain.com.au/2-honeyeater-street-benalla-vic-3672-17738764
17749698,BENALLA,3672,470.0,2036,"Monday, 08 September 2025",2025-09-05,4,3.0,1.0,4.0,House,6 Waller Street,-36.56187,145.98007,2025-09-09 16:29:39,17749698,,10,0,0,False,House,House,Ray White Benalla,18940,"Sharlene Payne, Jo Toms",Heating,https://www.domain.com.au/6-waller-street-benalla-vic-3672-17749698
17753848,BENALLA,3672,370.0,1603,"Saturday, 11 October 2025",2025-09-09,0,1.0,1.0,,Studio,1/14 Ryan Street,-36.541363,145.98444,2025-09-09 16:29:39,17753848,,8,0,0,False,Apartment,Studio,Living Here Benalla,32239,Eliza Manning,"Gas, Internal Laundry, Furnished, Heating",https://www.domain.com.au/1-14-ryan-street-benalla-vic-3672-17753848
12981626,BENALLA,3672,,173,"Tuesday, 20 February 2018",2019-03-08,2377,,,,House,21 Hannah Street,-36.543438,145.98401,2025-09-09 16:29:44,12981626,IV-9522-WH,2,0,0,False,House,House,Living Here Benalla,32239,Brittney Harris,,https://www.domain.com.au/21-hannah-street-benalla-vic-3672-12981626
16257109,BENALLA,3672,,1690,,2024-06-28,438,2.0,1.0,2.0,House,18 Goodwin Street,-36.548428,145.97208,2025-09-09 16:29:44,16257109,OG-1859-UM,11,0,0,False,House,House,Ray White Benalla,18940,Madison Dickman,"Built in wardrobes, Internal Laundry, Heating",https://www.domain.com.au/18-goodwin-street-benalla-vic-3672-16257109
