listing_id,suburb,postcode,weekly_rent,bond,available_date,date_listed,days_listed,bedrooms,bathrooms,carspaces,property_type,address,lat,lon,scraped_date,domain_page_id,property_id,photo_count,video_count,floorplans_count,virtual_tour,primary_type,secondary_type,agency,agency_id,agent_names,structured_features,url
16163657,BOX HILL NORTH,3129,850,3694,"Monday, 08 September 2025",2025-08-13,27,3,2,2.0,Townhouse,2A Roselea Street,-37.802372,145.13425,2025-09-09 16:50:19,16163657,SG-7700-ME,15,0,0,False,Townhouse/Villa,Townhouse,APG ESTATE,30107,"Ming Lin, Alisha Yang","Internal Laundry, Floorboards, Built in wardrobes, Dishwasher, Gas Appliances, Split System Heating, Split System Air Conditioning, Ensuite(s), Balcony, Courtyard, Remote Garage",https://www.domain.com.au/2a-roselea-street-box-hill-north-vic-3129-16163657
16616277,BOX HILL NORTH,3129,630,2738,"Thursday, 18 September 2025",2025-09-02,6,2,2,1.0,Townhouse,7/140 Thames Street,-37.812347,145.11722,2025-09-09 16:50:19,16616277,OM-6508-LF,6,0,0,False,Townhouse/Villa,Townhouse,First National Avant - Box Hill,33756,Isabelle Chan,"Built in wardrobes, Gas, Dishwasher, Balcony / Deck",https://www.domain.com.au/7-140-thames-street-box-hill-north-vic-3129-16616277
17645538,BOX HILL NORTH,3129,420,1825,"Saturday, 26 July 2025",2025-06-30,71,2,1,1.0,Apartment / Unit / Flat,1/838 Station Street,-37.809566,145.12578,2025-09-09 16:50:19,17645538,,7,0,0,False,Apartment,Apartment / Unit / Flat,Jellis Craig Maroondah,4081,Emily Revere,"Built in wardrobes, Secure Parking, Bath, Heating",https://www.domain.com.au/1-838-station-street-box-hill-north-vic-3129-17645538
17708120,BOX HILL NORTH,3129,650,2824,"Monday, 18 August 2025",2025-08-08,31,2,2,1.0,Townhouse,6/140 Thames Street,-37.81239,145.1172,2025-09-09 16:50:19,17708120,,8,0,0,False,Townhouse/Villa,Townhouse,CHN Real Estate Group,29444,"Angeline Zhang, Winnie Wen","Built in wardrobes, Gas, Bath, Heating, Dishwasher, Air conditioning, Balcony / Deck, Floorboards, Remote Garage",https://www.domain.com.au/6-140-thames-street-box-hill-north-vic-3129-17708120
17710052,BOX HILL NORTH,3129,750,3259,"Monday, 11 August 2025",2025-08-11,29,3,1,1.0,House,3/70 Watts Street,-37.812626,145.1268,2025-09-09 16:50:19,17710052,,15,0,1,True,House,House,Casey Estate Agents,19032,Lee-Ann Harley,"Heating, Floorboards, Fully fenced",https://www.domain.com.au/3-70-watts-street-box-hill-north-vic-3129-17710052
17715808,BOX HILL NORTH,3129,500,2173,"Wednesday, 17 September 2025",2025-08-14,26,2,1,1.0,Apartment / Unit / Flat,11/96 Severn Street,-37.81121,145.11942,2025-09-09 16:50:19,17715808,,8,0,0,False,Apartment,Apartment / Unit / Flat,Barry Plant (Waverley),18349,Suzanna Boyes 수잔나,"Built in wardrobes, Gas, Heating",https://www.domain.com.au/11-96-severn-street-box-hill-north-vic-3129-17715808
17719495,BOX HILL NORTH,3129,580,2520,"Monday, 08 September 2025",2025-08-18,22,3,1,2.0,House,11/114 Shannon Street,-37.80715,145.11797,2025-09-09 16:50:19,17719495,,11,0,0,False,House,House,Barry Plant Manningham,7015,"Freya Semera, Con Karavokyris","Built in wardrobes, Gas, Secure Parking, Heating, Bathtub",https://www.domain.com.au/11-114-shannon-street-box-hill-north-vic-3129-17719495
17723198,BOX HILL NORTH,3129,775,3368,"Wednesday, 20 August 2025",2025-08-20,20,4,2,2.0,House,2 Woodhouse Grove,-37.804005,145.11815,2025-09-09 16:50:19,17723198,,13,0,0,True,House,House,Areal Property - Box Hill,33000,Mike Lu,"Heating, Shed",https://www.domain.com.au/2-woodhouse-grove-box-hill-north-vic-3129-17723198
17727714,BOX HILL NORTH,3129,890,3867,"Friday, 22 August 2025",2025-08-22,18,3,2,2.0,Townhouse,1/9 Woodhouse Grove,-37.803482,145.11879,2025-09-09 16:50:19,17727714,,12,0,0,False,Townhouse/Villa,Townhouse,Ray White (Box Hill),34590,Jerry Bao,"Internal Laundry, Secure Parking, Heating",https://www.domain.com.au/1-9-woodhouse-grove-box-hill-north-vic-3129-17727714
17734972,BOX HILL NORTH,3129,695,3020,"Monday, 01 September 2025",2025-08-27,13,5,2,,House,1/64 Watts Street,-37.813217,145.12637,2025-09-09 16:50:19,17734972,,7,0,0,False,House,House,Ray White Balwyn,28157,Baron Zhao,"Air conditioning, Gas, Heating",https://www.domain.com.au/1-64-watts-street-box-hill-north-vic-3129-17734972
17738121,BOX HILL NORTH,3129,900,3911,"Monday, 01 September 2025",2025-08-29,11,3,2,2.0,Townhouse,2/9 Wimmera Street,-37.806553,145.12743,2025-09-09 16:50:19,17738121,,13,0,0,False,Townhouse/Villa,Townhouse,MCGRATH BOX HILL,12106,Nicole Yu,"Gas, Secure Parking, Bath, Heating, Dishwasher, Shed, Balcony / Deck",https://www.domain.com.au/2-9-wimmera-street-box-hill-north-vic-3129-17738121
17738827,BOX HILL NORTH,3129,700,3042,"Monday, 22 September 2025",2025-08-29,11,3,2,4.0,House,10 Patrick Street,-37.81441,145.13704,2025-09-09 16:50:19,17738827,,5,0,0,False,House,House,APG ESTATE,30107,"Ming Lin, Alisha Yang","Internal Laundry, Floorboards, Built in wardrobes, Dishwasher, Gas Appliances, Ducted Heating, Ensuite(s), Workshop, Furnished",https://www.domain.com.au/10-patrick-street-box-hill-north-vic-3129-17738827
17739896,BOX HILL NORTH,3129,660,2868,"Friday, 19 September 2025",2025-09-01,8,3,2,3.0,Apartment / Unit / Flat,1/934 Station Street,-37.801952,145.12708,2025-09-09 16:50:19,17739896,,8,0,2,False,Apartment,Apartment / Unit / Flat,RT Edgar Boroondara,3714,Kelly Nicholas,,https://www.domain.com.au/1-934-station-street-box-hill-north-vic-3129-17739896
17744794,BOX HILL NORTH,3129,610,2650,"Thursday, 25 September 2025",2025-09-03,6,3,1,1.0,Apartment / Unit / Flat,1/37 Shannon Street,-37.808685,145.12758,2025-09-09 16:50:19,17744794,,8,0,0,False,Apartment,Apartment / Unit / Flat,Jellis Craig Whitehorse,20157,"Hayley Cleeman, Charlotte Li","Built in wardrobes, Garden / Courtyard, Balcony / Deck, Ducted Heating, Secure Parking",https://www.domain.com.au/1-37-shannon-street-box-hill-north-vic-3129-17744794
17744989,BOX HILL NORTH,3129,575,2498,"Thursday, 09 October 2025",2025-09-03,6,2,1,1.0,Apartment / Unit / Flat,4/28 Tyne Street,-37.810246,145.12813,2025-09-09 16:50:19,17744989,,5,0,0,False,Apartment,Apartment / Unit / Flat,Jellis Craig Doncaster,18680,"Tina Dekas, Kate Rolfe","Air conditioning, Built in wardrobes, Internal Laundry",https://www.domain.com.au/4-28-tyne-street-box-hill-north-vic-3129-17744989
17748137,BOX HILL NORTH,3129,550,2390,"Friday, 26 September 2025",2025-09-04,4,2,1,1.0,House,1A Simmons Street,-37.807556,145.12325,2025-09-09 16:50:19,17748137,,7,0,0,False,House,House,Nelson Alexander Ivanhoe,15501,Isabella Di Palma,"Built in wardrobes, Internal Laundry, Secure Parking, Heating",https://www.domain.com.au/1a-simmons-street-box-hill-north-vic-3129-17748137
17749688,BOX HILL NORTH,3129,780,3389,"Wednesday, 17 September 2025",2025-09-05,4,3,2,1.0,Townhouse,2/4 Anthony Crescent,-37.801086,145.11868,2025-09-09 16:50:19,17749688,,10,0,0,False,Townhouse/Villa,Townhouse,Jellis Craig Doncaster,18680,"Mark Hewett, Tina Dekas","Internal Laundry, Study, Built in wardrobes, Garden / Courtyard, Dishwasher, Ducted Heating, Evaporative Cooling, Floorboards, Remote Garage",https://www.domain.com.au/2-4-anthony-crescent-box-hill-north-vic-3129-17749688
17749744,BOX HILL NORTH,3129,650,2824,"Friday, 26 September 2025",2025-09-05,4,3,2,2.0,Apartment / Unit / Flat,3/53 Shannon Street,-37.808655,145.12471,2025-09-09 16:50:19,17749744,,9,0,0,False,Apartment,Apartment / Unit / Flat,Jellis Craig Whitehorse,20157,"William Ferraro, Taya Crupi","Secure Parking, Heating, Balcony / Deck",https://www.domain.com.au/3-53-shannon-street-box-hill-north-vic-3129-17749744
17752602,BOX HILL NORTH,3129,650,2824,"Wednesday, 10 September 2025",2025-09-09,0,4,2,1.0,House,42 Shannon Street,-37.80822,145.12662,2025-09-09 16:50:19,17752602,,6,0,0,False,House,House,Jellis Craig Doncaster,18680,"Mark Hewett, Tina Dekas","Bath, Air conditioning, Split System Heating, Split System Air Con, Balcony / Deck",https://www.domain.com.au/42-shannon-street-box-hill-north-vic-3129-17752602
17752704,BOX HILL NORTH,3129,300,1304,"Tuesday, 09 September 2025",2025-09-09,0,2,1,,Apartment / Unit / Flat,REAR/531 Middleborough Road,-37.80843,145.14026,2025-09-09 16:50:19,17752704,,4,0,0,False,Apartment,Apartment / Unit / Flat,McGrath Blackburn,12105,Patricia Dangerfield,"Heating, Carpeted",https://www.domain.com.au/rear-531-middleborough-road-box-hill-north-vic-3129-17752704
16780561,BOX HILL NORTH,3129,900,3911,"Friday, 11 July 2025",2025-06-20,81,3,2,2.0,Townhouse,2/9 Wimmera Street,-37.806553,145.12743,2025-09-09 16:50:25,16780561,,6,0,0,False,Townhouse/Villa,Townhouse,Jellis Craig Whitehorse,20157,Katrina George,"Gas, Internal Laundry, Secure Parking, Dishwasher, Shed, Balcony / Deck",https://www.domain.com.au/2-9-wimmera-street-box-hill-north-vic-3129-16780561
17574659,BOX HILL NORTH,3129,600,2608,"Tuesday, 22 July 2025",2025-07-22,49,3,1,2.0,House,10 Narallah Grove,-37.800312,145.12868,2025-09-09 16:50:25,17574659,TI-1216-FC,11,0,1,False,House,House,APG ESTATE,30107,"Ming Lin, Alisha Yang","Internal Laundry, Heating, Built in wardrobes, Bathtub, Outdoor Entertainment Area, Courtyard, Remote Garage",https://www.domain.com.au/10-narallah-grove-box-hill-north-vic-3129-17574659
17699857,BOX HILL NORTH,3129,550,2390,"Monday, 11 August 2025",2025-08-04,35,2,1,1.0,House,4/35 Medway Street,-37.8124,145.12828,2025-09-09 16:50:25,17699857,,10,0,0,False,House,House,Barry Plant Manningham,7015,"Freya Semera, Dechlan Maclean","Built in wardrobes, Secure Parking, Heating, Bathtub, Split System Air Conditioning",https://www.domain.com.au/4-35-medway-street-box-hill-north-vic-3129-17699857
17702348,BOX HILL NORTH,3129,710,3085,"Thursday, 04 September 2025",2025-08-06,34,3,2,2.0,House,146 Dorking Road,-37.806416,145.13332,2025-09-09 16:50:25,17702348,,8,0,0,False,House,House,Barry Plant Manningham,7015,"Freya Semera, Devorah Scott","Dishwasher, Ducted Heating",https://www.domain.com.au/146-dorking-road-box-hill-north-vic-3129-17702348
