listing_id,suburb,postcode,weekly_rent,bond,available_date,date_listed,days_listed,bedrooms,bathrooms,carspaces,property_type,address,lat,lon,scraped_date,domain_page_id,property_id,photo_count,video_count,floorplans_count,virtual_tour,primary_type,secondary_type,agency,agency_id,agent_names,structured_features,url
16053638,BRUNSWICK EAST,3057,1500,9778.0,"Monday, 01 September 2025",2025-07-24,47,3,3,2.0,House,190A Weston Street,-37.776524,144.97563,2025-09-09 16:53:09,16053638,,16,0,1,True,House,House,Raine & Horne Brunswick Sales,5247,Sara Theodotou,"Built in wardrobes, Secure Parking, Intercom, Bath, Heating, Dishwasher",https://www.domain.com.au/190a-weston-street-brunswick-east-vic-3057-16053638
16457645,BRUNSWICK EAST,3057,695,3020.0,"Wednesday, 24 September 2025",2025-09-04,5,2,1,1.0,Apartment / Unit / Flat,705/240-250 Lygon Street,-37.770573,144.97208,2025-09-09 16:53:09,16457645,AA-6187-VQ,15,1,1,False,Apartment,Apartment / Unit / Flat,Bricks and Mortar RE,31967,William Postlethwaite,"Intercom, Floorboards, Built in wardrobes, Dishwasher, Split System Heating, Split System Air Conditioning, Balcony, Secure Parking, Greywater system, Pets Allowed",https://www.domain.com.au/705-240-250-lygon-street-brunswick-east-vic-3057-16457645
16886841,BRUNSWICK EAST,3057,700,3042.0,"Saturday, 22 March 2025",2025-09-08,1,2,2,1.0,Apartment / Unit / Flat,105/15 Brunswick Road,-37.77875,144.97699,2025-09-09 16:53:09,16886841,GV-8649-CC,13,1,1,False,Apartment,Apartment / Unit / Flat,Ray White Brunswick,21490,"Danny Campos, Property Management Brunswick",,https://www.domain.com.au/105-15-brunswick-road-brunswick-east-vic-3057-16886841
17724491,BRUNSWICK EAST,3057,650,2824.0,"Friday, 22 August 2025",2025-08-20,20,2,1,,House,3 Linden Street,-37.773815,144.97325,2025-09-09 16:53:09,17724491,,6,0,0,False,House,House,Jellis Craig - Brunswick,6216,David Johnston,"Split System Air Con, Split System Heating, Floorboards",https://www.domain.com.au/3-linden-street-brunswick-east-vic-3057-17724491
17743016,BRUNSWICK EAST,3057,860,3737.0,"Wednesday, 01 October 2025",2025-09-02,7,3,1,1.0,Townhouse,1/205 Weston Street,-37.776066,144.97429,2025-09-09 16:53:09,17743016,,6,0,0,False,Townhouse/Villa,Townhouse,Nelson Alexander Brunswick,4720,Daniel Carusi,"Built in wardrobes, Internal Laundry, Bath, Heating",https://www.domain.com.au/1-205-weston-street-brunswick-east-vic-3057-17743016
17744063,BRUNSWICK EAST,3057,650,2824.0,"Friday, 03 October 2025",2025-09-02,6,2,2,1.0,Apartment / Unit / Flat,g01/26 Lygon Street,-37.77799,144.97108,2025-09-09 16:53:09,17744063,,9,0,0,False,Apartment,Apartment / Unit / Flat,Buxton Inner West,4371,Eliza O'Donnell,"Gas, Split System Air Con, Split System Heating, Built in wardrobes, Garden / Courtyard, Dishwasher, Floorboards, Secure Parking",https://www.domain.com.au/g01-26-lygon-street-brunswick-east-vic-3057-17744063
17747393,BRUNSWICK EAST,3057,975,4237.0,"Thursday, 04 September 2025",2025-09-04,5,2,2,1.0,Apartment / Unit / Flat,9/93-97 Lygon Street,-37.776123,144.97076,2025-09-09 16:53:09,17747393,,14,0,1,False,Apartment,Apartment / Unit / Flat,Ray White Northcote,37294,"Sophie Bilias, George Boutsiavaras","Air conditioning, Internal Laundry, Broadband internet access, Dishwasher, Balcony / Deck",https://www.domain.com.au/9-93-97-lygon-street-brunswick-east-vic-3057-17747393
17749830,BRUNSWICK EAST,3057,650,2824.0,"Monday, 29 September 2025",2025-09-05,4,2,2,1.0,Apartment / Unit / Flat,211/6-8 Gamble Street,-37.772648,144.97801,2025-09-09 16:53:09,17749830,,5,0,0,False,Apartment,Apartment / Unit / Flat,Bow Residential,33223,Patrick Siah,"Gas, Secure Parking, Balcony / Deck, Pets Allowed",https://www.domain.com.au/211-6-8-gamble-street-brunswick-east-vic-3057-17749830
17749934,BRUNSWICK EAST,3057,530,2303.0,"Monday, 06 October 2025",2025-09-05,3,1,1,1.0,Apartment / Unit / Flat,102/22 Barkly Street,-37.77801,144.97644,2025-09-09 16:53:09,17749934,,15,0,1,True,Apartment,Apartment / Unit / Flat,Woodards,19,Emina Taleb,"Built in wardrobes, Internal Laundry, Secure Parking, Broadband internet access, Heating, Dishwasher, Balcony / Deck",https://www.domain.com.au/102-22-barkly-street-brunswick-east-vic-3057-17749934
17749955,BRUNSWICK EAST,3057,1100,5500.0,"Friday, 12 September 2025",2025-09-05,3,4,1,,House,81 Albert Street,-37.769894,144.97267,2025-09-09 16:53:09,17749955,,14,0,1,True,House,House,Woodards,19,Samantha Maldonado,"Internal Laundry, Fireplace(s), Heating, Balcony / Deck",https://www.domain.com.au/81-albert-street-brunswick-east-vic-3057-17749955
17750109,BRUNSWICK EAST,3057,650,2824.0,"Wednesday, 08 October 2025",2025-09-05,3,2,2,2.0,Apartment / Unit / Flat,G01/92-96 Albert Street,-37.77024,144.97375,2025-09-09 16:53:09,17750109,,8,0,0,False,Apartment,Apartment / Unit / Flat,Jellis Craig Whitehorse,20157,"William Ferraro, Naomi Henderson","Built in wardrobes, Heating",https://www.domain.com.au/g01-92-96-albert-street-brunswick-east-vic-3057-17750109
17750631,BRUNSWICK EAST,3057,600,2607.0,"Monday, 01 September 2025",2025-09-08,1,2,2,1.0,Apartment / Unit / Flat,103/294 Lygon Street,-37.769703,144.97223,2025-09-09 16:53:09,17750631,,5,0,0,False,Apartment,Apartment / Unit / Flat,Jellis Craig - Brunswick,6216,"David Johnston, Bianca  Pedersen","Split System Air Con, Split System Heating, Balcony / Deck, Built in wardrobes, Dishwasher, Floorboards, Intercom, Remote Garage, Secure Parking",https://www.domain.com.au/103-294-lygon-street-brunswick-east-vic-3057-17750631
17751768,BRUNSWICK EAST,3057,750,3259.0,"Saturday, 12 August 2023",2025-09-08,1,2,2,1.0,Apartment / Unit / Flat,111/197 Edward Street,-37.77461,144.971,2025-09-09 16:53:09,17751768,,9,0,0,False,Apartment,Apartment / Unit / Flat,Nelson Alexander Fitzroy,4718,Lauren Honey,"Internal Laundry, Air conditioning, Ducted Cooling, Ensuite",https://www.domain.com.au/111-197-edward-street-brunswick-east-vic-3057-17751768
17752080,BRUNSWICK EAST,3057,575,2499.0,"Wednesday, 17 September 2025",2025-09-08,1,2,1,1.0,Apartment / Unit / Flat,107/360 Lygon Street,-37.767902,144.97255,2025-09-09 16:53:09,17752080,,11,1,1,False,Apartment,Apartment / Unit / Flat,Ray White Brunswick,21490,"Danny Campos, Hassan Allouche",,https://www.domain.com.au/107-360-lygon-street-brunswick-east-vic-3057-17752080
17752208,BRUNSWICK EAST,3057,750,3259.0,"Saturday, 20 September 2025",2025-09-08,1,2,1,,House,140 Stewart Street,-37.764847,144.97385,2025-09-09 16:53:09,17752208,,15,1,1,True,House,House,Nelson Alexander Brunswick,4720,Eiley Hameister,"Built in wardrobes, Internal Laundry, Fireplace(s), Shed, Air conditioning, Ducted Heating, Gas",https://www.domain.com.au/140-stewart-street-brunswick-east-vic-3057-17752208
17752291,BRUNSWICK EAST,3057,410,1782.0,"Monday, 29 September 2025",2025-09-08,0,1,1,1.0,Apartment / Unit / Flat,6/201 Blyth Street,-37.767002,144.97845,2025-09-09 16:53:09,17752291,,6,0,1,False,Apartment,Apartment / Unit / Flat,Barry Plant (Brunswick-Coburg),6048,Ahmed Khodr,"Air conditioning, Broadband internet access, Heating",https://www.domain.com.au/6-201-blyth-street-brunswick-east-vic-3057-17752291
17752393,BRUNSWICK EAST,3057,585,2542.0,"Sunday, 28 September 2025",2025-09-08,0,2,1,,House,4 O'Connor Street,-37.77363,144.97217,2025-09-09 16:53:09,17752393,,12,1,0,False,House,House,Property Now,10282,Property Now,"Outdoor Entertainment Area, Air conditioning, Secure Parking, Floorboards, Broadband Connection, Pets Allowed",https://www.domain.com.au/4-o-connor-street-brunswick-east-vic-3057-17752393
17752430,BRUNSWICK EAST,3057,800,,"Wednesday, 01 October 2025",2025-09-08,0,3,1,,House,34 Gale Street,-37.768845,144.97331,2025-09-09 16:53:09,17752430,,13,0,0,False,House,House,Nicholson Real Estate,11229,"Claire Spring, Gabriel Mercuri","Dishwasher, Study",https://www.domain.com.au/34-gale-street-brunswick-east-vic-3057-17752430
17753215,BRUNSWICK EAST,3057,480,2086.0,"Tuesday, 07 October 2025",2025-09-09,0,1,1,1.0,Apartment / Unit / Flat,305/65-73 Lygon Street,-37.776875,144.97054,2025-09-09 16:53:09,17753215,,6,0,0,False,Apartment,Apartment / Unit / Flat,Barry Plant Reservoir,15050,Michael Bernar,"Gas, Dishwasher, Balcony / Deck, Air conditioning, Heating, Built in wardrobes, Close to transport, Close to shops, Close to schools",https://www.domain.com.au/305-65-73-lygon-street-brunswick-east-vic-3057-17753215
17753289,BRUNSWICK EAST,3057,670,2911.0,"Friday, 17 October 2025",2025-09-09,0,2,2,1.0,Apartment / Unit / Flat,306/65 Nicholson Street,-37.775654,144.97862,2025-09-09 16:53:09,17753289,,14,0,0,False,Apartment,Apartment / Unit / Flat,One Group Realty,32679,"Chantell Hawzi, Kalley Singh","Secure Parking, Ensuite",https://www.domain.com.au/306-65-nicholson-street-brunswick-east-vic-3057-17753289
9807434,BRUNSWICK EAST,3057,500,2173.0,"Tuesday, 16 July 2024",2025-08-25,14,1,1,1.0,Apartment / Unit / Flat,1326/176 Edward Street,-37.775528,144.97206,2025-09-09 16:53:13,9807434,WJ-6164-NO,6,0,2,False,Apartment,Apartment / Unit / Flat,LITTLE Real Estate Victoria,24974,Cooper Modica,"Car Accom: Basement Carspace, Heating: Reverse Cycle Air Conditioning, Cooling: Reverse Cycle Air Conditioning, Cooking: Electric Hotplates & Oven, Pool/Spa Count: 0",https://www.domain.com.au/1326-176-edward-street-brunswick-east-vic-3057-9807434
12609424,BRUNSWICK EAST,3057,645,2803.0,"Tuesday, 02 September 2025",2025-08-12,28,2,1,1.0,Apartment / Unit / Flat,2/5 Barkly Street,-37.777706,144.97736,2025-09-09 16:53:13,12609424,XC-8283-OJ,7,0,1,False,Apartment,Apartment / Unit / Flat,LITTLE Real Estate Victoria,24974,Cooper Modica,"Car Accom: Single Off-Street Parking, Heating: Reverse Cycle Air Conditioning, Cooling: Reverse Cycle Air Conditioning, Cooking: Gas Upright Stove",https://www.domain.com.au/2-5-barkly-street-brunswick-east-vic-3057-12609424
14311141,BRUNSWICK EAST,3057,500,2173.0,"Thursday, 18 September 2025",2025-08-22,18,1,1,1.0,Apartment / Unit / Flat,G19/48 Victoria Street,-37.769085,144.98058,2025-09-09 16:53:13,14311141,,10,1,0,False,Apartment,Apartment / Unit / Flat,Asset Advantage Management,7605,Dakota Waters - Wilberforce,"Internal Laundry, Intercom, Floorboards, Built in wardrobes, Dishwasher, Gas Appliances, Split System Heating, Split System Air Conditioning, Balcony, Secure Parking, Pets Allowed",https://www.domain.com.au/g19-48-victoria-street-brunswick-east-vic-3057-14311141
14985986,BRUNSWICK EAST,3057,545,2368.0,"Tuesday, 30 September 2025",2025-09-04,5,1,1,1.0,Apartment / Unit / Flat,703/240-250 Lygon Street,-37.770573,144.97208,2025-09-09 16:53:13,14985986,VB-5815-HA,19,1,1,False,Apartment,Apartment / Unit / Flat,Bricks and Mortar RE,31967,William Postlethwaite,"Intercom, Study, Floorboards, Built in wardrobes, Dishwasher, Split System Heating, Split System Air Conditioning, Balcony, Secure Parking, Pets Allowed",https://www.domain.com.au/703-240-250-lygon-street-brunswick-east-vic-3057-14985986
16454146,BRUNSWICK EAST,3057,630,3033.0,"Saturday, 05 April 2025",2023-05-05,857,2,1,1.0,Apartment / Unit / Flat,506/250 Lygon St,-37.77053,144.97206,2025-09-09 16:53:13,16454146,WE-0715-ME,12,1,0,True,Apartment,Apartment / Unit / Flat,BRW Group,34868,"BRW Leasing, Sinclair Mak","Built in wardrobes, Secure Parking",https://www.domain.com.au/506-250-lygon-st-brunswick-east-vic-3057-16454146
16944362,BRUNSWICK EAST,3057,620,2695.0,"Friday, 19 September 2025",2025-09-02,7,2,1,1.0,House,207/11 Lygon Street,-37.778038,144.97047,2025-09-09 16:53:13,16944362,,5,0,0,False,House,House,Biggin & Scott Inner North,23934,Maxine Alderson,,https://www.domain.com.au/207-11-lygon-street-brunswick-east-vic-3057-16944362
17695770,BRUNSWICK EAST,3057,400,1738.0,"Tuesday, 02 September 2025",2025-08-01,39,1,1,1.0,Apartment / Unit / Flat,10/123 Victoria Street,-37.768116,144.97345,2025-09-09 16:53:13,17695770,,7,0,1,False,Apartment,Apartment / Unit / Flat,Woodards,19,Luca Russell,Heating,https://www.domain.com.au/10-123-victoria-street-brunswick-east-vic-3057-17695770
17715106,BRUNSWICK EAST,3057,800,3476.0,"Thursday, 14 August 2025",2025-08-14,26,3,2,2.0,House,20 Elsie Mews,-37.768204,144.97798,2025-09-09 16:53:13,17715106,,9,0,0,False,House,House,Barry Plant (Brunswick-Coburg),6048,Anna Kaur,"Internal Laundry, Secure Parking, Broadband internet access, Heating",https://www.domain.com.au/20-elsie-mews-brunswick-east-vic-3057-17715106
17717139,BRUNSWICK EAST,3057,425,1846.0,"Tuesday, 12 August 2025",2025-08-15,25,1,1,1.0,Apartment / Unit / Flat,4/36 Holmes Street,-37.760235,144.97446,2025-09-09 16:53:13,17717139,,12,0,0,False,Apartment,Apartment / Unit / Flat,Nicholson Real Estate,11229,Manny Tomazos,"Built in wardrobes, Gas, Internal Laundry",https://www.domain.com.au/4-36-holmes-street-brunswick-east-vic-3057-17717139
17721327,BRUNSWICK EAST,3057,635,2760.0,"Wednesday, 27 August 2025",2025-08-19,21,2,2,1.0,Apartment / Unit / Flat,320/92-96 Albert Street,-37.77024,144.97375,2025-09-09 16:53:13,17721327,,7,0,1,False,Apartment,Apartment / Unit / Flat,MRE,20795,Tali Leckie,"Built in wardrobes, Internal Laundry, Balcony / Deck, Car Accom: Carport, Pool/Spa Count: 0",https://www.domain.com.au/320-92-96-albert-street-brunswick-east-vic-3057-17721327
17726063,BRUNSWICK EAST,3057,710,3085.0,"Wednesday, 06 August 2025",2025-08-21,19,2,2,1.0,Apartment / Unit / Flat,312/8 Lygon Street,-37.778683,144.97089,2025-09-09 16:53:13,17726063,,6,1,0,False,Apartment,Apartment / Unit / Flat,Lifein Real Estate Pty Ltd,32895,Inchi Zhang,"Air conditioning, Floorboards, Built in wardrobes, Furnished, Dishwasher, Gym, Gas, Balcony / Deck, Swimming Pool, Secure Parking, Garden / Courtyard",https://www.domain.com.au/312-8-lygon-street-brunswick-east-vic-3057-17726063
17732767,BRUNSWICK EAST,3057,440,1912.0,"Friday, 26 September 2025",2025-08-26,14,1,1,,Apartment / Unit / Flat,209/1 Lygon Street,-37.77087,144.97182,2025-09-09 16:53:13,17732767,,9,0,0,True,Apartment,Apartment / Unit / Flat,Areal Property - Hawthorn,12104,Joshua Hellyer,"Air conditioning, Intercom, Balcony / Deck, Built in wardrobes, Dishwasher, Floorboards",https://www.domain.com.au/209-1-lygon-street-brunswick-east-vic-3057-17732767
17737124,BRUNSWICK EAST,3057,540,2346.0,"Monday, 22 September 2025",2025-08-28,12,2,1,1.0,Apartment / Unit / Flat,1/9 Holmes Street,-37.76108,144.97389,2025-09-09 16:53:13,17737124,,9,0,0,False,Apartment,Apartment / Unit / Flat,Nelson Alexander Reservoir,30296,"Leo Maugeri, Leah Racovalis","Built in wardrobes, Gas, Internal Laundry, Bath, Heating",https://www.domain.com.au/1-9-holmes-street-brunswick-east-vic-3057-17737124
17738675,BRUNSWICK EAST,3057,570,2477.0,"Friday, 26 September 2025",2025-08-29,11,1,1,1.0,Apartment / Unit / Flat,106/24 Barkly Street,-37.777958,144.976,2025-09-09 16:53:13,17738675,,13,0,0,False,Apartment,Apartment / Unit / Flat,D - Australia Real Estate,34332,Ding Qi,"Internal Laundry, Broadband internet access, Heating, Air conditioning, Floorboards, Gym, Intercom, Built in wardrobes, Dishwasher, Secure Parking, Balcony / Deck, Swimming Pool",https://www.domain.com.au/106-24-barkly-street-brunswick-east-vic-3057-17738675
17738730,BRUNSWICK EAST,3057,400,1738.0,"Friday, 05 September 2025",2025-08-29,11,1,1,,Studio,Rear/138 Nicholson Street,-37.76667,144.9806,2025-09-09 16:53:13,17738730,,4,0,0,False,Apartment,Studio,Nelson Alexander Brunswick,4720,Alexis Grosdanis,,https://www.domain.com.au/rear-138-nicholson-street-brunswick-east-vic-3057-17738730
17738842,BRUNSWICK EAST,3057,700,3042.0,"Wednesday, 03 September 2025",2025-08-29,11,2,1,1.0,House,115 Barkly Street,-37.77722,144.97253,2025-09-09 16:53:13,17738842,,6,0,0,False,House,House,Nelson Alexander Brunswick,4720,Prudence Walton-Pearce,"Built in wardrobes, Heating, Dishwasher",https://www.domain.com.au/115-barkly-street-brunswick-east-vic-3057-17738842
17739684,BRUNSWICK EAST,3057,750,3259.0,"Friday, 17 October 2025",2025-09-01,8,3,2,1.0,Apartment / Unit / Flat,3/1-3 Canning Street,-37.779457,144.97552,2025-09-09 16:53:13,17739684,,14,0,1,True,Apartment,Apartment / Unit / Flat,Woodards,19,Susie Beale,"Built in wardrobes, Secure Parking, Bath, Heating, Dishwasher, Balcony / Deck",https://www.domain.com.au/3-1-3-canning-street-brunswick-east-vic-3057-17739684
17741410,BRUNSWICK EAST,3057,775,3368.0,"Monday, 01 September 2025",2025-09-01,8,2,1,1.0,House,6 Bladen Avenue,-37.76413,144.97388,2025-09-09 16:53:13,17741410,,16,0,1,True,House,House,Nelson Alexander Brunswick,4720,Eiley Hameister,"Internal Laundry, Heating, Air conditioning",https://www.domain.com.au/6-bladen-avenue-brunswick-east-vic-3057-17741410
17746400,BRUNSWICK EAST,3057,675,2933.0,"Monday, 10 November 2025",2025-09-04,5,2,2,1.0,Apartment / Unit / Flat,304/92-96 Albert Street,-37.77024,144.97375,2025-09-09 16:53:13,17746400,,11,0,0,False,Apartment,Apartment / Unit / Flat,Hudson Bond,15409,Hudson Bond Rentals,"Air conditioning, Heating, Built in wardrobes, Close to transport, Close to shops, Close to schools, Ensuite, Car Parking - Basement, Openable Windows, Toilet Facilities, Window Treatments",https://www.domain.com.au/304-92-96-albert-street-brunswick-east-vic-3057-17746400
17748533,BRUNSWICK EAST,3057,675,2934.0,"Monday, 29 September 2025",2025-09-05,4,1,1,1.0,Apartment / Unit / Flat,812/8 Lygon Street,-37.778683,144.97089,2025-09-09 16:53:13,17748533,,10,1,0,False,Apartment,Apartment / Unit / Flat,MRE,20795,Millie Bowles,"Furnished, Dishwasher, Study, Balcony / Deck, Car Accom: Carport, Pool/Spa Count: 0",https://www.domain.com.au/812-8-lygon-street-brunswick-east-vic-3057-17748533
12487177,BRUNSWICK EAST,3057,330,1434.0,"Wednesday, 19 February 2020",2018-08-15,2581,1,1,,Apartment / Unit / Flat,3 Holmes Street,-37.76143,144.97362,2025-09-09 16:53:18,12487177,,7,1,0,False,Apartment,Apartment / Unit / Flat,Student Housing Australia,11870,Travis Ch'ng,"Air conditioning, Intercom, Furnished",https://www.domain.com.au/3-holmes-street-brunswick-east-vic-3057-12487177
15668637,BRUNSWICK EAST,3057,350,1521.0,"Monday, 25 August 2025",2025-08-06,34,1,1,,Apartment / Unit / Flat,8/3 Holmes Street,-37.76141,144.97385,2025-09-09 16:53:18,15668637,SH-3510-LV,6,1,0,False,Apartment,Apartment / Unit / Flat,Student Housing Australia,11870,Travis Ch'ng,"Air conditioning, Gas, Furnished",https://www.domain.com.au/8-3-holmes-street-brunswick-east-vic-3057-15668637
15668685,BRUNSWICK EAST,3057,330,1434.0,"Friday, 04 July 2025",2025-03-24,169,1,1,,Apartment / Unit / Flat,12/3 Holmes Street,-37.76141,144.97385,2025-09-09 16:53:18,15668685,CX-2580-VV,7,0,0,False,Apartment,Apartment / Unit / Flat,Student Housing Australia,11870,Travis Ch'ng,"Air conditioning, Gas, Furnished",https://www.domain.com.au/12-3-holmes-street-brunswick-east-vic-3057-15668685
15668783,BRUNSWICK EAST,3057,360,1564.0,"Monday, 28 July 2025",2025-07-21,49,1,1,,Apartment / Unit / Flat,30/3 Holmes Street,-37.76141,144.97385,2025-09-09 16:53:18,15668783,GQ-2248-XZ,7,0,0,False,Apartment,Apartment / Unit / Flat,Student Housing Australia,11870,Travis Ch'ng,"Air conditioning, Gas, Furnished",https://www.domain.com.au/30-3-holmes-street-brunswick-east-vic-3057-15668783
15668821,BRUNSWICK EAST,3057,360,1564.0,"Tuesday, 03 June 2025",2025-05-28,104,1,1,,Apartment / Unit / Flat,14/3 Holmes Street,-37.76141,144.97385,2025-09-09 16:53:18,15668821,SD-2085-TG,7,0,0,False,Apartment,Apartment / Unit / Flat,Student Housing Australia,11870,Travis Ch'ng,"Air conditioning, Gas, Furnished",https://www.domain.com.au/14-3-holmes-street-brunswick-east-vic-3057-15668821
15977979,BRUNSWICK EAST,3057,650,2820.0,"Wednesday, 24 August 2022",2022-07-10,1157,2,2,1.0,Apartment / Unit / Flat,8 Lygon Street,-37.778824,144.97092,2025-09-09 16:53:18,15977979,,1,0,0,False,Apartment,Apartment / Unit / Flat,BRW Group,34868,,,https://www.domain.com.au/8-lygon-street-brunswick-east-vic-3057-15977979
16797004,BRUNSWICK EAST,3057,440,1912.0,"Wednesday, 20 December 2023",2023-12-15,634,1,1,,Apartment / Unit / Flat,1B1B/240-250 Lygon Street,-37.77053,144.97206,2025-09-09 16:53:18,16797004,,7,0,0,False,Apartment,Apartment / Unit / Flat,BRW Group,34868,Support Team,Balcony / Deck,https://www.domain.com.au/1b1b-240-250-lygon-street-brunswick-east-vic-3057-16797004
17538651,BRUNSWICK EAST,3057,610,2651.0,"Friday, 23 May 2025",2025-04-22,140,2,1,1.0,Apartment / Unit / Flat,416/8 Lygon Street,-37.778683,144.97089,2025-09-09 16:53:18,17538651,NC-7878-IT,12,0,1,False,Apartment,Apartment / Unit / Flat,Ironfish Real Estate Melbourne,21689,Audrey Lu,"Built in wardrobes, Gas, Internal Laundry, Intercom, Heating, Dishwasher, Study, Balcony / Deck",https://www.domain.com.au/416-8-lygon-street-brunswick-east-vic-3057-17538651
17623453,BRUNSWICK EAST,3057,650,2824.0,"Monday, 23 June 2025",2025-06-16,85,2,2,1.0,Apartment / Unit / Flat,202/90 Nicholson Street,-37.769657,144.98006,2025-09-09 16:53:18,17623453,,12,0,0,False,Apartment,Apartment / Unit / Flat,Leased and Sold Estate Agents,36316,Riccardo Maurizi,"Intercom, Heating, Floorboards, Built in wardrobes, Dishwasher, Balcony",https://www.domain.com.au/202-90-nicholson-street-brunswick-east-vic-3057-17623453
17632955,BRUNSWICK EAST,3057,495,2064.0,"Monday, 16 June 2025",2025-06-23,78,1,1,1.0,Apartment / Unit / Flat,206/90 Nicholson Street,-37.769665,144.98006,2025-09-09 16:53:18,17632955,,4,0,0,False,Apartment,Apartment / Unit / Flat,Leased and Sold Estate Agents,36316,Riccardo Maurizi,"Secure Parking, Balcony / Deck, Intercom, Floorboards, Built in wardrobes, Dishwasher",https://www.domain.com.au/206-90-nicholson-street-brunswick-east-vic-3057-17632955
17648257,BRUNSWICK EAST,3057,625,2715.0,"Saturday, 16 August 2025",2025-07-01,69,2,1,1.0,Apartment / Unit / Flat,208/240 - 250 Lygon Street,-37.77053,144.97206,2025-09-09 16:53:18,17648257,,13,1,1,False,Apartment,Apartment / Unit / Flat,Outlook Property Group,21388,"Rebecca Ozmetin, Onder Ozmetin","Internal Laundry, Heating, Balcony, Secure Parking, Built in wardrobes, Intercom, Broadband, Dishwasher, Floorboards, Air conditioning, 0, Energy Eff. Rating: 7",https://www.domain.com.au/208-240-250-lygon-street-brunswick-east-vic-3057-17648257
17670718,BRUNSWICK EAST,3057,520,2260.0,"Tuesday, 19 August 2025",2025-07-16,55,2,1,1.0,Apartment / Unit / Flat,106/122-124 Nicholson Street,-37.76747,144.9804,2025-09-09 16:53:18,17670718,,7,0,0,False,Apartment,Apartment / Unit / Flat,Bow Residential,33223,Jagg Hunt,,https://www.domain.com.au/106-122-124-nicholson-street-brunswick-east-vic-3057-17670718
17671465,BRUNSWICK EAST,3057,600,2607.0,"Friday, 22 August 2025",2025-07-16,55,2,1,1.0,Apartment / Unit / Flat,309/48 Victoria St,-37.76931,144.98012,2025-09-09 16:53:18,17671465,,8,0,0,False,Apartment,Apartment / Unit / Flat,Moment Group,35720,Leasing Consultant,Balcony / Deck,https://www.domain.com.au/309-48-victoria-st-brunswick-east-vic-3057-17671465
17679157,BRUNSWICK EAST,3057,730,3164.0,"Friday, 08 August 2025",2025-07-22,49,3,2,1.0,Apartment / Unit / Flat,68A Lygon Street,-37.776688,144.97116,2025-09-09 16:53:18,17679157,,11,0,0,False,Apartment,Apartment / Unit / Flat,Jason Real Estate Sales PTY LTD,6638,"Chanel Sassine, Nanette Donovan","Gas, Internal Laundry, Shed, Air conditioning, Built in wardrobes, Close to transport, Close to shops, Close to schools, Ensuite, Dishwasher, Floorboards",https://www.domain.com.au/68a-lygon-street-brunswick-east-vic-3057-17679157
17689581,BRUNSWICK EAST,3057,575,2499.0,"Tuesday, 29 July 2025",2025-07-29,42,2,1,1.0,Apartment / Unit / Flat,202/15A Albert Street,-37.77064,144.97989,2025-09-09 16:53:18,17689581,,8,0,0,False,Apartment,Apartment / Unit / Flat,Leased and Sold Estate Agents,36316,Riccardo Maurizi,"Internal Laundry, Heating, Balcony / Deck, Intercom, Floorboards, Built in wardrobes",https://www.domain.com.au/202-15a-albert-street-brunswick-east-vic-3057-17689581
17701766,BRUNSWICK EAST,3057,480,2086.0,"Friday, 29 August 2025",2025-08-05,35,1,1,,Apartment / Unit / Flat,1112/182 Edward Street,-37.775635,144.97289,2025-09-09 16:53:18,17701766,,7,0,0,False,Apartment,Apartment / Unit / Flat,Areal Property - Hawthorn,12104,Joshua Hellyer,,https://www.domain.com.au/1112-182-edward-street-brunswick-east-vic-3057-17701766
17704042,BRUNSWICK EAST,3057,610,2650.0,"Thursday, 02 October 2025",2025-08-06,33,2,1,1.0,House,61 Ryan Street,-37.76643,144.98103,2025-09-09 16:53:18,17704042,,8,0,0,False,House,House,Nelson Alexander Fitzroy,4718,Lauren Honey,"Built in wardrobes, Internal Laundry, Bath, Heating",https://www.domain.com.au/61-ryan-street-brunswick-east-vic-3057-17704042
