listing_id,suburb,postcode,weekly_rent,bond,available_date,date_listed,days_listed,bedrooms,bathrooms,carspaces,property_type,address,lat,lon,scraped_date,domain_page_id,property_id,photo_count,video_count,floorplans_count,virtual_tour,primary_type,secondary_type,agency,agency_id,agent_names,structured_features,url
16941706,BRUNSWICK WEST,3055,895.0,3878.0,"Friday, 20 June 2025",2025-05-21,111,3.0,2,2.0,Townhouse,3/48 Murray Street,-37.75886,144.9409,2025-09-09 16:59:03,16941706,OI-4920-YV,14,0,0,False,Townhouse/Villa,Townhouse,Lease A Property ,21230,Marc Angelone,"Intercom, Study, Alarm System, Floorboards, Vacuum System, Built in wardrobes, Dishwasher, Split System Heating, Ducted Air Conditioning, Courtyard, Remote Garage, Secure Parking, Fully fenced, Pets Allowed",https://www.domain.com.au/3-48-murray-street-brunswick-west-vic-3055-16941706
17618596,BRUNSWICK WEST,3055,560.0,2433.0,"Monday, 08 September 2025",2025-09-03,5,1.0,1,1.0,Apartment / Unit / Flat,202/5 Olive York Way,-37.758522,144.93861,2025-09-09 16:59:03,17618596,,13,0,1,False,Apartment,Apartment / Unit / Flat,Motion Property,8551,Mark Reading,"Pets Allowed, Furnished",https://www.domain.com.au/202-5-olive-york-way-brunswick-west-vic-3055-17618596
17676799,BRUNSWICK WEST,3055,700.0,3033.0,"Friday, 08 August 2025",2025-07-21,50,3.0,1,2.0,Townhouse,52A Collier Crescent,-37.77168,144.9492,2025-09-09 16:59:03,17676799,,21,0,0,False,Townhouse/Villa,Townhouse,Raine & Horne Brunswick Sales,5247,Sara Theodotou,"Built in wardrobes, Internal Laundry, Bath, Heating, Balcony / Deck",https://www.domain.com.au/52a-collier-crescent-brunswick-west-vic-3055-17676799
17680128,BRUNSWICK WEST,3055,535.0,2324.0,"Friday, 01 August 2025",2025-07-22,49,2.0,1,1.0,Apartment / Unit / Flat,307/3 Olive York Way,-37.758522,144.93861,2025-09-09 16:59:03,17680128,,11,0,1,True,Apartment,Apartment / Unit / Flat,Jellis Craig Moonee Valley,13365,"Megan Reddy, Edward Tombs","Secure Parking, Balcony / Deck, Intercom, Built in wardrobes, Dishwasher, Reverse Cycle Air Con",https://www.domain.com.au/307-3-olive-york-way-brunswick-west-vic-3055-17680128
17684085,BRUNSWICK WEST,3055,670.0,2911.0,"Friday, 04 July 2025",2025-07-24,47,3.0,1,1.0,Townhouse,3/111 Melville Road,-37.760426,144.9441,2025-09-09 16:59:03,17684085,,13,0,0,False,Townhouse/Villa,Townhouse,Jellis Craig - Brunswick,6216,Brandon Antrim,"Split System Air Con, Balcony / Deck, Built in wardrobes, Garden / Courtyard, Dishwasher, Ducted Cooling, Ducted Heating, Secure Parking",https://www.domain.com.au/3-111-melville-road-brunswick-west-vic-3055-17684085
17724492,BRUNSWICK WEST,3055,470.0,2042.0,"Friday, 22 August 2025",2025-08-20,20,1.0,1,1.0,Apartment / Unit / Flat,6/1 Cohuna Street,-37.77412,144.94044,2025-09-09 16:59:03,17724492,,15,0,1,True,Apartment,Apartment / Unit / Flat,Jellis Craig Moonee Valley,13365,"Megan Reddy, Anastasia Gullotti","Gas, Secure Parking, Balcony / Deck, Split System Heating, Floorboards, Built in wardrobes",https://www.domain.com.au/6-1-cohuna-street-brunswick-west-vic-3055-17724492
17727446,BRUNSWICK WEST,3055,525.0,2281.0,"Friday, 22 August 2025",2025-08-22,18,2.0,1,1.0,Townhouse,27/516-518 Moreland Road,-37.752445,144.93735,2025-09-09 16:59:03,17727446,,5,0,0,False,Townhouse/Villa,Townhouse,Jellis Craig - Brunswick,6216,"David Johnston, Elliott Heslop","Split System Air Con, Split System Heating, Built in wardrobes, Garden / Courtyard, Outdoor Entertainment Area",https://www.domain.com.au/27-516-518-moreland-road-brunswick-west-vic-3055-17727446
17730721,BRUNSWICK WEST,3055,590.0,2564.0,"Wednesday, 13 August 2025",2025-08-25,15,3.0,1,,House,24 Bakers Parade,-37.753628,144.94345,2025-09-09 16:59:03,17730721,,6,0,0,False,House,House,Nelson Alexander Brunswick,4720,Penny Tsiamis,"Internal Laundry, Secure Parking, Bath, Heating",https://www.domain.com.au/24-bakers-parade-brunswick-west-vic-3055-17730721
17733342,BRUNSWICK WEST,3055,550.0,2390.0,"Monday, 08 September 2025",2025-08-27,13,2.0,2,1.0,Townhouse,5/85 Hopetoun Avenue,-37.752483,144.93295,2025-09-09 16:59:03,17733342,,7,0,0,False,Townhouse/Villa,Townhouse,Gotham Property,32563,Carolina  Hernandez,,https://www.domain.com.au/5-85-hopetoun-avenue-brunswick-west-vic-3055-17733342
17747255,BRUNSWICK WEST,3055,580.0,2520.0,"Monday, 01 September 2025",2025-09-04,5,2.0,1,1.0,Apartment / Unit / Flat,3/262 Albion Street,-37.758728,144.94537,2025-09-09 16:59:03,17747255,,7,0,0,False,Apartment,Apartment / Unit / Flat,Jellis Craig - Brunswick,6216,David Johnston,"Split System Air Con, Split System Heating, Built in wardrobes, Garden / Courtyard",https://www.domain.com.au/3-262-albion-street-brunswick-west-vic-3055-17747255
17749153,BRUNSWICK WEST,3055,550.0,2389.0,"Thursday, 02 October 2025",2025-09-05,4,2.0,1,1.0,Apartment / Unit / Flat,64B Grantham Street,-37.770733,144.94994,2025-09-09 16:59:03,17749153,,6,0,0,False,Apartment,Apartment / Unit / Flat,Jellis Craig - Brunswick,6216,David Johnston,"Split System Air Con, Split System Heating, Built in wardrobes, Remote Garage, Secure Parking",https://www.domain.com.au/64b-grantham-street-brunswick-west-vic-3055-17749153
17750123,BRUNSWICK WEST,3055,330.0,1434.0,"Friday, 26 September 2025",2025-09-05,3,1.0,1,1.0,Apartment / Unit / Flat,8/214 Dawson Street,-37.768875,144.9411,2025-09-09 16:59:03,17750123,,7,0,0,False,Apartment,Apartment / Unit / Flat,Morrison Kleeman Estate Agents,4241,"Claudia Newcombe, Ashleigh Turner","Internal Laundry, Bath, Heating",https://www.domain.com.au/8-214-dawson-street-brunswick-west-vic-3055-17750123
17750515,BRUNSWICK WEST,3055,425.0,1847.0,"Friday, 12 September 2025",2025-09-08,1,1.0,1,1.0,Apartment / Unit / Flat,4/610 Moreland Road,-37.751423,144.92879,2025-09-09 16:59:03,17750515,,7,0,0,False,Apartment,Apartment / Unit / Flat,Nelson Alexander Essendon,4722,"Fiona Hauke, Cheryl Garton","Built in wardrobes, Heating",https://www.domain.com.au/4-610-moreland-road-brunswick-west-vic-3055-17750515
17751104,BRUNSWICK WEST,3055,425.0,1847.0,"Tuesday, 14 October 2025",2025-09-08,1,1.0,1,1.0,Apartment / Unit / Flat,8/588 Moreland Road,-37.751736,144.93092,2025-09-09 16:59:03,17751104,,6,0,0,False,Apartment,Apartment / Unit / Flat,NICOLE GERVASI PROPERTY GROUP,29875,"Andrew D'Aprano, Amanda Ocean Pacifique",Internal Laundry,https://www.domain.com.au/8-588-moreland-road-brunswick-west-vic-3055-17751104
17751245,BRUNSWICK WEST,3055,540.0,2160.0,"Thursday, 09 October 2025",2025-09-08,1,2.0,1,2.0,Apartment / Unit / Flat,6/520 Moreland Road,-37.75281,144.93695,2025-09-09 16:59:03,17751245,,5,0,0,False,Apartment,Apartment / Unit / Flat,Peter Leahy Real Estate,25056,"Jacob Gioulekas, Rental Department","Internal Laundry, Pets Allowed, Floorboards, Built in wardrobes, Bathtub, Split System Heating, Split System Air Conditioning, Courtyard",https://www.domain.com.au/6-520-moreland-road-brunswick-west-vic-3055-17751245
17752672,BRUNSWICK WEST,3055,400.0,,"Wednesday, 01 October 2025",2025-09-09,0,1.0,1,,Apartment / Unit / Flat,14/558 Moreland Road,-37.752014,144.93375,2025-09-09 16:59:03,17752672,,10,0,0,False,Apartment,Apartment / Unit / Flat,McGrath Ivanhoe,28224,Molly Booker,"Heating, Close to transport, Close to shops, Close to schools, Car Parking - Basement, Carpeted",https://www.domain.com.au/14-558-moreland-road-brunswick-west-vic-3055-17752672
17752801,BRUNSWICK WEST,3055,640.0,2781.0,"Tuesday, 09 September 2025",2025-09-09,0,2.0,1,2.0,House,21 Owen St,-37.765934,144.93864,2025-09-09 16:59:03,17752801,,9,0,0,False,House,House,McDonald Upton,11154,Lina Alyas,"Gas, Heating",https://www.domain.com.au/21-owen-st-brunswick-west-vic-3055-17752801
17753648,BRUNSWICK WEST,3055,620.0,2694.0,"Thursday, 11 September 2025",2025-09-09,0,2.0,1,1.0,House,2/107 Pearson Street,-37.763184,144.94948,2025-09-09 16:59:03,17753648,,8,0,0,False,House,House,Jellis Craig - Brunswick,6216,David Johnston,"Split System Air Con, Split System Heating, Built in wardrobes, Garden / Courtyard, Dishwasher, Remote Garage",https://www.domain.com.au/2-107-pearson-street-brunswick-west-vic-3055-17753648
17753661,BRUNSWICK WEST,3055,430.0,1868.0,"Monday, 06 October 2025",2025-09-09,0,2.0,1,1.0,Apartment / Unit / Flat,4/17 Howson Street,-37.77108,144.94875,2025-09-09 16:59:03,17753661,,6,0,0,False,Apartment,Apartment / Unit / Flat,Jellis Craig - Brunswick,6216,David Johnston,"Split System Air Con, Split System Heating, Built in wardrobes, Garden / Courtyard, Floorboards",https://www.domain.com.au/4-17-howson-street-brunswick-west-vic-3055-17753661
17753763,BRUNSWICK WEST,3055,480.0,2086.0,"Monday, 29 September 2025",2025-09-09,0,1.0,1,1.0,Apartment / Unit / Flat,215/358 Moreland Road,-37.75387,144.94951,2025-09-09 16:59:03,17753763,,8,0,1,False,Apartment,Apartment / Unit / Flat,Nelson Alexander | Carlton,4719,Lauren Kalenberg,"Internal Laundry, Intercom, Heating, Balcony / Deck",https://www.domain.com.au/215-358-moreland-road-brunswick-west-vic-3055-17753763
13606826,BRUNSWICK WEST,3055,730.0,3172.0,"Friday, 03 October 2025",2025-09-04,5,3.0,1,2.0,Townhouse,1A Stranks Avenue,-37.76065,144.9477,2025-09-09 16:59:09,13606826,QV-3212-ZO,11,0,0,False,Townhouse/Villa,Townhouse,Raine & Horne Brunswick Sales,5247,Jake Higgins,"Built in wardrobes, Internal Laundry, Heating, Balcony / Deck",https://www.domain.com.au/1a-stranks-avenue-brunswick-west-vic-3055-13606826
15216363,BRUNSWICK WEST,3055,450.0,1955.0,"Wednesday, 10 September 2025",2025-07-31,40,2.0,1,1.0,Apartment / Unit / Flat,14/508-510 Moreland Road,-37.75254,144.93808,2025-09-09 16:59:09,15216363,DK-6244-XU,12,0,0,True,Apartment,Apartment / Unit / Flat,Raine & Horne Brunswick Sales,5247,Sia Neveskiotis,"Internal Laundry, Heating, Air conditioning, Ensuite, Built in wardrobes",https://www.domain.com.au/14-508-510-moreland-road-brunswick-west-vic-3055-15216363
17681084,BRUNSWICK WEST,3055,475.0,2086.0,"Friday, 25 July 2025",2025-07-22,48,1.0,1,1.0,Apartment / Unit / Flat,4/1 Ferriman Street,-37.770462,144.94473,2025-09-09 16:59:09,17681084,,6,0,0,False,Apartment,Apartment / Unit / Flat,Agents'Agency Network Partners,11919,Katrina Minos,"Air conditioning, Built in wardrobes, Internal Laundry, Bath, Heating",https://www.domain.com.au/4-1-ferriman-street-brunswick-west-vic-3055-17681084
17694144,BRUNSWICK WEST,3055,1450.0,7750.0,"Friday, 08 August 2025",2025-07-31,40,6.0,3,2.0,House,23 Cornwall Street,-37.757687,144.94902,2025-09-09 16:59:09,17694144,,18,0,0,False,House,House,Jellis Craig - Brunswick,6216,"Brandon Antrim, Elliott Heslop","Split System Air Con, Split System Heating, Balcony / Deck, Built in wardrobes, Ducted Heating, Floorboards, Outdoor Entertainment Area, Swimming Pool",https://www.domain.com.au/23-cornwall-street-brunswick-west-vic-3055-17694144
17715398,BRUNSWICK WEST,3055,700.0,3041.0,"Friday, 22 August 2025",2025-08-14,26,2.0,1,1.0,House,17 Wallace Street,-37.7627,144.94577,2025-09-09 16:59:09,17715398,,7,0,0,False,House,House,Jellis Craig - Brunswick,6216,"David Johnston, Elliott Heslop","Split System Air Con, Split System Heating, Built in wardrobes, Garden / Courtyard, Outdoor Entertainment Area, Floorboards",https://www.domain.com.au/17-wallace-street-brunswick-west-vic-3055-17715398
17717150,BRUNSWICK WEST,3055,510.0,2216.0,"Monday, 18 August 2025",2025-08-15,25,2.0,1,1.0,Apartment / Unit / Flat,709/5 Olive York Way,-37.758522,144.93861,2025-09-09 16:59:09,17717150,,10,0,1,False,Apartment,Apartment / Unit / Flat,Ray White South Morang,12623,Ray White South Morang,"Built in wardrobes, Secure Parking, Heating",https://www.domain.com.au/709-5-olive-york-way-brunswick-west-vic-3055-17717150
17725848,BRUNSWICK WEST,3055,480.0,2086.0,"Thursday, 21 August 2025",2025-08-21,19,2.0,1,1.0,Apartment / Unit / Flat,6/6 McColl Court,-37.756077,144.93626,2025-09-09 16:59:09,17725848,,8,0,0,False,Apartment,Apartment / Unit / Flat,Ray White Northcote,37294,"Sophie Bilias, George Boutsiavaras","Built in wardrobes, Gas, Internal Laundry, Bath, Balcony / Deck",https://www.domain.com.au/6-6-mccoll-court-brunswick-west-vic-3055-17725848
17738871,BRUNSWICK WEST,3055,600.0,2607.0,"Friday, 05 September 2025",2025-08-29,11,2.0,2,1.0,Apartment / Unit / Flat,505/27a Peacock St,-37.756508,144.9398,2025-09-09 16:59:09,17738871,,7,0,0,False,Apartment,Apartment / Unit / Flat,Wood Property,27439,"Jade Wilson, Louisa Kelly","Heating, Air conditioning, Intercom, Balcony / Deck, Built in wardrobes, Dishwasher, Floorboards",https://www.domain.com.au/505-27a-peacock-st-brunswick-west-vic-3055-17738871
17739536,BRUNSWICK WEST,3055,600.0,2607.0,"Monday, 08 September 2025",2025-08-31,8,2.0,1,1.0,Townhouse,1/422 Brunswick Road,-37.775215,144.94347,2025-09-09 16:59:09,17739536,,10,0,0,False,Townhouse/Villa,Townhouse,For Sale By Owner,20095,For Rent (VIC),"Built in wardrobes, Internal Laundry, Intercom, Heating, Balcony / Deck",https://www.domain.com.au/1-422-brunswick-road-brunswick-west-vic-3055-17739536
17739943,BRUNSWICK WEST,3055,600.0,2607.0,"Thursday, 25 September 2025",2025-09-01,8,2.0,2,1.0,Apartment / Unit / Flat,603/1 Olive York Way,-37.758522,144.93861,2025-09-09 16:59:09,17739943,,14,0,1,False,Apartment,Apartment / Unit / Flat,Richardson & Wrench Projects Victoria,31321,Daniel Aldieri,"Gym, Intercom, Floorboards, Built in wardrobes, Dishwasher, Split System Heating, Split System Air Conditioning, Balcony, Secure Parking",https://www.domain.com.au/603-1-olive-york-way-brunswick-west-vic-3055-17739943
17742300,BRUNSWICK WEST,3055,430.0,1868.0,"Thursday, 25 September 2025",2025-09-02,7,1.0,1,1.0,Apartment / Unit / Flat,4/465 Brunswick Road,-37.775,144.9444,2025-09-09 16:59:09,17742300,,8,0,1,False,Apartment,Apartment / Unit / Flat,Barry Plant (Brunswick-Coburg),6048,Ahmed Khodr,"Built in wardrobes, Internal Laundry",https://www.domain.com.au/4-465-brunswick-road-brunswick-west-vic-3055-17742300
17742967,BRUNSWICK WEST,3055,365.0,,"Saturday, 13 September 2025",2025-09-02,7,1.0,1,1.0,Apartment / Unit / Flat,2/380 Albert Street,-37.767452,144.94919,2025-09-09 16:59:09,17742967,,6,0,0,False,Apartment,Apartment / Unit / Flat,A E Gibson & Co The Professionals Glenroy,29857,Tania Novembre,"Air conditioning, Ensuite, Laundry",https://www.domain.com.au/2-380-albert-street-brunswick-west-vic-3055-17742967
17743197,BRUNSWICK WEST,3055,1200.0,5214.0,"Friday, 05 September 2025",2025-09-02,7,3.0,3,2.0,House,3/44 Pearson Street,-37.76672,144.94981,2025-09-09 16:59:09,17743197,,20,0,0,False,House,House,Biggin & Scott Inner North,23934,Maxine Alderson,"Internal Laundry, Secure Parking, Ensuite",https://www.domain.com.au/3-44-pearson-street-brunswick-west-vic-3055-17743197
17743866,BRUNSWICK WEST,3055,550.0,2390.0,"Saturday, 27 September 2025",2025-09-02,7,2.0,1,1.0,Apartment / Unit / Flat,1/42 Cornwall Street,-37.756638,144.94958,2025-09-09 16:59:09,17743866,,9,0,0,False,Apartment,Apartment / Unit / Flat,Nelson Alexander Ivanhoe,15501,Bec Quanchi,"Built in wardrobes, Internal Laundry",https://www.domain.com.au/1-42-cornwall-street-brunswick-west-vic-3055-17743866
17744308,BRUNSWICK WEST,3055,500.0,2173.0,"Friday, 05 September 2025",2025-09-03,6,1.0,1,1.0,Apartment / Unit / Flat,5/18 Guthrie Street,-37.773315,144.94328,2025-09-09 16:59:09,17744308,,6,0,0,False,Apartment,Apartment / Unit / Flat,Agents'Agency Network Partners,11919,"Katrina Minos, Jessica Koussia","Air conditioning, Built in wardrobes, Internal Laundry, Garden / Courtyard",https://www.domain.com.au/5-18-guthrie-street-brunswick-west-vic-3055-17744308
17744743,BRUNSWICK WEST,3055,540.0,2346.0,"Friday, 05 September 2025",2025-09-03,6,2.0,1,1.0,Villa,1/11 Halpin Street,-37.768997,144.9472,2025-09-09 16:59:09,17744743,,12,0,1,False,Townhouse/Villa,Villa,Jas Stephens Real Estate,22,Alexandra Damasoliotis,"Built in wardrobes, Internal Laundry, Intercom, Bathtub, Split System Heating, Split System Air Conditioning, Courtyard, Deck, Secure Parking",https://www.domain.com.au/1-11-halpin-street-brunswick-west-vic-3055-17744743
17744750,BRUNSWICK WEST,3055,475.0,2064.0,"Tuesday, 30 September 2025",2025-09-03,6,1.0,1,1.0,Apartment / Unit / Flat,213/12 Olive York Way,-37.759346,144.9395,2025-09-09 16:59:09,17744750,,9,1,1,False,Apartment,Apartment / Unit / Flat,MRE,20795,Jivaan Carlyon,"Air conditioning, Built in wardrobes, Gas, Internal Laundry, Dishwasher, Balcony / Deck, Car Accom: Carport, Pool/Spa Count: 0",https://www.domain.com.au/213-12-olive-york-way-brunswick-west-vic-3055-17744750
17746567,BRUNSWICK WEST,3055,590.0,,"Monday, 29 September 2025",2025-09-04,5,2.0,1,1.0,Apartment / Unit / Flat,B202/12 Olive York Way,-37.759346,144.9395,2025-09-09 16:59:09,17746567,,6,1,0,False,Apartment,Apartment / Unit / Flat,MICM Real Estate,232,Ruby Singh,"Gas, Heating, Dishwasher, Air conditioning, Furnished",https://www.domain.com.au/b202-12-olive-york-way-brunswick-west-vic-3055-17746567
17748758,BRUNSWICK WEST,3055,480.0,2086.0,"Friday, 24 October 2025",2025-09-05,4,1.0,1,1.0,Villa,Unit 6/1 Larnoo Avenue,-37.764027,144.94821,2025-09-09 16:59:09,17748758,,8,0,1,False,Townhouse/Villa,Villa,RentBetter,27499,,"Bath, Air conditioning, Built in wardrobes, Garden / Courtyard, Heating, Pets Allowed",https://www.domain.com.au/unit-6-1-larnoo-avenue-brunswick-west-vic-3055-17748758
17749449,BRUNSWICK WEST,3055,670.0,2911.0,"Tuesday, 02 September 2025",2025-09-05,4,3.0,1,1.0,House,181 Melville Road,-37.75708,144.94489,2025-09-09 16:59:09,17749449,,8,0,0,False,House,House,Biggin & Scott Inner North,23934,Emily Karamoshou,"Gas, Air conditioning, Floorboards, Built in wardrobes, Separate Dining Room, Secure Parking, Ducted Heating, landscaped garden, separate laundry",https://www.domain.com.au/181-melville-road-brunswick-west-vic-3055-17749449
11092851,BRUNSWICK WEST,3055,510.0,2216.0,"Friday, 22 August 2025",2025-08-12,28,2.0,1,1.0,Apartment / Unit / Flat,6/109 Melville Road,-37.760616,144.94432,2025-09-09 16:59:14,11092851,CB-8209-BM,8,0,0,False,Apartment,Apartment / Unit / Flat,LITTLE Real Estate Victoria,24974,Cooper Modica,"Built in wardrobes, Internal Laundry, Balcony / Deck, Car Accom: Single Off-Street Parking, Heating: Reverse Cycle Air Conditioning, Cooling: Reverse Cycle Air Conditioning, Cooking: Electric Upright Stove, Pool/Spa Count: 0",https://www.domain.com.au/6-109-melville-road-brunswick-west-vic-3055-11092851
15545096,BRUNSWICK WEST,3055,400.0,1734.0,"Monday, 15 September 2025",2025-08-19,21,1.0,1,,Apartment / Unit / Flat,9/76 Heller Street,-37.774136,144.94576,2025-09-09 16:59:14,15545096,GQ-0157-BQ,6,0,0,False,Apartment,Apartment / Unit / Flat,Walshe & Whitelock Pty Ltd,29046,"Walshe and Whitelock, Matthew Zammit","Built in wardrobes, Intercom, Secure Parking, Floorboards",https://www.domain.com.au/9-76-heller-street-brunswick-west-vic-3055-15545096
15715554,BRUNSWICK WEST,3055,410.0,1782.0,"Friday, 25 July 2025",2025-07-25,46,1.0,1,1.0,Apartment / Unit / Flat,9/47 Murray Street,-37.75952,144.94095,2025-09-09 16:59:14,15715554,ZN-3764-LF,7,0,0,False,Apartment,Apartment / Unit / Flat,Biggin & Scott Inner North,23934,Jessica Karamoshou,,https://www.domain.com.au/9-47-murray-street-brunswick-west-vic-3055-15715554
15892841,BRUNSWICK WEST,3055,600.0,2607.0,"Friday, 03 October 2025",2025-08-29,11,2.0,2,1.0,Apartment / Unit / Flat,G12/5 Olive York Way,-37.758522,144.93861,2025-09-09 16:59:14,15892841,EX-3045-QO,7,0,1,False,Apartment,Apartment / Unit / Flat,LITTLE Real Estate Victoria,24974,Cooper Modica,"Built in wardrobes, Gas, Dishwasher, Heating: Reverse Cycle Air Conditioning, Cooling: Reverse Cycle Air Conditioning, Kitchen: Modern, Laundry: Euro, Pool/Spa Count: 0",https://www.domain.com.au/g12-5-olive-york-way-brunswick-west-vic-3055-15892841
16086098,BRUNSWICK WEST,3055,480.0,2080.0,"Sunday, 07 September 2025",2025-08-19,21,2.0,1,1.0,Apartment / Unit / Flat,4/2 Dalgety Street,-37.763233,144.94235,2025-09-09 16:59:14,16086098,EZ-4642-NB,6,0,0,False,Apartment,Apartment / Unit / Flat,Walshe & Whitelock Pty Ltd,29046,"Walshe and Whitelock, Matthew Zammit","Air conditioning, Built in wardrobes",https://www.domain.com.au/4-2-dalgety-street-brunswick-west-vic-3055-16086098
16101531,BRUNSWICK WEST,3055,1200.0,5200.0,"Friday, 23 September 2022",2024-07-07,429,3.0,2,2.0,Townhouse,460 Albion Street,-37.758675,144.94203,2025-09-09 16:59:14,16101531,CQ-2285-NT,15,0,2,False,Townhouse/Villa,Townhouse,RentBetter,27499,,"Internal Laundry, Air conditioning, Alarm System, Balcony / Deck, Built in wardrobes, Dishwasher, Fully fenced, Furnished, Secure Parking",https://www.domain.com.au/460-albion-street-brunswick-west-vic-3055-16101531
16471157,BRUNSWICK WEST,3055,600.0,2607.0,"Friday, 29 August 2025",2025-08-18,22,2.0,2,1.0,Apartment / Unit / Flat,G08/1 Olive York Way,-37.758255,144.9388,2025-09-09 16:59:14,16471157,,10,0,1,False,Apartment,Apartment / Unit / Flat,LITTLE Real Estate Victoria,24974,Cooper Modica,"Built in wardrobes, Gas, Internal Laundry, Dishwasher, Car Accom: Single Off-Street Parking, Heating: Reverse Cycle Air Conditioning, Cooling: Reverse Cycle Air Conditioning, Pool/Spa Count: 0",https://www.domain.com.au/g08-1-olive-york-way-brunswick-west-vic-3055-16471157
17571520,BRUNSWICK WEST,3055,495.0,2151.0,"Thursday, 15 May 2025",2025-05-13,119,2.0,1,1.0,Villa,2/9 Waxman Parade,-37.758137,144.9344,2025-09-09 16:59:14,17571520,FK-5007-ZZ,12,0,0,False,Townhouse/Villa,Villa,Maddison Estate Agents,16170,Nicole Moschini,"Gas, Internal Laundry, Courtyard, Fully fenced, Secure Parking, Built in wardrobes, Floorboards, Air conditioning, Split-System Air Conditioning, Split-System Heating",https://www.domain.com.au/2-9-waxman-parade-brunswick-west-vic-3055-17571520
17626025,BRUNSWICK WEST,3055,640.0,2781.0,"Monday, 23 June 2025",2025-06-18,83,2.0,1,3.0,House,6 Shetland Avenue,-37.756428,144.94446,2025-09-09 16:59:14,17626025,,7,0,0,False,House,House,Biggin & Scott Inner North,23934,Jessica Karamoshou,"Built in wardrobes, Internal Laundry",https://www.domain.com.au/6-shetland-avenue-brunswick-west-vic-3055-17626025
17646648,BRUNSWICK WEST,3055,895.0,3878.0,"Friday, 04 July 2025",2025-07-01,70,3.0,2,1.0,Townhouse,3/48 Murray Street,-37.75886,144.9409,2025-09-09 16:59:14,17646648,,14,0,0,False,Townhouse/Villa,Townhouse,RentBetter,27499,,"Study, Air conditioning, Alarm System, Balcony / Deck, Built in wardrobes, Dishwasher, Fully fenced, Furnished, Garden / Courtyard, Heating, Intercom, Pets Allowed, Secure Parking",https://www.domain.com.au/3-48-murray-street-brunswick-west-vic-3055-17646648
17680355,BRUNSWICK WEST,3055,550.0,2390.0,"Tuesday, 19 August 2025",2025-07-22,49,2.0,1,1.0,Apartment / Unit / Flat,302/12 Olive York Way,-37.759346,144.9395,2025-09-09 16:59:14,17680355,,10,1,1,False,Apartment,Apartment / Unit / Flat,MRE,20795,Lara Nicholson,"Air conditioning, Built in wardrobes, Gas, Internal Laundry, Dishwasher, Balcony / Deck, Car Accom: Carport, Pool/Spa Count: 0",https://www.domain.com.au/302-12-olive-york-way-brunswick-west-vic-3055-17680355
17707509,BRUNSWICK WEST,3055,550.0,2390.0,"Monday, 15 September 2025",2025-08-08,32,2.0,1,1.0,Apartment / Unit / Flat,406/12 Olive York Way,-37.759346,144.9395,2025-09-09 16:59:14,17707509,,10,1,1,False,Apartment,Apartment / Unit / Flat,MRE,20795,Yujin Park,"Air conditioning, Built in wardrobes, Gas, Internal Laundry, Dishwasher, Balcony / Deck, Car Accom: Carport, Pool/Spa Count: 0",https://www.domain.com.au/406-12-olive-york-way-brunswick-west-vic-3055-17707509
17708783,BRUNSWICK WEST,3055,475.0,2064.0,"Monday, 08 September 2025",2025-08-11,29,1.0,1,1.0,Apartment / Unit / Flat,305/12 Olive York Way,-37.759346,144.9395,2025-09-09 16:59:14,17708783,,10,0,0,False,Apartment,Apartment / Unit / Flat,MRE,20795,Lara Nicholson,"Built in wardrobes, Gas, Internal Laundry, Dishwasher, Car Accom: Carport, Pool/Spa Count: 0",https://www.domain.com.au/305-12-olive-york-way-brunswick-west-vic-3055-17708783
17709669,BRUNSWICK WEST,3055,1200.0,5214.0,"Tuesday, 05 August 2025",2025-08-11,29,4.0,4,2.0,Apartment / Unit / Flat,3 A Melville Road,-37.767216,144.94304,2025-09-09 16:59:14,17709669,,19,0,1,False,Apartment,Apartment / Unit / Flat,Kathmandu Properties,32463,"Kathmandu Properties Rental, Sharmila Ghimire","Heating, Balcony, Deck, Fully fenced, Outdoor Entertainment Area, Remote Garage, Broadband Internet Available, Built in wardrobes, Dishwasher, Floorboards, Air conditioning, Split-System Air Conditioning, Ensuite",https://www.domain.com.au/3-a-melville-road-brunswick-west-vic-3055-17709669
17718239,BRUNSWICK WEST,3055,525.0,2281.0,"Wednesday, 03 September 2025",2025-08-15,25,2.0,1,1.0,Apartment / Unit / Flat,15/80 Hopetoun Avenue,-37.752,144.93361,2025-09-09 16:59:14,17718239,,6,0,0,False,Apartment,Apartment / Unit / Flat,Nelson Alexander Brunswick,4720,Prudence Walton-Pearce,"Built in wardrobes, Gas, Internal Laundry, Secure Parking, Intercom, Heating, Dishwasher",https://www.domain.com.au/15-80-hopetoun-avenue-brunswick-west-vic-3055-17718239
17727743,BRUNSWICK WEST,3055,500.0,2173.0,"Thursday, 25 September 2025",2025-08-22,18,1.0,1,1.0,Apartment / Unit / Flat,403/12 Olive York Way,-37.759346,144.9395,2025-09-09 16:59:14,17727743,,10,0,0,False,Apartment,Apartment / Unit / Flat,MRE,20795,Jivaan Carlyon,"Air conditioning, Built in wardrobes, Gas, Internal Laundry, Dishwasher, Balcony / Deck, Car Accom: Carport, Pool/Spa Count: 0",https://www.domain.com.au/403-12-olive-york-way-brunswick-west-vic-3055-17727743
17727779,BRUNSWICK WEST,3055,395.0,1716.0,"Thursday, 18 September 2025",2025-08-22,18,1.0,1,1.0,Apartment / Unit / Flat,9/441 Brunswick Road,-37.775276,144.94669,2025-09-09 16:59:14,17727779,,5,0,0,False,Apartment,Apartment / Unit / Flat,Nelson Alexander Reservoir,30296,"Leo Maugeri, Leah Racovalis","Built in wardrobes, Gas, Internal Laundry",https://www.domain.com.au/9-441-brunswick-road-brunswick-west-vic-3055-17727779
17735388,BRUNSWICK WEST,3055,450.0,1956.0,"Monday, 25 August 2025",2025-08-27,13,1.0,1,1.0,Apartment / Unit / Flat,6/39 Heller Street,-37.77477,144.94826,2025-09-09 16:59:14,17735388,,8,0,0,False,Apartment,Apartment / Unit / Flat,Areal Property - Hawthorn,12104,Shaun Young,,https://www.domain.com.au/6-39-heller-street-brunswick-west-vic-3055-17735388
17737471,BRUNSWICK WEST,3055,600.0,2600.0,"Wednesday, 17 September 2025",2025-08-28,11,2.0,2,1.0,Apartment / Unit / Flat,513/3 Olive York Way,-37.758522,144.93861,2025-09-09 16:59:14,17737471,,19,0,1,False,Apartment,Apartment / Unit / Flat,Walshe & Whitelock Pty Ltd,29046,Joe Pollina,"Built in wardrobes, Internal Laundry, Intercom, Balcony / Deck, Air conditioning, Secure Parking, Heating",https://www.domain.com.au/513-3-olive-york-way-brunswick-west-vic-3055-17737471
17737869,BRUNSWICK WEST,3055,450.0,1955.0,"Friday, 22 August 2025",2025-08-29,11,1.0,1,1.0,Apartment / Unit / Flat,6/39 Heller Street,-37.77477,144.94826,2025-09-09 16:59:14,17737869,,8,0,0,False,Apartment,Apartment / Unit / Flat,Areal Property - Hawthorn,12104,Shaun Young,,https://www.domain.com.au/6-39-heller-street-brunswick-west-vic-3055-17737869
15207936,BRUNSWICK WEST,3055,590.0,2564.0,"Thursday, 11 July 2024",2024-06-11,455,2.0,2,1.0,Apartment / Unit / Flat,612/5 Olive York Way,-37.758522,144.93861,2025-09-09 16:59:19,15207936,VA-3215-YX,16,1,1,False,Apartment,Apartment / Unit / Flat,Richardson & Wrench Projects Victoria,31321,Angus Brayshaw,"Gym, Intercom, Floorboards, Built in wardrobes, Dishwasher, Gas Appliances, Split System Heating, Split System Air Conditioning, Outdoor Entertainment Area, Balcony, Secure Parking, Spa",https://www.domain.com.au/612-5-olive-york-way-brunswick-west-vic-3055-15207936
17396804,BRUNSWICK WEST,3055,,2303.0,"Friday, 17 January 2025",2025-01-17,235,,1,,Apartment / Unit / Flat,1/142 Melville Road,-37.759384,144.94495,2025-09-09 16:59:19,17396804,LM-7164-DF,11,1,0,False,Apartment,Apartment / Unit / Flat,Nelson Alexander Brunswick,4720,Jonathan McLeish,,https://www.domain.com.au/1-142-melville-road-brunswick-west-vic-3055-17396804
