listing_id,suburb,postcode,weekly_rent,bond,available_date,date_listed,days_listed,bedrooms,bathrooms,carspaces,property_type,address,lat,lon,scraped_date,domain_page_id,property_id,photo_count,video_count,floorplans_count,virtual_tour,primary_type,secondary_type,agency,agency_id,agent_names,structured_features,url
8659562,BURWOOD,3125,340.0,1477.0,"Wednesday, 01 October 2025",2025-09-08,1,1.0,1,,Apartment / Unit / Flat,57/390 Burwood Highway,-37.852123,145.13095,2025-09-09 16:37:33,8659562,YI-0890-WE,12,1,1,False,Apartment,Apartment / Unit / Flat,Student Housing Australia,11870,Kay Kwok,,https://www.domain.com.au/57-390-burwood-highway-burwood-vic-3125-8659562
8750241,BURWOOD,3125,335.0,1456.0,"Friday, 24 October 2025",2025-09-08,1,1.0,1,,Apartment / Unit / Flat,127/386 Burwood Highway,-37.852066,145.13045,2025-09-09 16:37:33,8750241,JJ-3325-WF,12,0,1,False,Apartment,Apartment / Unit / Flat,Student Housing Australia,11870,Kay Kwok,"Air conditioning, Gas, Furnished, Intercom, Broadband internet access, Balcony / Deck",https://www.domain.com.au/127-386-burwood-highway-burwood-vic-3125-8750241
8750261,BURWOOD,3125,335.0,1456.0,"Friday, 24 October 2025",2025-09-08,1,1.0,1,,Apartment / Unit / Flat,130/386 Burwood Highway,-37.852066,145.13045,2025-09-09 16:37:33,8750261,JD-5068-KS,12,0,1,False,Apartment,Apartment / Unit / Flat,Student Housing Australia,11870,Kay Kwok,,https://www.domain.com.au/130-386-burwood-highway-burwood-vic-3125-8750261
8750268,BURWOOD,3125,335.0,1456.0,"Tuesday, 30 September 2025",2025-09-04,5,1.0,1,,Apartment / Unit / Flat,133/386 Burwood Highway,-37.852066,145.13045,2025-09-09 16:37:33,8750268,BF-4599-VV,12,0,1,False,Apartment,Apartment / Unit / Flat,Student Housing Australia,11870,Kay Kwok,,https://www.domain.com.au/133-386-burwood-highway-burwood-vic-3125-8750268
14968759,BURWOOD,3125,785.0,,"Friday, 03 October 2025",2025-09-08,1,3.0,2,2.0,Townhouse,5/342 Burwood Highway,-37.851433,145.12474,2025-09-09 16:37:33,14968759,UO-6223-XM,6,0,0,False,Townhouse/Villa,Townhouse,Diamond Property Management,31578,James Ollaik,"Secure Parking, Balcony / Deck",https://www.domain.com.au/5-342-burwood-highway-burwood-vic-3125-14968759
15661291,BURWOOD,3125,580.0,2520.0,"Wednesday, 05 November 2025",2025-09-03,6,2.0,1,1.0,Apartment / Unit / Flat,201/8 Yarra Bing Crescent,-37.85073,145.12521,2025-09-09 16:37:33,15661291,VT-0435-CJ,10,0,0,False,Apartment,Apartment / Unit / Flat,Surreal Property Group,20747,"Linda Mitrevski, Coady Mitrevski","Air conditioning, Built in wardrobes, Secure Parking",https://www.domain.com.au/201-8-yarra-bing-crescent-burwood-vic-3125-15661291
17061870,BURWOOD,3125,530.0,2303.0,"Monday, 29 July 2024",2025-07-09,62,2.0,1,,Apartment / Unit / Flat,Rear/4 Roslyn Street,-37.84967,145.10258,2025-09-09 16:37:33,17061870,,8,0,0,False,Apartment,Apartment / Unit / Flat,First National Burwood,36821,Karis Ong,"Secure Parking, Dishwasher, Split System Heating, Split System Air Conditioning, Furnished",https://www.domain.com.au/rear-4-roslyn-street-burwood-vic-3125-17061870
17446757,BURWOOD,3125,310.0,1390.0,"Saturday, 27 September 2025",2025-08-05,35,1.0,1,,Apartment / Unit / Flat,222 Burwood Highway,-37.850143,145.11414,2025-09-09 16:37:33,17446757,RB-2917-VH,6,0,0,False,Apartment,Apartment / Unit / Flat,First National Burwood,36821,Karis Ong,"Furnished, Split System Heating, Split System Air Conditioning, Courtyard",https://www.domain.com.au/222-burwood-highway-burwood-vic-3125-17446757
17673342,BURWOOD,3125,850.0,3693.0,"Friday, 25 July 2025",2025-07-17,54,3.0,2,3.0,Townhouse,2/30 Wattlebird Court,-37.843876,145.10117,2025-09-09 16:37:33,17673342,,11,0,0,False,Townhouse/Villa,Townhouse,Buxton Camberwell,28347,"Emily Katiforis, Alex Mayne","Built in wardrobes, Garden / Courtyard, Dishwasher, Ducted Heating, Evaporative Cooling, Ensuite",https://www.domain.com.au/2-30-wattlebird-court-burwood-vic-3125-17673342
17676961,BURWOOD,3125,560.0,2433.0,"Friday, 08 August 2025",2025-08-04,36,3.0,1,2.0,House,15 Cumming Street,-37.851456,145.11363,2025-09-09 16:37:33,17676961,,12,0,0,False,House,House,Buxton Camberwell,28347,George Bezas,"Floorboards, Built in wardrobes, Gas",https://www.domain.com.au/15-cumming-street-burwood-vic-3125-17676961
17711275,BURWOOD,3125,575.0,2491.0,"Monday, 01 September 2025",2025-08-12,28,2.0,1,1.0,House,15/4 Yarra Bing Cres,-37.850815,145.12422,2025-09-09 16:37:33,17711275,,5,0,0,False,House,House,Ray White Ferntree Gully,7876,Ray White Rental Centre,"Air conditioning, Built in wardrobes, Gas, Internal Laundry, Dishwasher, Balcony / Deck",https://www.domain.com.au/15-4-yarra-bing-cres-burwood-vic-3125-17711275
17723594,BURWOOD,3125,600.0,2607.0,"Monday, 29 September 2025",2025-08-20,20,2.0,1,1.0,Townhouse,4/9 La Frank Street,-37.85306,145.12807,2025-09-09 16:37:33,17723594,,5,0,0,False,Townhouse/Villa,Townhouse,Jellis Craig Mount Waverley ,17805,"Jocelyn  Leong, Ashlynn Chew","Gas, Built in wardrobes, Garden / Courtyard, Remote Garage, Ducted Heating, Evaporative Cooling",https://www.domain.com.au/4-9-la-frank-street-burwood-vic-3125-17723594
17734590,BURWOOD,3125,600.0,2607.0,"Monday, 01 September 2025",2025-08-27,13,4.0,1,2.0,House,2/119 Station Street,-37.846554,145.1201,2025-09-09 16:37:33,17734590,,11,0,0,False,House,House,First National Burwood,36821,Karis Ong,"Secure Parking, Split System Heating, Split System Air Conditioning",https://www.domain.com.au/2-119-station-street-burwood-vic-3125-17734590
17738821,BURWOOD,3125,900.0,5710.0,"Thursday, 25 September 2025",2025-08-29,11,4.0,2,3.0,House,57 Gillard Street,-37.855125,145.11421,2025-09-09 16:37:33,17738821,,11,0,1,False,House,House,Buxton Camberwell,28347,"Emily Katiforis, Alex Mayne","Split System Air Con, Built in wardrobes, Garden / Courtyard, Dishwasher, Ducted Heating, Ensuite",https://www.domain.com.au/57-gillard-street-burwood-vic-3125-17738821
17739778,BURWOOD,3125,820.0,3563.0,"Tuesday, 30 September 2025",2025-09-01,8,4.0,2,3.0,House,18 Summit Road,-37.846973,145.12294,2025-09-09 16:37:33,17739778,,17,0,1,False,House,House,Buxton Camberwell,28347,Emily Katiforis,"Dishwasher, Ducted Heating, Built in wardrobes",https://www.domain.com.au/18-summit-road-burwood-vic-3125-17739778
17741157,BURWOOD,3125,850.0,3693.0,"Sunday, 26 October 2025",2025-09-01,8,3.0,2,1.0,House,16C Puerta Street,-37.844616,145.10493,2025-09-09 16:37:33,17741157,,6,0,0,False,House,House,Jellis Craig Mount Waverley ,17805,"Jayden Hong, Andrea How","Built in wardrobes, Gas, Intercom, Dishwasher, Remote Garage, Ducted Heating, Evaporative Cooling",https://www.domain.com.au/16c-puerta-street-burwood-vic-3125-17741157
17745433,BURWOOD,3125,700.0,3042.0,"Friday, 12 September 2025",2025-09-03,6,3.0,2,1.0,House,2/49 Parer Street,-37.846317,145.10378,2025-09-09 16:37:33,17745433,,5,0,0,False,House,House,Fletchers Canterbury,3923,Glenda Martin,,https://www.domain.com.au/2-49-parer-street-burwood-vic-3125-17745433
17748895,BURWOOD,3125,190.0,826.0,"Wednesday, 15 October 2025",2025-09-05,4,1.0,2,,House,148 Station Street,-37.844585,145.12126,2025-09-09 16:37:33,17748895,,5,0,0,False,House,House,Professionals First & Co,29341,Jing Chong,Heating,https://www.domain.com.au/148-station-street-burwood-vic-3125-17748895
17750223,BURWOOD,3125,900.0,,"Friday, 03 October 2025",2025-09-05,3,4.0,2,2.0,Townhouse,27 Uganda Street,-37.8442,145.1069,2025-09-09 16:37:33,17750223,,7,0,0,False,Townhouse/Villa,Townhouse,Mandy Lee Real Estate ,15950,Nathan Zeng,"Gas, Secure Parking",https://www.domain.com.au/27-uganda-street-burwood-vic-3125-17750223
17754192,BURWOOD,3125,580.0,2520.0,"Wednesday, 08 October 2025",2025-09-09,0,2.0,2,1.0,Apartment / Unit / Flat,3/15 Farleigh Avenue,-37.84523,145.12311,2025-09-09 16:37:33,17754192,,7,0,0,False,Apartment,Apartment / Unit / Flat,Fletchers Canterbury,3923,"Kathy Yang, Fletchers Property Management",,https://www.domain.com.au/3-15-farleigh-avenue-burwood-vic-3125-17754192
8571558,BURWOOD,3125,550.0,2390.0,"Tuesday, 12 August 2025",2025-08-12,27,2.0,1,,Apartment / Unit / Flat,107/308 Burwood Highway,-37.850994,145.12094,2025-09-09 16:37:39,8571558,,9,0,1,False,Apartment,Apartment / Unit / Flat,Student Housing Australia,11870,Kay Kwok,,https://www.domain.com.au/107-308-burwood-highway-burwood-vic-3125-8571558
8668951,BURWOOD,3125,550.0,2390.0,"Wednesday, 25 June 2025",2024-11-29,284,2.0,2,,Apartment / Unit / Flat,105/224 Burwood Highway,-37.850174,145.11441,2025-09-09 16:37:39,8668951,,11,0,1,False,Apartment,Apartment / Unit / Flat,Student Housing Australia,11870,Julianne Chun,,https://www.domain.com.au/105-224-burwood-highway-burwood-vic-3125-8668951
8669205,BURWOOD,3125,320.0,1390.0,"Thursday, 25 September 2025",2025-09-04,5,1.0,1,,Apartment / Unit / Flat,01/390 Burwood Highway,-37.852123,145.13095,2025-09-09 16:37:39,8669205,,11,1,1,False,Apartment,Apartment / Unit / Flat,Student Housing Australia,11870,Kay Kwok,"Broadband internet access, Garden / Courtyard, Furnished",https://www.domain.com.au/01-390-burwood-highway-burwood-vic-3125-8669205
15800960,BURWOOD,3125,335.0,1456.0,"Thursday, 21 August 2025",2025-08-20,20,1.0,1,,Studio,145/386 Burwood Highway,-37.852066,145.13045,2025-09-09 16:37:39,15800960,IT-9938-NY,9,0,0,False,Apartment,Studio,Biggin & Scott Box Hill,35681,"Susan Wang, Biggin Scott Box Hill Leasing Team","Air conditioning, Gas, Furnished, Intercom, Balcony / Deck",https://www.domain.com.au/145-386-burwood-highway-burwood-vic-3125-15800960
16347581,BURWOOD,3125,100.0,870.0,"Wednesday, 27 August 2025",2025-08-26,14,1.0,1,,House,32 Clanbrae Avenue,-37.84752,145.1245,2025-09-09 16:37:39,16347581,BG-4852-FV,8,0,0,False,House,House,Biggin & Scott Box Hill,35681,"Susan Wang, Biggin Scott Box Hill Leasing Team","Internal Laundry, Furnished, Heating",https://www.domain.com.au/32-clanbrae-avenue-burwood-vic-3125-16347581
17545628,BURWOOD,3125,650.0,2824.0,"Friday, 02 May 2025",2025-04-28,134,2.0,1,1.0,Townhouse,8 Tea Tree Lane,-37.858562,145.09451,2025-09-09 16:37:39,17545628,KJ-0627-BN,12,1,0,False,Townhouse/Villa,Townhouse,NDL Realty,20483,"Prince J Lakshman, JieJun Li (JJ)","Gas, Internal Laundry, Balcony, Deck, Outdoor Entertainment Area, Built in wardrobes, Dishwasher, Floorboards, Split-System Air Conditioning, Split-System Heating",https://www.domain.com.au/8-tea-tree-lane-burwood-vic-3125-17545628
17546403,BURWOOD,3125,936.0,4067.0,"Monday, 28 April 2025",2025-04-28,134,2.0,1,1.0,Townhouse,Fully furnished/9 Magnolia Walk,-37.85812,145.0948,2025-09-09 16:37:39,17546403,,10,0,1,False,Townhouse/Villa,Townhouse,Third Street Pty Ltd,38110,"Nine Elm Concierge, Lili Dhanapala","Built in wardrobes, Dishwasher, Balcony, Remote Garage, Fully fenced, Furnished",https://www.domain.com.au/fully-furnished-9-magnolia-walk-burwood-vic-3125-17546403
17623020,BURWOOD,3125,895.0,3889.0,"Monday, 16 June 2025",2025-06-16,85,4.0,3,2.0,Townhouse,2/6 Edwards Street,-37.849724,145.10135,2025-09-09 16:37:39,17623020,,8,0,0,False,Townhouse/Villa,Townhouse,Professionals First & Co,29341,"Jing Chong, Cristina Richmond","Internal Laundry, Secure Parking, Heating",https://www.domain.com.au/2-6-edwards-street-burwood-vic-3125-17623020
17637962,BURWOOD,3125,680.0,2955.0,"Sunday, 20 July 2025",2025-07-31,40,2.0,2,1.0,Apartment / Unit / Flat,12/4 Yarra Bing,-37.850815,145.12422,2025-09-09 16:37:39,17637962,,9,0,0,False,Apartment,Apartment / Unit / Flat,Dynamic Estate Group,23759,Rental Dynamic,"Internal Laundry, Intercom, Floorboards, Built in wardrobes, Dishwasher, Gas Appliances, Split System Heating, Split System Air Conditioning, Gas Hot Water, Balcony, Remote Garage, Secure Parking, Fully fenced, Furnished",https://www.domain.com.au/12-4-yarra-bing-burwood-vic-3125-17637962
17642880,BURWOOD,3125,650.0,2824.0,"Friday, 01 August 2025",2025-06-27,74,3.0,1,2.0,Townhouse,45A Meldan St,-37.843254,145.1055,2025-09-09 16:37:39,17642880,,16,0,0,False,Townhouse/Villa,Townhouse,Ray White (Box Hill),34590,"Mark Lu, Catherine Jiang","Air conditioning, Heating, Balcony / Deck",https://www.domain.com.au/45a-meldan-st-burwood-vic-3125-17642880
17664765,BURWOOD,3125,650.0,2824.0,"Sunday, 20 July 2025",2025-07-11,60,3.0,1,2.0,Apartment / Unit / Flat,1 Keogh Street,-37.855724,145.11032,2025-09-09 16:37:39,17664765,,10,0,0,False,Apartment,Apartment / Unit / Flat,Ausky Group,20742,"Ausky Real Estate, Rachel Teng",Floorboards,https://www.domain.com.au/1-keogh-street-burwood-vic-3125-17664765
17681105,BURWOOD,3125,600.0,2607.0,"Thursday, 31 July 2025",2025-07-22,48,2.0,1,1.0,Apartment / Unit / Flat,213/8 Yarra Bing Crescent,-37.85073,145.12521,2025-09-09 16:37:39,17681105,,5,0,1,False,Apartment,Apartment / Unit / Flat,RT Edgar Boroondara,3714,Nicole Woods,,https://www.domain.com.au/213-8-yarra-bing-crescent-burwood-vic-3125-17681105
17689880,BURWOOD,3125,720.0,3129.0,"Friday, 08 August 2025",2025-07-29,42,3.0,2,2.0,House,2b Coppard Street,-37.852123,145.11223,2025-09-09 16:37:39,17689880,,7,0,0,False,House,House,Barry Plant Manningham,7015,"Katerina Fountas, Anthony Viney","Air conditioning, Built in wardrobes, Gas, Dishwasher",https://www.domain.com.au/2b-coppard-street-burwood-vic-3125-17689880
17698402,BURWOOD,3125,780.0,3390.0,"Wednesday, 03 September 2025",2025-08-04,36,3.0,3,1.0,Townhouse,7/20 Hughes Street,-37.852592,145.10869,2025-09-09 16:37:39,17698402,,11,0,1,True,Townhouse/Villa,Townhouse,Megadu Real Estate,22440,Kevin Du,"Balcony, Courtyard, Outdoor Entertainment Area, Alarm System, Built in wardrobes, Dishwasher, Floorboards, Study, Air conditioning, Ducted Heating, Split-System Air Conditioning",https://www.domain.com.au/7-20-hughes-street-burwood-vic-3125-17698402
17703210,BURWOOD,3125,650.0,2825.0,"Wednesday, 06 August 2025",2025-08-06,34,3.0,2,1.0,Apartment / Unit / Flat,1/3 Newbigin Street,-37.853218,145.13115,2025-09-09 16:37:39,17703210,,13,0,0,False,Apartment,Apartment / Unit / Flat,Leaders Real Estate,18070,Daniel Chin,"Built in wardrobes, Ducted Heating, Ensuite",https://www.domain.com.au/1-3-newbigin-street-burwood-vic-3125-17703210
17707378,BURWOOD,3125,720.0,3129.0,"Friday, 19 September 2025",2025-08-08,32,4.0,2,2.0,House,7 Daniel Street,-37.84676,145.10834,2025-09-09 16:37:39,17707378,,1,0,0,False,House,House,Barry Plant Manningham,7015,"Katerina Fountas, Pamela Wilson","Built in wardrobes, Heating, Balcony / Deck",https://www.domain.com.au/7-daniel-street-burwood-vic-3125-17707378
17733574,BURWOOD,3125,600.0,2607.0,"Friday, 05 September 2025",2025-08-27,13,2.0,1,1.0,Apartment / Unit / Flat,10/2 Yarra Bing Cres,-37.850677,145.1235,2025-09-09 16:37:39,17733574,,5,0,0,False,Apartment,Apartment / Unit / Flat,Fletchers Canterbury,3923,Glenda Martin,,https://www.domain.com.au/10-2-yarra-bing-cres-burwood-vic-3125-17733574
17743924,BURWOOD,3125,695.0,3019.0,"Monday, 24 March 2025",2025-09-02,7,2.0,1,1.0,Townhouse,7 Yellow Box Lane,-37.858074,145.09468,2025-09-09 16:37:39,17743924,,10,0,1,False,Townhouse/Villa,Townhouse,Third Street Pty Ltd,38110,"Nine Elm Concierge, Lili Dhanapala","Built in wardrobes, Dishwasher, Balcony, Remote Garage, Fully fenced",https://www.domain.com.au/7-yellow-box-lane-burwood-vic-3125-17743924
17743925,BURWOOD,3125,695.0,3019.0,"Monday, 24 March 2025",2025-09-02,7,2.0,1,1.0,Townhouse,3 Magnolia Walk,-37.857914,145.09483,2025-09-09 16:37:39,17743925,,10,0,1,False,Townhouse/Villa,Townhouse,Third Street Pty Ltd,38110,"Nine Elm Concierge, Lili Dhanapala","Built in wardrobes, Dishwasher, Balcony, Remote Garage, Fully fenced",https://www.domain.com.au/3-magnolia-walk-burwood-vic-3125-17743925
17745003,BURWOOD,3125,600.0,2608.0,"Tuesday, 14 October 2025",2025-09-03,6,2.0,2,1.0,Townhouse,3/425 Warrigal Road,-37.85851,145.09436,2025-09-09 16:37:39,17745003,,9,0,0,False,Townhouse/Villa,Townhouse,MRE,20795,Millie Bowles,"Built in wardrobes, Gas, Internal Laundry, Bath, Dishwasher, Car Accom: Carport, Pool/Spa Count: 0",https://www.domain.com.au/3-425-warrigal-road-burwood-vic-3125-17745003
8431374,BURWOOD,3125,320.0,,"Tuesday, 09 December 2014",2013-06-28,4455,,1,8.0,Studio,1 Delany Avenue,-37.849426,145.11958,2025-09-09 16:37:44,8431374,,15,0,0,False,Apartment,Studio,Student Housing Australia,11870,Kay Kwok,"Balcony / Deck, Remote Garage, Broadband internet access, Furnished, Secure Parking",https://www.domain.com.au/1-delany-avenue-burwood-vic-3125-8431374
8431375,BURWOOD,3125,300.0,,"Monday, 16 March 2020",2024-03-05,553,1.0,1,20.0,Apartment / Unit / Flat,390 Burwood Highway,-37.852123,145.13095,2025-09-09 16:37:44,8431375,,16,0,0,False,Apartment,Apartment / Unit / Flat,Student Housing Australia,11870,Kay Kwok,"Heating, Air conditioning, Balcony / Deck, Broadband internet access, Garden / Courtyard, Furnished, Intercom, Remote Garage, Secure Parking",https://www.domain.com.au/390-burwood-highway-burwood-vic-3125-8431375
8431378,BURWOOD,3125,390.0,,"Friday, 13 March 2020",2021-07-20,1512,1.0,1,12.0,Apartment / Unit / Flat,224 Burwood Highway,-37.85021,145.1144,2025-09-09 16:37:44,8431378,,14,0,0,False,Apartment,Apartment / Unit / Flat,Student Housing Australia,11870,Julianne Chun,"Heating, Air conditioning, Balcony / Deck, Broadband internet access, Built in wardrobes, Garden / Courtyard, Fully fenced, Furnished, Gas, Intercom, Remote Garage, Secure Parking",https://www.domain.com.au/224-burwood-highway-burwood-vic-3125-8431378
8431379,BURWOOD,3125,,,"Tuesday, 03 January 2017",2024-08-02,403,1.0,1,11.0,Apartment / Unit / Flat,308 Burwood Highway,-37.850994,145.12094,2025-09-09 16:37:44,8431379,,15,0,0,False,Apartment,Apartment / Unit / Flat,Student Housing Australia,11870,Kay Kwok,"Balcony / Deck, Broadband internet access, Built in wardrobes, Garden / Courtyard, Fully fenced, Furnished, Remote Garage, Secure Parking",https://www.domain.com.au/308-burwood-highway-burwood-vic-3125-8431379
8431381,BURWOOD,3125,285.0,,"Friday, 01 June 2018",2022-01-27,1321,1.0,1,4.0,Apartment / Unit / Flat,216 Burwood Highway,-37.85008,145.1134,2025-09-09 16:37:44,8431381,,11,0,1,False,Apartment,Apartment / Unit / Flat,Student Housing Australia,11870,Kay Kwok,"Balcony / Deck, Garden / Courtyard, Intercom, Built in wardrobes, Furnished, Broadband internet access",https://www.domain.com.au/216-burwood-highway-burwood-vic-3125-8431381
8719577,BURWOOD,3125,330.0,,"Thursday, 03 January 2019",2013-11-26,4304,1.0,1,,Apartment / Unit / Flat,386 Burwood Highway,-37.85224,145.13055,2025-09-09 16:37:44,8719577,,17,0,0,False,Apartment,Apartment / Unit / Flat,Student Housing Australia,11870,Kay Kwok,"Air conditioning, Balcony / Deck, Broadband internet access, Furnished, Intercom, Secure Parking",https://www.domain.com.au/386-burwood-highway-burwood-vic-3125-8719577
13341488,BURWOOD,3125,425.0,,"Monday, 01 July 2019",2023-03-02,922,1.0,1,,Studio,77 Elgar Road,-37.844715,145.10951,2025-09-09 16:37:44,13341488,,12,1,2,False,Apartment,Studio,Student Housing Australia,11870,Lynn Do,"Built in wardrobes, Gas, Air conditioning, Intercom, Furnished, Study, Split System Air Con, Pool (Above Ground), Ensuite",https://www.domain.com.au/77-elgar-road-burwood-vic-3125-13341488
17198598,BURWOOD,3125,,1086.0,"Friday, 06 September 2024",2024-09-09,365,1.0,1,1.0,House,,-37.84568,145.11891,2025-09-09 16:37:44,17198598,,7,0,0,False,House,House,Professionals First & Co,29341,Jing Chong,,https://www.domain.com.au/burwood-vic-3125-17198598
17322194,BURWOOD,3125,695.0,3019.0,"Tuesday, 26 November 2024",2024-11-26,287,2.0,1,1.0,Townhouse,8 Yellow Box Lane,-37.858105,145.09468,2025-09-09 16:37:44,17322194,WT-0157-LO,17,0,0,False,Townhouse/Villa,Townhouse,Third Street Pty Ltd,38110,"Lili Dhanapala, Nine Elm Concierge","Dishwasher, Bathtub, Split System Heating, Pets Allowed",https://www.domain.com.au/8-yellow-box-lane-burwood-vic-3125-17322194
