listing_id,suburb,postcode,weekly_rent,bond,available_date,date_listed,days_listed,bedrooms,bathrooms,carspaces,property_type,address,lat,lon,scraped_date,domain_page_id,property_id,photo_count,video_count,floorplans_count,virtual_tour,primary_type,secondary_type,agency,agency_id,agent_names,structured_features,url
12515701,CARRUM,3197,850,3693,"Saturday, 30 August 2025",2025-08-25,15,5,3,2,House,13 Dahmen Street,-38.071037,145.13293,2025-09-09 16:49:33,12515701,RW-4119-TQ,9,0,1,False,House,House,Mitchell Torre Real Estate,8060,Lenny Barcham,,https://www.domain.com.au/13-dahmen-street-carrum-vic-3197-12515701
17670534,CARRUM,3197,485,2107,"Friday, 15 August 2025",2025-07-17,54,2,1,1,Apartment / Unit / Flat,2/77 Church Road,-38.08318,145.13185,2025-09-09 16:49:33,17670534,,10,0,0,False,Apartment,Apartment / Unit / Flat,Aquire,23741,Emily Dowel Aquire Leasing,"Gas, Heating, Balcony / Deck, Air conditioning, Built in wardrobes, Garden / Courtyard, Dishwasher, Floorboards, Shed",https://www.domain.com.au/2-77-church-road-carrum-vic-3197-17670534
17682615,CARRUM,3197,785,3411,"Friday, 15 August 2025",2025-07-23,48,3,2,2,Townhouse,620a Nepean Highway,-38.075047,145.12195,2025-09-09 16:49:33,17682615,,13,1,0,False,Townhouse/Villa,Townhouse,Frog Property Sales & Management,31380,Sherrie Lee,Balcony / Deck,https://www.domain.com.au/620a-nepean-highway-carrum-vic-3197-17682615
17694115,CARRUM,3197,550,2390,"Thursday, 22 June 2023",2025-07-31,40,3,1,2,Apartment / Unit / Flat,1/622 Nepean Highway,-38.075214,145.12146,2025-09-09 16:49:33,17694115,,9,0,0,False,Apartment,Apartment / Unit / Flat,Prestige Group Real Estate,21719,Sam Sofia,"Balcony, Secure Parking, Built in wardrobes, Split-System Air Conditioning, Split-System Heating",https://www.domain.com.au/1-622-nepean-highway-carrum-vic-3197-17694115
17720538,CARRUM,3197,750,3259,"Monday, 18 August 2025",2025-08-18,22,3,2,2,Townhouse,6 Greene Lane,-38.077507,145.12378,2025-09-09 16:49:33,17720538,,14,0,1,False,Townhouse/Villa,Townhouse,O'BRIEN REAL ESTATE CHELTENHAM,31194,Branko Radov,"Air conditioning, Built in wardrobes, Secure Parking, Dishwasher, Balcony / Deck",https://www.domain.com.au/6-greene-lane-carrum-vic-3197-17720538
17737010,CARRUM,3197,850,3693,"Monday, 08 September 2025",2025-08-28,12,4,2,2,House,12 Smith St,-38.07584,145.12816,2025-09-09 16:49:33,17737010,,11,0,0,False,House,House,Barry Plant Bayside,16215,Dimmy Alevizos,"Gas, Secure Parking, Bath, Fireplace(s), Heating, Dishwasher",https://www.domain.com.au/12-smith-st-carrum-vic-3197-17737010
17738440,CARRUM,3197,710,3085,"Friday, 12 September 2025",2025-08-29,11,3,2,3,Apartment / Unit / Flat,2A Rigby Street,-38.073612,145.13147,2025-09-09 16:49:33,17738440,,13,0,0,False,Apartment,Apartment / Unit / Flat,Buxton Oakleigh,18667,George Bezas,"Dishwasher, Built in wardrobes, Garden / Courtyard, Ducted Heating, Evaporative Cooling, Ensuite",https://www.domain.com.au/2a-rigby-street-carrum-vic-3197-17738440
17741040,CARRUM,3197,790,3433,"Saturday, 20 September 2025",2025-09-01,8,3,2,2,House,29 True Av,-38.07334,145.12996,2025-09-09 16:49:33,17741040,,7,0,1,False,House,House,Barry Plant Bayside,16215,Dimmy Alevizos,"Gas, Internal Laundry, Secure Parking, Bath, Heating, Balcony / Deck",https://www.domain.com.au/29-true-av-carrum-vic-3197-17741040
17742274,CARRUM,3197,660,2868,"Tuesday, 21 October 2025",2025-09-02,7,3,2,1,Townhouse,74B Valetta Street,-38.078396,145.12558,2025-09-09 16:49:33,17742274,,10,0,0,False,Townhouse/Villa,Townhouse,Buxton Chelsea,4316,Erin Dunne,"Bath, Split System Air Con, Built in wardrobes, Garden / Courtyard, Dishwasher, Ducted Heating, Remote Garage",https://www.domain.com.au/74b-valetta-street-carrum-vic-3197-17742274
