listing_id,suburb,postcode,weekly_rent,bond,available_date,date_listed,days_listed,bedrooms,bathrooms,carspaces,property_type,address,lat,lon,scraped_date,domain_page_id,property_id,photo_count,video_count,floorplans_count,virtual_tour,primary_type,secondary_type,agency,agency_id,agent_names,structured_features,url
15570789,CLAYTON,3168,260.0,1130.0,"Wednesday, 23 July 2025",2025-07-23,48,8.0,3,2.0,Townhouse,1/84 Moriah Street,-37.924507,145.13008,2025-09-09 16:46:45,15570789,EO-4385-GG,15,0,1,False,Townhouse/Villa,Townhouse,James Perry Property Group,20235,"Denis Stavropoulos, James Telios",,https://www.domain.com.au/1-84-moriah-street-clayton-vic-3168-15570789
15722081,CLAYTON,3168,650.0,2824.0,"Friday, 08 August 2025",2025-08-05,35,2.0,2,1.0,Apartment / Unit / Flat,101/9 Renver Road,-37.917835,145.14316,2025-09-09 16:46:45,15722081,BM-4300-WH,10,0,0,False,Apartment,Apartment / Unit / Flat,MATRIX GLOBAL INVESTMENT GROUP MELBOURNE PTY LTD,30850,"Kenny Wu, Tony Gao",Air conditioning,https://www.domain.com.au/101-9-renver-road-clayton-vic-3168-15722081
15951118,CLAYTON,3168,630.0,2738.0,"Thursday, 31 July 2025",2025-07-24,47,3.0,1,1.0,Townhouse,3/16 Prince Street,-37.91696,145.1245,2025-09-09 16:46:45,15951118,HV-2633-UF,7,1,0,False,Townhouse/Villa,Townhouse,Ray White Oakleigh,12122,"David Hua, Katerina Vafeas","Floorboards, Built in wardrobes, Separate Dining Room, Secure Parking",https://www.domain.com.au/3-16-prince-street-clayton-vic-3168-15951118
16865657,CLAYTON,3168,510.0,2216.0,"Monday, 06 October 2025",2025-09-09,0,2.0,1,1.0,Apartment / Unit / Flat,1/1390 North Road,-37.913147,145.11366,2025-09-09 16:46:45,16865657,VQ-2167-IS,5,0,0,False,Apartment,Apartment / Unit / Flat,Ray White Oakleigh,12122,"David Hua, David Xu","Air conditioning, Gas",https://www.domain.com.au/1-1390-north-road-clayton-vic-3168-16865657
17020769,CLAYTON,3168,530.0,,"Friday, 15 August 2025",2025-08-11,29,2.0,1,1.0,Apartment / Unit / Flat,2/72 Ormond Road,-37.925854,145.11203,2025-09-09 16:46:45,17020769,YT-5740-YX,7,0,0,False,Apartment,Apartment / Unit / Flat,Century 21 Property Group,21959,Georgia Davey,"Air conditioning, Built in wardrobes, Internal Laundry, Heating",https://www.domain.com.au/2-72-ormond-road-clayton-vic-3168-17020769
17183539,CLAYTON,3168,750.0,3250.0,"Thursday, 18 September 2025",2025-09-09,0,3.0,2,2.0,Townhouse,7 Mary Street,-37.92204,145.12138,2025-09-09 16:46:45,17183539,OX-0006-CN,12,0,0,False,Townhouse/Villa,Townhouse,For Sale By Owner,20095,For Rent (VIC),"Air conditioning, Gas, Secure Parking, Heating, Dishwasher",https://www.domain.com.au/7-mary-street-clayton-vic-3168-17183539
17491926,CLAYTON,3168,750.0,3259.0,"Monday, 14 April 2025",2025-03-20,173,3.0,2,1.0,Apartment / Unit / Flat,G04/11-13 Koonawarra Street,-37.907707,145.12498,2025-09-09 16:46:45,17491926,,10,0,0,False,Apartment,Apartment / Unit / Flat,Ray White (Judd White Group),17402,David Yang,,https://www.domain.com.au/g04-11-13-koonawarra-street-clayton-vic-3168-17491926
17667122,CLAYTON,3168,650.0,2824.0,"Tuesday, 05 August 2025",2025-07-14,57,3.0,2,1.0,Townhouse,1/4 Fortuna Street,-37.919735,145.12799,2025-09-09 16:46:45,17667122,,7,0,0,False,Townhouse/Villa,Townhouse,Buxton Oakleigh,18667,George Bezas,,https://www.domain.com.au/1-4-fortuna-street-clayton-vic-3168-17667122
17720206,CLAYTON,3168,600.0,2607.0,"Friday, 05 September 2025",2025-08-18,22,2.0,1,1.0,Apartment / Unit / Flat,3/177 Carinish Road,-37.926,145.12346,2025-09-09 16:46:45,17720206,,6,0,1,False,Apartment,Apartment / Unit / Flat,Buxton Oakleigh,18667,George Bezas,"Dishwasher, Split System Air Con, Split System Heating, Built in wardrobes",https://www.domain.com.au/3-177-carinish-road-clayton-vic-3168-17720206
17721762,CLAYTON,3168,470.0,2042.0,"Monday, 25 August 2025",2025-08-19,21,2.0,1,1.0,House,2/2 Mary Street,-37.921722,145.12192,2025-09-09 16:46:45,17721762,,6,0,0,False,House,House,Ray White Oakleigh,12122,"Dylan Reeves, Toni Antoniou","Built in wardrobes, Bath",https://www.domain.com.au/2-2-mary-street-clayton-vic-3168-17721762
17723742,CLAYTON,3168,700.0,3041.0,"Saturday, 27 September 2025",2025-08-20,20,4.0,2,1.0,House,89 Madeleine Road,-37.92153,145.11891,2025-09-09 16:46:45,17723742,,12,0,0,False,House,House,Roger Davis Real Estate,6422,Gina Kyritsis,"Split System Air Con, Split System Heating, Built in wardrobes, Dishwasher, Floorboards, Ensuite",https://www.domain.com.au/89-madeleine-road-clayton-vic-3168-17723742
17730907,CLAYTON,3168,750.0,3259.0,"Friday, 26 September 2025",2025-08-25,14,2.0,1,1.0,Apartment / Unit / Flat,4/2 Howard Court,-37.91813,145.13084,2025-09-09 16:46:45,17730907,,12,0,0,False,Apartment,Apartment / Unit / Flat,Jellis Craig Whitehorse,20157,"William Ferraro, Naomi Henderson","Gas, Internal Laundry, Broadband internet access, Air conditioning, Split System Air Con, Split System Heating, Built in wardrobes, Garden / Courtyard, Dishwasher, Floorboards, Remote Garage, Secure Parking",https://www.domain.com.au/4-2-howard-court-clayton-vic-3168-17730907
17731609,CLAYTON,3168,650.0,2824.0,"Monday, 15 September 2025",2025-08-26,14,2.0,2,1.0,Townhouse,10/47-51 Evelyn Street,-37.921673,145.13025,2025-09-09 16:46:45,17731609,,7,0,0,False,Townhouse/Villa,Townhouse,Buxton Oakleigh,18667,George Bezas,"Dishwasher, Balcony / Deck, Built in wardrobes, Ensuite",https://www.domain.com.au/10-47-51-evelyn-street-clayton-vic-3168-17731609
17742397,CLAYTON,3168,690.0,2998.0,"Tuesday, 02 September 2025",2025-09-02,7,3.0,1,3.0,House,19 Margaret Street,-37.916527,145.11392,2025-09-09 16:46:45,17742397,,9,0,0,False,House,House,Ray White Oakleigh,12122,Jason Gu,,https://www.domain.com.au/19-margaret-street-clayton-vic-3168-17742397
17744406,CLAYTON,3168,640.0,2781.0,"Monday, 08 September 2025",2025-09-03,6,3.0,1,2.0,Apartment / Unit / Flat,1/56 Ormond Road,-37.924706,145.11226,2025-09-09 16:46:45,17744406,,7,0,0,False,Apartment,Apartment / Unit / Flat,Ray White Oakleigh,12122,Jason Gu,,https://www.domain.com.au/1-56-ormond-road-clayton-vic-3168-17744406
17749720,CLAYTON,3168,580.0,2513.0,"Friday, 10 October 2025",2025-09-05,4,2.0,1,1.0,Apartment / Unit / Flat,24/1 Monash Green Drive,-37.92257,145.12827,2025-09-09 16:46:45,17749720,,9,0,0,False,Apartment,Apartment / Unit / Flat,Ray White Oakleigh,12122,"David Hua, Joel McBow",,https://www.domain.com.au/24-1-monash-green-drive-clayton-vic-3168-17749720
17750733,CLAYTON,3168,470.0,2042.0,"Wednesday, 01 October 2025",2025-09-08,1,2.0,1,1.0,Apartment / Unit / Flat,4/1452 North Road,-37.914352,145.12085,2025-09-09 16:46:45,17750733,,7,0,0,False,Apartment,Apartment / Unit / Flat,Roger Davis Real Estate,6422,Vincent Zhao,"Gas, Secure Parking, Dishwasher, Split System Air Con, Split System Heating, Built in wardrobes",https://www.domain.com.au/4-1452-north-road-clayton-vic-3168-17750733
17753195,CLAYTON,3168,600.0,2607.0,"Monday, 15 September 2025",2025-09-09,0,2.0,1,1.0,Apartment / Unit / Flat,1/3 Eva Street,-37.920746,145.11386,2025-09-09 16:46:45,17753195,,8,0,0,False,Apartment,Apartment / Unit / Flat,Ray White Oakleigh,12122,Jason Gu,,https://www.domain.com.au/1-3-eva-street-clayton-vic-3168-17753195
17754063,CLAYTON,3168,750.0,3259.0,"Tuesday, 09 September 2025",2025-09-09,0,2.0,2,1.0,Apartment / Unit / Flat,2/51 Kionga Street,-37.926758,145.13046,2025-09-09 16:46:45,17754063,,8,0,1,False,Apartment,Apartment / Unit / Flat,James Perry Property Group,20235,"Denis Stavropoulos, James Telios",,https://www.domain.com.au/2-51-kionga-street-clayton-vic-3168-17754063
17754288,CLAYTON,3168,530.0,2303.0,"Friday, 03 October 2025",2025-09-09,0,3.0,1,1.0,Apartment / Unit / Flat,1/32 Dennis Street,-37.918335,145.13838,2025-09-09 16:46:45,17754288,,1,1,0,False,Apartment,Apartment / Unit / Flat,McGrath Clayton,29763,"Kevin Ng, Eddie Aridi","Air conditioning, Built in wardrobes, Gas, Internal Laundry, Secure Parking, Bath, Close to transport, Close to shops, Close to schools",https://www.domain.com.au/1-32-dennis-street-clayton-vic-3168-17754288
12114763,CLAYTON,3168,525.0,2281.0,"Monday, 08 September 2025",2025-09-05,4,2.0,1,3.0,Townhouse,6/74 Wellington Road,-37.91663,145.13776,2025-09-09 16:46:50,12114763,XG-5888-ST,9,0,0,False,Townhouse/Villa,Townhouse,Century 21 Property Group,21959,Peter Magdalinos,,https://www.domain.com.au/6-74-wellington-road-clayton-vic-3168-12114763
17127383,CLAYTON,3168,820.0,3563.0,"Monday, 08 September 2025",2025-08-26,14,4.0,3,2.0,House,7 Browns Court,-37.916164,145.12686,2025-09-09 16:46:50,17127383,VB-0330-TH,7,0,0,False,House,House,Ray White Wantirna,16586,Elle Leonhardt,"Internal Laundry, Air conditioning, Built in wardrobes, Bath, Heating, Dishwasher, Secure Parking, Balcony / Deck",https://www.domain.com.au/7-browns-court-clayton-vic-3168-17127383
17584494,CLAYTON,3168,595.0,2585.0,"Friday, 20 June 2025",2025-07-01,70,3.0,2,1.0,Apartment / Unit / Flat,204/2-8 Murray Street,-37.918423,145.12233,2025-09-09 16:46:50,17584494,PB-3324-QM,10,0,0,False,Apartment,Apartment / Unit / Flat,Flare Real Estate,8251,"Lucy Christian, Leasing Agent","Gas, Internal Laundry, Bath, Study, Built in wardrobes, Dishwasher, Intercom, Split System Air Con, Split System Heating, Storage cage, Basement car parking, Elevator",https://www.domain.com.au/204-2-8-murray-street-clayton-vic-3168-17584494
17690542,CLAYTON,3168,630.0,2738.0,"Friday, 08 August 2025",2025-07-29,42,3.0,2,1.0,Townhouse,1/76 Wellington Road,-37.91634,145.13794,2025-09-09 16:46:50,17690542,,9,0,0,False,Townhouse/Villa,Townhouse,Ray White Wantirna,16586,Angelika Bogdanov,"Internal Laundry, Floorboards, Built in wardrobes, Bath, Heating, Study, Fully fenced",https://www.domain.com.au/1-76-wellington-road-clayton-vic-3168-17690542
17698830,CLAYTON,3168,590.0,2564.0,"Tuesday, 05 August 2025",2025-08-04,36,2.0,1,2.0,Townhouse,23D Browns Road,-37.92311,145.12724,2025-09-09 16:46:50,17698830,,8,1,0,True,Townhouse/Villa,Townhouse,Ray White Oakleigh,12122,"Matthew Swinnerton, Penny Costa","Air conditioning, Built in wardrobes, Internal Laundry, Bath, Heating, Dishwasher, Secure Parking, Garden / Courtyard",https://www.domain.com.au/23d-browns-road-clayton-vic-3168-17698830
17705441,CLAYTON,3168,820.0,3563.0,"Friday, 29 August 2025",2025-08-07,33,4.0,3,2.0,Townhouse,8/47-51 Evelyn Street,-37.921585,145.12994,2025-09-09 16:46:50,17705441,,7,1,0,False,Townhouse/Villa,Townhouse,Buxton Oakleigh,18667,George Bezas,"Dishwasher, Built in wardrobes, Ensuite",https://www.domain.com.au/8-47-51-evelyn-street-clayton-vic-3168-17705441
17709805,CLAYTON,3168,650.0,2824.0,"Thursday, 28 August 2025",2025-08-11,29,1.0,1,1.0,Apartment / Unit / Flat,13/2 Howard Court,-37.91812,145.13086,2025-09-09 16:46:50,17709805,,6,0,0,False,Apartment,Apartment / Unit / Flat,Jellis Craig Whitehorse,20157,"William Ferraro, Naomi Henderson","Gas, Internal Laundry, Broadband internet access, Dishwasher, Air conditioning, Split System Heating, Split System Air Con, Built in wardrobes, Secure Parking",https://www.domain.com.au/13-2-howard-court-clayton-vic-3168-17709805
17711110,CLAYTON,3168,500.0,2173.0,"Friday, 19 September 2025",2025-08-12,28,1.0,1,1.0,Apartment / Unit / Flat,G01/660 Blackburn Road,-37.905273,145.1427,2025-09-09 16:46:50,17711110,,8,0,2,False,Apartment,Apartment / Unit / Flat,Jellis Craig Mount Waverley ,17805,"Jocelyn  Leong, Ashlynn Chew","Internal Laundry, Secure Parking, Intercom, Dishwasher, Study, Balcony / Deck, Reverse Cycle Air Con",https://www.domain.com.au/g01-660-blackburn-road-clayton-vic-3168-17711110
17714352,CLAYTON,3168,860.0,3737.0,"Friday, 12 September 2025",2025-08-13,26,4.0,3,2.0,Townhouse,1/70 Alice Street,-37.918472,145.11867,2025-09-09 16:46:50,17714352,,8,0,0,False,Townhouse/Villa,Townhouse,First National Burwood,36821,John Zhang,"Ducted Heating, Evaporative Cooling, Furnished",https://www.domain.com.au/1-70-alice-street-clayton-vic-3168-17714352
17714523,CLAYTON,3168,600.0,2607.0,"Tuesday, 09 September 2025",2025-08-13,26,3.0,1,1.0,Townhouse,8/10-12 Murray Street,-37.918633,145.12247,2025-09-09 16:46:50,17714523,,16,1,0,False,Townhouse/Villa,Townhouse,Dynamic Estate Group,23759,Rental Dynamic,"Floorboards, Cable or Satellite, Built in wardrobes, Dishwasher, Gas Appliances, Gas Hot Water, Courtyard, Secure Parking, Fully fenced",https://www.domain.com.au/8-10-12-murray-street-clayton-vic-3168-17714523
17715303,CLAYTON,3168,580.0,2520.0,"Friday, 29 August 2025",2025-08-14,26,2.0,2,1.0,Apartment / Unit / Flat,109/11 Renver Road,-37.917835,145.14316,2025-09-09 16:46:50,17715303,,11,0,0,False,Apartment,Apartment / Unit / Flat,Ray White Blackburn,4665,Narelle Poloso,"Air conditioning, Built in wardrobes, Balcony / Deck",https://www.domain.com.au/109-11-renver-road-clayton-vic-3168-17715303
17716250,CLAYTON,3168,650.0,2824.0,"Friday, 15 August 2025",2025-08-14,25,3.0,1,2.0,House,41 Jaguar Drive,-37.926277,145.13167,2025-09-09 16:46:50,17716250,,12,0,0,False,House,House,Century 21 Property Group,21959,Kosta Poulellis,"Gas, Heating, Dishwasher, Air conditioning",https://www.domain.com.au/41-jaguar-drive-clayton-vic-3168-17716250
17731388,CLAYTON,3168,410.0,1782.0,"Friday, 26 September 2025",2025-08-26,14,1.0,1,1.0,House,12/10 Arnott Street,-37.916946,145.13504,2025-09-09 16:46:50,17731388,,5,0,0,False,House,House,Biggin Scott Glen Waverley,24636,"Leasing Team, Alex Kostoglou","Internal Laundry, Heating",https://www.domain.com.au/12-10-arnott-street-clayton-vic-3168-17731388
17738182,CLAYTON,3168,600.0,2607.0,"Monday, 22 September 2025",2025-08-29,11,3.0,1,1.0,Townhouse,3/1474-1478 North Road,-37.914333,145.12328,2025-09-09 16:46:50,17738182,,10,0,0,False,Townhouse/Villa,Townhouse,Dynamic Estate Group,23759,Rental Dynamic,"Built in wardrobes, Secure Parking, Heating",https://www.domain.com.au/3-1474-1478-north-road-clayton-vic-3168-17738182
17742442,CLAYTON,3168,310.0,1347.0,"Monday, 01 September 2025",2025-09-02,7,1.0,1,,Apartment / Unit / Flat,5 Beddoe Avenue,-37.907627,145.1282,2025-09-09 16:46:50,17742442,,11,0,0,False,Apartment,Apartment / Unit / Flat,Jellis Craig Mount Waverley ,17805,"Tiffany Pan, Jayden Hong","Gas, Internal Laundry, Broadband internet access, Split System Air Con, Split System Heating, Built in wardrobes",https://www.domain.com.au/5-beddoe-avenue-clayton-vic-3168-17742442
17742669,CLAYTON,3168,330.0,1320.0,"Tuesday, 16 September 2025",2025-09-02,7,1.0,1,,Studio,8 Atlantic Street,-37.91815,145.12866,2025-09-09 16:46:50,17742669,,17,0,0,True,Apartment,Studio,The Hopkins Group,17841,,Air conditioning,https://www.domain.com.au/8-atlantic-street-clayton-vic-3168-17742669
17743173,CLAYTON,3168,800.0,3476.0,"Tuesday, 02 September 2025",2025-09-02,7,4.0,1,3.0,House,1A McBean Street,-37.923393,145.10893,2025-09-09 16:46:50,17743173,,11,0,0,False,House,House,McGrath Clayton,29763,"Albien Vergara, Pisey Kim","Internal Laundry, Bath, Fireplace(s), Heating, Dishwasher, Close to transport, Close to shops, Close to schools",https://www.domain.com.au/1a-mcbean-street-clayton-vic-3168-17743173
17743723,CLAYTON,3168,550.0,2390.0,"Tuesday, 07 October 2025",2025-09-02,7,2.0,1,1.0,Apartment / Unit / Flat,2/23 McMillan Street,-37.914547,145.12749,2025-09-09 16:46:50,17743723,,3,1,0,False,Apartment,Apartment / Unit / Flat,McGrath Clayton,29763,"Virlia Sandra, Pisey Kim","Built in wardrobes, Gas, Internal Laundry, Bath, Dishwasher, Close to transport, Close to shops, Close to schools",https://www.domain.com.au/2-23-mcmillan-street-clayton-vic-3168-17743723
17747621,CLAYTON,3168,380.0,1651.0,"Thursday, 04 September 2025",2025-09-04,5,1.0,1,1.0,Apartment / Unit / Flat,4/10-12 Florence Ave,-37.906666,145.12703,2025-09-09 16:46:50,17747621,,15,0,0,False,Apartment,Apartment / Unit / Flat,Prime Property Partners Australia,2231,Inna Glowinski,"Air conditioning, Ensuite, Built in wardrobes, Furnished, Internal Laundry, Gas, Heating, Wall / ceiling insulation, Shed, Garden / Courtyard",https://www.domain.com.au/4-10-12-florence-ave-clayton-vic-3168-17747621
17748786,CLAYTON,3168,595.0,2585.0,"Saturday, 06 September 2025",2025-09-05,4,3.0,1,3.0,House,190 Clayton Road,-37.916267,145.12178,2025-09-09 16:46:50,17748786,,6,0,0,False,House,House,ZERVAS AND CO REAL ESTATE AGENTS,20657,Max Mai,Gas,https://www.domain.com.au/190-clayton-road-clayton-vic-3168-17748786
15435899,CLAYTON,3168,790.0,3433.0,"Wednesday, 27 August 2025",2025-08-27,13,4.0,2,2.0,Apartment / Unit / Flat,2/25 Lillian Street,-37.920734,145.11826,2025-09-09 16:46:56,15435899,QF-6128-ST,10,1,0,False,Apartment,Apartment / Unit / Flat,Ray White Oakleigh,12122,"David Hua, Rachel Clements","Air conditioning, Ensuite, Built in wardrobes, Internal Laundry, Bath, Separate Dining Room, Heating, Dishwasher, Secure Parking, Garden / Courtyard",https://www.domain.com.au/2-25-lillian-street-clayton-vic-3168-15435899
15725907,CLAYTON,3168,1100.0,,"Monday, 23 February 2026",2022-02-15,1302,3.0,3,1.0,Townhouse,THF3.3/29 Browns Road,-37.924232,145.12871,2025-09-09 16:46:56,15725907,,1,0,0,False,Townhouse/Villa,Townhouse,AUSTRALIAN PROPERTY MANAGEMENT ALLIANCE,26052,Wing Property for Eastwood Monash,"Air conditioning, Built in wardrobes, Dishwasher, Gas Stove, Intercom, Secure Parking, Separate Laundry, Study, Alarm System, Heating, Furnished",https://www.domain.com.au/thf3-3-29-browns-road-clayton-vic-3168-15725907
16052468,CLAYTON,3168,880.0,3824.0,"Tuesday, 23 September 2025",2025-08-29,11,4.0,2,2.0,House,1/29-31 Morton Street,-37.916992,145.13821,2025-09-09 16:46:56,16052468,TL-0702-XS,9,0,0,False,House,House,Xynergy Realty Oakleigh,26633,Parker Wang,Dishwasher,https://www.domain.com.au/1-29-31-morton-street-clayton-vic-3168-16052468
16167468,CLAYTON,3168,750.0,,"Thursday, 09 October 2025",2022-11-04,1040,2.0,2,1.0,New Apartments / Off the Plan,APF2.2/29 Browns Road,-37.922047,145.12701,2025-09-09 16:46:56,16167468,,11,0,0,False,New Developments,New Apartments / Off the Plan,AUSTRALIAN PROPERTY MANAGEMENT ALLIANCE,26052,Wing Property for Eastwood Monash,"Air conditioning, Dishwasher, Gas Stove, Intercom, Secure Parking, Separate Laundry, Alarm System, Heating, Furnished",https://www.domain.com.au/apf2-2-29-browns-road-clayton-vic-3168-16167468
16494052,CLAYTON,3168,850.0,3693.0,"Wednesday, 27 August 2025",2025-07-29,42,4.0,3,2.0,Townhouse,3/1 Auguste Avenue,-37.905163,145.12761,2025-09-09 16:46:56,16494052,ZW-0421-HI,13,0,1,False,Townhouse/Villa,Townhouse,Xynergy Realty Oakleigh,26633,Parker Wang,"Built in wardrobes, Dishwasher, Gas Appliances, Split System Heating, Split System Air Conditioning, Outdoor Entertainment Area, Balcony, Courtyard, Remote Garage, Secure Parking, Shed",https://www.domain.com.au/3-1-auguste-avenue-clayton-vic-3168-16494052
17010654,CLAYTON,3168,640.0,,"Saturday, 13 September 2025",2025-08-25,15,3.0,1,1.0,Apartment / Unit / Flat,2/46 Jaguar Drive,-37.92631,145.1324,2025-09-09 16:46:56,17010654,XO-7926-CY,11,0,1,False,Apartment,Apartment / Unit / Flat,Diamond Property Management,31578,James Ollaik,"Built in wardrobes, Internal Laundry, Secure Parking, Heating",https://www.domain.com.au/2-46-jaguar-drive-clayton-vic-3168-17010654
17047841,CLAYTON,3168,530.0,,"Friday, 22 August 2025",2025-08-22,17,2.0,1,1.0,Apartment / Unit / Flat,G07/40 Bettina Street,-37.919384,145.13928,2025-09-09 16:46:56,17047841,,2,0,0,False,Apartment,Apartment / Unit / Flat,Ausfortune Property,31919,"John chen, Oscar Lei","Gas, Secure Parking, Heating, Dishwasher, Balcony / Deck",https://www.domain.com.au/g07-40-bettina-street-clayton-vic-3168-17047841
17165407,CLAYTON,3168,820.0,3563.0,"Wednesday, 24 September 2025",2025-08-22,18,4.0,2,2.0,Apartment / Unit / Flat,2/5 Morton Street,-37.916523,145.136,2025-09-09 16:46:56,17165407,VR-0909-OY,10,0,1,False,Apartment,Apartment / Unit / Flat,Barry Plant (Waverley),18349,Suzanna Boyes 수잔나,"Internal Laundry, Secure Parking, Heating",https://www.domain.com.au/2-5-morton-street-clayton-vic-3168-17165407
17724099,CLAYTON,3168,1100.0,6600.0,"Monday, 01 September 2025",2025-08-20,20,4.0,3,2.0,Townhouse,37A Prince Charles Street,-37.924187,145.1142,2025-09-09 16:46:56,17724099,,11,0,0,False,Townhouse/Villa,Townhouse,Jellis Craig Mentone & Chelsea,23619,Tania Souki,"Study, Balcony / Deck, Dishwasher, Ducted Cooling, Ducted Heating, Remote Garage",https://www.domain.com.au/37a-prince-charles-street-clayton-vic-3168-17724099
17730038,CLAYTON,3168,610.0,2651.0,"Friday, 29 August 2025",2025-08-25,15,2.0,1,1.0,Apartment / Unit / Flat,102/11-13 Koonawarra Street,-37.907696,145.12505,2025-09-09 16:46:56,17730038,,9,0,0,False,Apartment,Apartment / Unit / Flat,Ray White (Judd White Group),17402,Karen Zhang,"Gas, Internal Laundry, Broadband internet access, Heating, Balcony / Deck",https://www.domain.com.au/102-11-13-koonawarra-street-clayton-vic-3168-17730038
17730571,CLAYTON,3168,850.0,3693.0,"Saturday, 06 September 2025",2025-08-25,15,4.0,2,2.0,Townhouse,2/14 Panorama Street,-37.918392,145.13008,2025-09-09 16:46:56,17730571,,6,0,0,False,Townhouse/Villa,Townhouse,McGrath Croydon,16084,Dawn Juhlin,"Gas, Air conditioning, Heating, Built in wardrobes, Close to transport, Close to shops, Pets Allowed, Close to schools, Ensuite, City Views, Car Parking - Surface, Carpeted, Creative, Exhaust, High Clearance, Toilet Facilities",https://www.domain.com.au/2-14-panorama-street-clayton-vic-3168-17730571
17730936,CLAYTON,3168,560.0,2433.0,"Friday, 29 August 2025",2025-08-25,14,2.0,1,2.0,Apartment / Unit / Flat,1/194 Clayton Road,-37.916504,145.12161,2025-09-09 16:46:56,17730936,,9,1,0,False,Apartment,Apartment / Unit / Flat,ZERVAS AND CO REAL ESTATE AGENTS,20657,"Chris Zervas, Max Mai","Gas, Internal Laundry, Floorboards",https://www.domain.com.au/1-194-clayton-road-clayton-vic-3168-17730936
17733450,CLAYTON,3168,570.0,2477.0,"Wednesday, 24 September 2025",2025-08-27,13,2.0,1,1.0,Apartment / Unit / Flat,15/28 Burton Avenue,-37.925762,145.11804,2025-09-09 16:46:56,17733450,,6,0,0,False,Apartment,Apartment / Unit / Flat,McGrath Clayton,29763,Jacina Zarb,"Built in wardrobes, Gas, Internal Laundry, Balcony / Deck, Close to transport, Close to shops, Close to schools",https://www.domain.com.au/15-28-burton-avenue-clayton-vic-3168-17733450
17733999,CLAYTON,3168,850.0,3693.0,"Wednesday, 27 August 2025",2025-08-27,13,3.0,2,2.0,Apartment / Unit / Flat,1018/2 Connam Avenue,-37.92201,145.14003,2025-09-09 16:46:56,17733999,,14,0,0,False,Apartment,Apartment / Unit / Flat,Le & Co Estate Agents,30140,Le & Co Rentals,Swimming Pool,https://www.domain.com.au/1018-2-connam-avenue-clayton-vic-3168-17733999
17734403,CLAYTON,3168,350.0,1521.0,"Friday, 03 October 2025",2025-08-27,13,1.0,1,,Studio,1/108 (Room 8) Wellington Road,-37.916813,145.14186,2025-09-09 16:46:56,17734403,,11,0,0,False,Apartment,Studio,Thomas Wong Real Estate,18749,Thomas Wong,"Gas, Internal Laundry, Courtyard, Fully fenced, Broadband Internet Available, Built in wardrobes, Floorboards, Ducted Heating, Ensuite, Furnished",https://www.domain.com.au/1-108-room-8-wellington-road-clayton-vic-3168-17734403
17737561,CLAYTON,3168,700.0,3042.0,"Friday, 05 September 2025",2025-08-28,11,2.0,2,1.0,House,104/6-8 Belmont Ave,-37.928066,145.12115,2025-09-09 16:46:56,17737561,,14,0,1,False,House,House,Area Specialist Dynamic,38901,Siena Andrit,"Air conditioning, Built in wardrobes, Gas, Internal Laundry, Dishwasher, Balcony / Deck",https://www.domain.com.au/104-6-8-belmont-ave-clayton-vic-3168-17737561
17739860,CLAYTON,3168,650.0,2824.0,"Tuesday, 16 September 2025",2025-09-01,8,3.0,2,1.0,Apartment / Unit / Flat,2/7 Dennis Street,-37.9175,145.13602,2025-09-09 16:46:56,17739860,,10,0,0,False,Apartment,Apartment / Unit / Flat,McGrath Clayton,29763,"Virlia Sandra, Pisey Kim","Built in wardrobes, Internal Laundry, Secure Parking, Heating, Close to transport, Close to shops, Close to schools",https://www.domain.com.au/2-7-dennis-street-clayton-vic-3168-17739860
17740832,CLAYTON,3168,730.0,3172.0,"Monday, 01 September 2025",2025-09-01,8,2.0,2,,Apartment / Unit / Flat,405/2 Connam Avenue,-37.92201,145.14003,2025-09-09 16:46:56,17740832,,13,0,1,False,Apartment,Apartment / Unit / Flat,Melcorp Real Estate,11842,Anna Theo,"Built in wardrobes, Gas, Intercom, Heating, Dishwasher",https://www.domain.com.au/405-2-connam-avenue-clayton-vic-3168-17740832
17741384,CLAYTON,3168,480.0,2085.0,"Saturday, 02 August 2025",2025-09-01,8,2.0,1,2.0,Apartment / Unit / Flat,1/1768 Dandenong Road,-37.91593,145.12885,2025-09-09 16:46:56,17741384,,6,0,0,False,Apartment,Apartment / Unit / Flat,ZERVAS AND CO REAL ESTATE AGENTS,20657,"Dianne Wilson, Max Mai","Air conditioning, Built in wardrobes",https://www.domain.com.au/1-1768-dandenong-road-clayton-vic-3168-17741384
17741977,CLAYTON,3168,800.0,3476.0,"Monday, 01 September 2025",2025-09-01,7,2.0,2,,Apartment / Unit / Flat,1008/864 Blackburn Road,-37.92201,145.14003,2025-09-09 16:46:56,17741977,,13,0,1,False,Apartment,Apartment / Unit / Flat,Melcorp Real Estate,11842,Rita Gong,"Built in wardrobes, Internal Laundry, Heating, Air conditioning, Area Views, Close to shops, Tennis Court, Swimming Pool, Intercom, Close to schools, Furnished, Balcony, Dishwasher, Gym",https://www.domain.com.au/1008-864-blackburn-road-clayton-vic-3168-17741977
15357975,CLAYTON,3168,540.0,2347.0,"Wednesday, 27 August 2025",2021-08-31,1469,1.0,1,1.0,Apartment / Unit / Flat,A205/29 Browns Road,-37.92427,145.12746,2025-09-09 16:47:01,15357975,,10,1,0,False,Apartment,Apartment / Unit / Flat,BRW Group,34868,"Janever Lee, BRW Leasing",,https://www.domain.com.au/a205-29-browns-road-clayton-vic-3168-15357975
16036186,CLAYTON,3168,750.0,,"Sunday, 01 February 2026",2022-08-12,1124,2.0,2,1.0,New Apartments / Off the Plan,AP2.2/29 Browns Road,-37.922047,145.12701,2025-09-09 16:47:01,16036186,,1,0,0,False,New Developments,New Apartments / Off the Plan,AUSTRALIAN PROPERTY MANAGEMENT ALLIANCE,26052,Wing Property for Eastwood Monash,"Air conditioning, Balcony, Built in wardrobes, Dishwasher, Gas Stove, Intercom, Secure Parking, Separate Laundry, Floorboards, Alarm System, Heating",https://www.domain.com.au/ap2-2-29-browns-road-clayton-vic-3168-16036186
17142508,CLAYTON,3168,880.0,3824.0,"Wednesday, 17 September 2025",2025-08-13,27,4.0,2,2.0,Townhouse,2/74 Harlington Street,-37.92614,145.11111,2025-09-09 16:47:01,17142508,ZC-7768-EN,11,0,0,False,Townhouse/Villa,Townhouse,APG ESTATE,30107,"Ming Lin, Alisha Yang","Gas, Internal Laundry, Built in wardrobes, Dishwasher, Bathtub, Split System Heating, Split System Air Conditioning, Ensuite(s), Remote Garage, Furnished",https://www.domain.com.au/2-74-harlington-street-clayton-vic-3168-17142508
17225758,CLAYTON,3168,650.0,,"Sunday, 01 February 2026",2024-09-26,348,1.0,1,1.0,New Apartments / Off the Plan,APF1.1 29 Browns Road,-37.924232,145.12871,2025-09-09 16:47:01,17225758,,1,0,0,False,New Developments,New Apartments / Off the Plan,AUSTRALIAN PROPERTY MANAGEMENT ALLIANCE,26052,Wing Property for Eastwood Monash,"Air conditioning, Balcony, Built in wardrobes, Dishwasher, Gas Stove, Intercom, Secure Parking, Separate Laundry, Alarm System, Heating, Furnished",https://www.domain.com.au/apf1-1-29-browns-road-clayton-vic-3168-17225758
17294234,CLAYTON,3168,1000.0,,"Monday, 23 February 2026",2024-11-09,303,3.0,3,1.0,Townhouse,TH3.3/29 Browns Road,-37.924232,145.12871,2025-09-09 16:47:01,17294234,,1,0,0,False,Townhouse/Villa,Townhouse,AUSTRALIAN PROPERTY MANAGEMENT ALLIANCE,26052,Wing Property for Eastwood Monash,"Air conditioning, Balcony, Built in wardrobes, Dishwasher, Gas Stove, Intercom, Secure Parking, Separate Laundry, Alarm System, Heating, Furnished",https://www.domain.com.au/th3-3-29-browns-road-clayton-vic-3168-17294234
17306804,CLAYTON,3168,800.0,,"Sunday, 01 February 2026",2024-11-17,295,2.0,2,1.0,Apartment / Unit / Flat,APF2.2/29 Browns Road,-37.922047,145.12701,2025-09-09 16:47:01,17306804,,1,0,0,False,Apartment,Apartment / Unit / Flat,AUSTRALIAN PROPERTY MANAGEMENT ALLIANCE,26052,Wing Property for Eastwood Monash,"Air conditioning, Heating, Balcony, Built in wardrobes, Dishwasher, Gas Stove, Intercom, Secure Parking, Separate Laundry, Study, Alarm System, Furnished",https://www.domain.com.au/apf2-2-29-browns-road-clayton-vic-3168-17306804
17651756,CLAYTON,3168,295.0,1282.0,"Tuesday, 29 July 2025",2025-07-03,68,1.0,1,,Apartment / Unit / Flat,1/56 Panorama Street,-37.921753,145.12944,2025-09-09 16:47:01,17651756,,5,0,0,False,Apartment,Apartment / Unit / Flat,McGrath Clayton,29763,Sho Hai Mai,"Gas, Internal Laundry, Heating, Close to transport, Close to shops, Close to schools, Furnished",https://www.domain.com.au/1-56-panorama-street-clayton-vic-3168-17651756
17697177,CLAYTON,3168,270.0,1260.0,"Tuesday, 11 February 2025",2025-08-01,39,1.0,3,,Studio,41 Koonawarra Street,-37.910122,145.1245,2025-09-09 16:47:01,17697177,,8,0,0,False,Apartment,Studio,ZERVAS AND CO REAL ESTATE AGENTS,20657,Max Mai,"Heating, Built in wardrobes, Furnished, Broadband Internet Available, Dishwasher, Floorboards",https://www.domain.com.au/41-koonawarra-street-clayton-vic-3168-17697177
17700219,CLAYTON,3168,450.0,1955.0,"Wednesday, 01 October 2025",2025-08-05,35,1.0,1,,New Apartments / Off the Plan,1/1931 Dandenong Road,-37.911896,145.1241,2025-09-09 16:47:01,17700219,,1,0,0,False,New Developments,New Apartments / Off the Plan,Student Housing Australia,11870,Lynn Do,Ensuite,https://www.domain.com.au/1-1931-dandenong-road-clayton-vic-3168-17700219
17700272,CLAYTON,3168,570.0,2477.0,"Tuesday, 05 August 2025",2025-08-05,35,2.0,1,1.0,Apartment / Unit / Flat,202/4 Nicholson Court,-37.924614,145.11888,2025-09-09 16:47:01,17700272,,10,0,0,False,Apartment,Apartment / Unit / Flat,McGrath Clayton,29763,Albien Vergara,"Built in wardrobes, Balcony / Deck, Close to transport, Close to shops, Close to schools",https://www.domain.com.au/202-4-nicholson-court-clayton-vic-3168-17700272
17701598,CLAYTON,3168,650.0,2824.0,"Tuesday, 09 September 2025",2025-08-05,35,4.0,1,1.0,Apartment / Unit / Flat,1/1484 North Road,-37.914433,145.12411,2025-09-09 16:47:01,17701598,,10,0,0,False,Apartment,Apartment / Unit / Flat,Jellis Craig Doncaster,18680,"Tina Dekas, Kate Rolfe","Built in wardrobes, Garden / Courtyard, Outdoor Entertainment Area, Ducted Heating, Secure Parking",https://www.domain.com.au/1-1484-north-road-clayton-vic-3168-17701598
17710285,CLAYTON,3168,730.0,3172.0,"Wednesday, 27 August 2025",2025-08-11,28,4.0,2,4.0,House,56 Harlington Street,-37.92439,145.11128,2025-09-09 16:47:01,17710285,,15,0,1,False,House,House,Area Specialist Keysborough,31225,Property Management,,https://www.domain.com.au/56-harlington-street-clayton-vic-3168-17710285
17711434,CLAYTON,3168,730.0,3172.0,"Monday, 01 September 2025",2025-08-12,28,2.0,2,1.0,Apartment / Unit / Flat,624/864 Blackburn Road,-37.92201,145.14003,2025-09-09 16:47:01,17711434,,15,0,0,False,Apartment,Apartment / Unit / Flat,JWC Property Group,32932,Billy Soe,"Built in wardrobes, Secure Parking, Heating, Balcony / Deck",https://www.domain.com.au/624-864-blackburn-road-clayton-vic-3168-17711434
17714835,CLAYTON,3168,360.0,1608.0,"Saturday, 08 February 2025",2025-08-14,26,1.0,1,,Townhouse,1A&B/196 Clayton Road,-37.91671,145.12189,2025-09-09 16:47:01,17714835,,12,0,0,False,Townhouse/Villa,Townhouse,ZERVAS AND CO REAL ESTATE AGENTS,20657,Max Mai,"Internal Laundry, Air conditioning, Built in wardrobes, Furnished, Broadband Internet Available, Courtyard, Dishwasher, Floorboards",https://www.domain.com.au/1a-b-196-clayton-road-clayton-vic-3168-17714835
17715171,CLAYTON,3168,320.0,1390.0,"Friday, 29 August 2025",2025-08-14,26,1.0,1,,Apartment / Unit / Flat,113/1728 Dandenong Road,-37.913006,145.12427,2025-09-09 16:47:01,17715171,,1,0,0,False,Apartment,Apartment / Unit / Flat,McGrath Clayton,29763,"Ben Hoo, Pisey Kim","Gas, Furnished, Heating, Close to transport, Close to shops, Close to schools",https://www.domain.com.au/113-1728-dandenong-road-clayton-vic-3168-17715171
17716254,CLAYTON,3168,840.0,3737.0,"Monday, 11 August 2025",2025-08-14,26,4.0,2,2.0,Townhouse,2/60 Edinburgh Street,-37.916145,145.11674,2025-09-09 16:47:01,17716254,,6,1,0,False,Townhouse/Villa,Townhouse,ZERVAS AND CO REAL ESTATE AGENTS,20657,"Chris Zervas, Max Mai","Internal Laundry, Heating, Dishwasher",https://www.domain.com.au/2-60-edinburgh-street-clayton-vic-3168-17716254
17719241,CLAYTON,3168,600.0,2607.0,"Thursday, 21 August 2025",2025-08-18,22,3.0,1,1.0,Apartment / Unit / Flat,2/57 Eva Street,-37.92449,145.1128,2025-09-09 16:47:01,17719241,,4,0,0,False,Apartment,Apartment / Unit / Flat,Professionals First & Co,29341,"Jing Chong, William Zhao",,https://www.domain.com.au/2-57-eva-street-clayton-vic-3168-17719241
17720824,CLAYTON,3168,260.0,1040.0,"Thursday, 21 August 2025",2025-08-18,21,1.0,2,1.0,Studio,33 Dennis Street,-37.91796,145.13843,2025-09-09 16:47:01,17720824,,10,0,0,False,Apartment,Studio,The Hopkins Group,17841,Michelle Grech,"Heating, Close to transport, Close to schools, Furnished, Openable Windows, Security System, Floorboards",https://www.domain.com.au/33-dennis-street-clayton-vic-3168-17720824
17723137,CLAYTON,3168,730.0,3172.0,"Tuesday, 19 August 2025",2025-08-20,20,2.0,2,1.0,Apartment / Unit / Flat,412/2 Connam Avenue,-37.92201,145.14003,2025-09-09 16:47:01,17723137,,13,0,1,False,Apartment,Apartment / Unit / Flat,Melcorp Real Estate,11842,Anna Theo,"Gas, Dishwasher, Air conditioning, Heating, Built in wardrobes, Close to transport, Close to shops, Alarm System, Swimming Pool, Intercom, Close to schools, Ensuite, Security Access, Car Parking - Surface, Balcony, Gym",https://www.domain.com.au/412-2-connam-avenue-clayton-vic-3168-17723137
17724614,CLAYTON,3168,570.0,2477.0,"Saturday, 23 August 2025",2025-08-20,20,2.0,1,1.0,Apartment / Unit / Flat,1/3 Marshall Avenue,-37.907345,145.12741,2025-09-09 16:47:01,17724614,,8,0,0,False,Apartment,Apartment / Unit / Flat,Woodards Bentleigh,3329,"Vivian Hughes, Sammy Knibbs","Split System Air Con, Split System Heating, Built in wardrobes, Ducted Heating, Remote Garage, Secure Parking",https://www.domain.com.au/1-3-marshall-avenue-clayton-vic-3168-17724614
17700180,CLAYTON,3168,450.0,1955.0,"Wednesday, 01 October 2025",2025-08-05,35,1.0,1,,New Apartments / Off the Plan,26/1931 Dandenong Road,-37.911896,145.1241,2025-09-09 16:47:07,17700180,,1,0,0,False,New Developments,New Apartments / Off the Plan,Student Housing Australia,11870,Lynn Do,Ensuite,https://www.domain.com.au/26-1931-dandenong-road-clayton-vic-3168-17700180
17700181,CLAYTON,3168,450.0,1955.0,"Wednesday, 01 October 2025",2025-08-05,35,1.0,1,,New Apartments / Off the Plan,24/1931 Dandenong Road,-37.911896,145.1241,2025-09-09 16:47:07,17700181,,1,0,0,False,New Developments,New Apartments / Off the Plan,Student Housing Australia,11870,Lynn Do,Ensuite,https://www.domain.com.au/24-1931-dandenong-road-clayton-vic-3168-17700181
17700182,CLAYTON,3168,450.0,1955.0,"Wednesday, 01 October 2025",2025-08-05,35,1.0,1,,New Apartments / Off the Plan,23/1931 Dandenong Road,-37.911896,145.1241,2025-09-09 16:47:07,17700182,,1,0,0,False,New Developments,New Apartments / Off the Plan,Student Housing Australia,11870,Lynn Do,Ensuite,https://www.domain.com.au/23-1931-dandenong-road-clayton-vic-3168-17700182
17700186,CLAYTON,3168,450.0,1955.0,"Wednesday, 01 October 2025",2025-08-05,35,1.0,1,,New Apartments / Off the Plan,22/1931 Dandenong Road,-37.911896,145.1241,2025-09-09 16:47:07,17700186,,1,0,0,False,New Developments,New Apartments / Off the Plan,Student Housing Australia,11870,Lynn Do,Ensuite,https://www.domain.com.au/22-1931-dandenong-road-clayton-vic-3168-17700186
17700188,CLAYTON,3168,450.0,1955.0,"Wednesday, 01 October 2025",2025-08-05,35,1.0,1,,New Apartments / Off the Plan,20/1931 Dandenong Road,-37.911896,145.1241,2025-09-09 16:47:07,17700188,,1,0,0,False,New Developments,New Apartments / Off the Plan,Student Housing Australia,11870,Lynn Do,Ensuite,https://www.domain.com.au/20-1931-dandenong-road-clayton-vic-3168-17700188
17700189,CLAYTON,3168,450.0,1955.0,"Wednesday, 01 October 2025",2025-08-05,35,1.0,1,,New Apartments / Off the Plan,19/1931 Dandenong Road,-37.911896,145.1241,2025-09-09 16:47:07,17700189,,1,0,0,False,New Developments,New Apartments / Off the Plan,Student Housing Australia,11870,Lynn Do,Ensuite,https://www.domain.com.au/19-1931-dandenong-road-clayton-vic-3168-17700189
17700190,CLAYTON,3168,450.0,1955.0,"Wednesday, 01 October 2025",2025-08-05,35,1.0,1,,New Apartments / Off the Plan,17/1931 Dandenong Road,-37.911896,145.1241,2025-09-09 16:47:07,17700190,,1,0,0,False,New Developments,New Apartments / Off the Plan,Student Housing Australia,11870,Lynn Do,Ensuite,https://www.domain.com.au/17-1931-dandenong-road-clayton-vic-3168-17700190
17700191,CLAYTON,3168,450.0,1955.0,"Wednesday, 01 October 2025",2025-08-05,35,1.0,1,,New Apartments / Off the Plan,16/1931 Dandenong Road,-37.911896,145.1241,2025-09-09 16:47:07,17700191,,1,0,0,False,New Developments,New Apartments / Off the Plan,Student Housing Australia,11870,Lynn Do,Ensuite,https://www.domain.com.au/16-1931-dandenong-road-clayton-vic-3168-17700191
17700194,CLAYTON,3168,450.0,1955.0,"Wednesday, 01 October 2025",2025-08-05,35,1.0,1,,New Apartments / Off the Plan,15/1931 Dandenong Road,-37.911896,145.1241,2025-09-09 16:47:07,17700194,,1,0,0,False,New Developments,New Apartments / Off the Plan,Student Housing Australia,11870,Lynn Do,Ensuite,https://www.domain.com.au/15-1931-dandenong-road-clayton-vic-3168-17700194
17700198,CLAYTON,3168,450.0,1955.0,"Wednesday, 01 October 2025",2025-08-05,35,1.0,1,,New Apartments / Off the Plan,14/1931 Dandenong Road,-37.911896,145.1241,2025-09-09 16:47:07,17700198,,1,0,0,False,New Developments,New Apartments / Off the Plan,Student Housing Australia,11870,Lynn Do,Ensuite,https://www.domain.com.au/14-1931-dandenong-road-clayton-vic-3168-17700198
17700200,CLAYTON,3168,450.0,1955.0,"Wednesday, 01 October 2025",2025-08-05,35,1.0,1,,New Apartments / Off the Plan,13/1931 Dandenong Road,-37.911896,145.1241,2025-09-09 16:47:07,17700200,,1,0,0,False,New Developments,New Apartments / Off the Plan,Student Housing Australia,11870,Lynn Do,Ensuite,https://www.domain.com.au/13-1931-dandenong-road-clayton-vic-3168-17700200
17700202,CLAYTON,3168,450.0,1955.0,"Wednesday, 01 October 2025",2025-08-05,35,1.0,1,,New Apartments / Off the Plan,12/1931 Dandenong Road,-37.911896,145.1241,2025-09-09 16:47:07,17700202,,1,0,0,False,New Developments,New Apartments / Off the Plan,Student Housing Australia,11870,Lynn Do,Ensuite,https://www.domain.com.au/12-1931-dandenong-road-clayton-vic-3168-17700202
17700204,CLAYTON,3168,450.0,1955.0,"Wednesday, 01 October 2025",2025-08-05,35,1.0,1,,New Apartments / Off the Plan,11/1931 Dandenong Road,-37.911896,145.1241,2025-09-09 16:47:07,17700204,,1,0,0,False,New Developments,New Apartments / Off the Plan,Student Housing Australia,11870,Lynn Do,Ensuite,https://www.domain.com.au/11-1931-dandenong-road-clayton-vic-3168-17700204
17700206,CLAYTON,3168,450.0,1955.0,"Wednesday, 01 October 2025",2025-08-05,35,1.0,1,,New Apartments / Off the Plan,10/1931 Dandenong Road,-37.911896,145.1241,2025-09-09 16:47:07,17700206,,1,0,0,False,New Developments,New Apartments / Off the Plan,Student Housing Australia,11870,Lynn Do,Ensuite,https://www.domain.com.au/10-1931-dandenong-road-clayton-vic-3168-17700206
17700207,CLAYTON,3168,450.0,1955.0,"Wednesday, 01 October 2025",2025-08-05,35,1.0,1,,New Apartments / Off the Plan,8/1931 Dandenong Road,-37.911896,145.1241,2025-09-09 16:47:07,17700207,,1,0,0,False,New Developments,New Apartments / Off the Plan,Student Housing Australia,11870,Lynn Do,Ensuite,https://www.domain.com.au/8-1931-dandenong-road-clayton-vic-3168-17700207
17700208,CLAYTON,3168,450.0,1955.0,"Wednesday, 01 October 2025",2025-08-05,35,1.0,1,,New Apartments / Off the Plan,6/1931 Dandenong Road,-37.911896,145.1241,2025-09-09 16:47:07,17700208,,1,0,0,False,New Developments,New Apartments / Off the Plan,Student Housing Australia,11870,Lynn Do,Ensuite,https://www.domain.com.au/6-1931-dandenong-road-clayton-vic-3168-17700208
17700211,CLAYTON,3168,450.0,1955.0,"Wednesday, 01 October 2025",2025-08-05,35,1.0,1,,New Apartments / Off the Plan,5/1931 Dandenong Road,-37.911896,145.1241,2025-09-09 16:47:07,17700211,,1,0,0,False,New Developments,New Apartments / Off the Plan,Student Housing Australia,11870,Lynn Do,Ensuite,https://www.domain.com.au/5-1931-dandenong-road-clayton-vic-3168-17700211
17700212,CLAYTON,3168,450.0,1955.0,"Wednesday, 01 October 2025",2025-08-05,35,1.0,1,,New Apartments / Off the Plan,4/1931 Dandenong Road,-37.911896,145.1241,2025-09-09 16:47:07,17700212,,1,0,0,False,New Developments,New Apartments / Off the Plan,Student Housing Australia,11870,Lynn Do,Ensuite,https://www.domain.com.au/4-1931-dandenong-road-clayton-vic-3168-17700212
17700216,CLAYTON,3168,450.0,1955.0,"Wednesday, 01 October 2025",2025-08-05,35,1.0,1,,New Apartments / Off the Plan,3/1931 Dandenong Road,-37.911896,145.1241,2025-09-09 16:47:07,17700216,,1,0,0,False,New Developments,New Apartments / Off the Plan,Student Housing Australia,11870,Lynn Do,Ensuite,https://www.domain.com.au/3-1931-dandenong-road-clayton-vic-3168-17700216
17700218,CLAYTON,3168,450.0,1955.0,"Wednesday, 01 October 2025",2025-08-05,35,1.0,1,,New Apartments / Off the Plan,2/1931 Dandenong Road,-37.911896,145.1241,2025-09-09 16:47:07,17700218,,1,0,0,False,New Developments,New Apartments / Off the Plan,Student Housing Australia,11870,Lynn Do,Ensuite,https://www.domain.com.au/2-1931-dandenong-road-clayton-vic-3168-17700218
15970017,CLAYTON,3168,520.0,2260.0,"Thursday, 07 August 2025",2025-07-28,43,2.0,1,1.0,Apartment / Unit / Flat,203/5-7 Dixon Street,-37.91902,145.12204,2025-09-09 16:47:12,15970017,GP-4470-OX,8,0,0,False,Apartment,Apartment / Unit / Flat,Ray White Oakleigh,12122,"David Hua, Rachel Clements","Air conditioning, Built in wardrobes, Secure Parking, Balcony / Deck",https://www.domain.com.au/203-5-7-dixon-street-clayton-vic-3168-15970017
17341506,CLAYTON,3168,500.0,3260.0,"Friday, 31 January 2025",2024-12-06,277,,1,,Apartment / Unit / Flat,4-6 Stockdale Avenue,-37.9073,145.12685,2025-09-09 16:47:12,17341506,,10,0,0,False,Apartment,Apartment / Unit / Flat,Cedar Elm Property,33331,Annie Cheng,,https://www.domain.com.au/4-6-stockdale-avenue-clayton-vic-3168-17341506
17652303,CLAYTON,3168,700.0,3041.0,"Wednesday, 09 July 2025",2025-07-03,67,2.0,2,1.0,Apartment / Unit / Flat,109/6 Belmont Avenue,-37.92798,145.1211,2025-09-09 16:47:12,17652303,,9,1,1,False,Apartment,Apartment / Unit / Flat,Richardson & Wrench Projects Victoria,31321,Daniel Aldieri,"Dishwasher, Split System Heating, Split System Air Conditioning",https://www.domain.com.au/109-6-belmont-avenue-clayton-vic-3168-17652303
17660868,CLAYTON,3168,620.0,2694.0,"Monday, 04 August 2025",2025-07-09,62,2.0,2,1.0,Apartment / Unit / Flat,9/659 Blackburn Road,-37.918774,145.13943,2025-09-09 16:47:12,17660868,,13,0,2,False,Apartment,Apartment / Unit / Flat,Shape Property ,26902,Cindy Tamber,"Gas, Internal Laundry, Air conditioning, Built in wardrobes, Dishwasher, Intercom, Living Areas, Open Fireplace, Remote Garage, Remote Garage Opener, Secure Parking, Split System AirCon, Split System Heating, Split-system Air-conditioning",https://www.domain.com.au/9-659-blackburn-road-clayton-vic-3168-17660868
17663129,CLAYTON,3168,240.0,960.0,"Monday, 18 August 2025",2025-07-10,61,1.0,1,,House,1/53 Stockdale Avenue,-37.911373,145.12549,2025-09-09 16:47:12,17663129,,8,0,0,False,House,House,The Hopkins Group,17841,,"Built in wardrobes, Furnished",https://www.domain.com.au/1-53-stockdale-avenue-clayton-vic-3168-17663129
17670814,CLAYTON,3168,640.0,2781.0,"Friday, 01 August 2025",2025-07-16,55,3.0,2,2.0,Townhouse,2/1760 Dandenong Road,-37.915165,145.12726,2025-09-09 16:47:12,17670814,,1,0,0,False,Townhouse/Villa,Townhouse,McGrath Clayton,29763,"Kelly Min, Pisey Kim","Built in wardrobes, Gas, Heating, Close to transport, Close to shops, Close to schools",https://www.domain.com.au/2-1760-dandenong-road-clayton-vic-3168-17670814
17681984,CLAYTON,3168,1250.0,5432.0,"Wednesday, 23 July 2025",2025-07-23,48,4.0,4,2.0,Townhouse,4/48-50 Kanooka Grove,-37.92116,145.12648,2025-09-09 16:47:12,17681984,,16,0,1,False,Townhouse/Villa,Townhouse,Bluestars Real Estate,20623,Ling Xu,"Fireplace(s), Heating, Ensuite(s), Air conditioning, Ensuite, Floorboards, Built in wardrobes, Furnished, Broadband internet access, Gas, Dishwasher, Secure Parking, Fully fenced, Balcony / Deck, Garden / Courtyard",https://www.domain.com.au/4-48-50-kanooka-grove-clayton-vic-3168-17681984
17682211,CLAYTON,3168,320.0,1347.0,"Wednesday, 13 November 2024",2025-07-23,48,1.0,1,,Apartment / Unit / Flat,49 Koonawarra Street,-37.9107,145.12439,2025-09-09 16:47:12,17682211,,6,0,0,False,Apartment,Apartment / Unit / Flat,ZERVAS AND CO REAL ESTATE AGENTS,20657,Max Mai,"Air conditioning, Built in wardrobes, Ensuite, Furnished, Broadband Internet Available, Floorboards",https://www.domain.com.au/49-koonawarra-street-clayton-vic-3168-17682211
17688678,CLAYTON,3168,625.0,2716.0,"Friday, 15 August 2025",2025-07-30,40,3.0,1,1.0,Townhouse,5/1 Donald Street,-37.92357,145.12213,2025-09-09 16:47:12,17688678,,6,0,0,False,Townhouse/Villa,Townhouse,ZERVAS AND CO REAL ESTATE AGENTS,20657,"Max Mai, Chrissy Savic, Dianne Wilson",Heating,https://www.domain.com.au/5-1-donald-street-clayton-vic-3168-17688678
17691768,CLAYTON,3168,1100.0,6600.0,"Saturday, 23 August 2025",2025-07-30,41,3.0,3,1.0,Apartment / Unit / Flat,11202/868 Blackburn Road,-37.920998,145.13992,2025-09-09 16:47:12,17691768,,14,0,1,False,Apartment,Apartment / Unit / Flat,Melcorp Real Estate,11842,Anna Theo,"Balcony / Deck, Air conditioning, Heating, Built in wardrobes, Close to transport, Close to shops, Tennis Court, Swimming Pool, Intercom, Close to schools, City Views, Security Access, Security System",https://www.domain.com.au/11202-868-blackburn-road-clayton-vic-3168-17691768
17692156,CLAYTON,3168,310.0,1347.0,"Monday, 25 August 2025",2025-07-30,41,1.0,1,,Studio,2/108 (R2) Wellington Road,-37.916134,145.1385,2025-09-09 16:47:12,17692156,,8,0,0,False,Apartment,Studio,Thomas Wong Real Estate,18749,Thomas Wong,"Gas, Broadband Internet Available, Floorboards, Ducted Heating, Furnished",https://www.domain.com.au/2-108-r2-wellington-road-clayton-vic-3168-17692156
17695166,CLAYTON,3168,550.0,2390.0,"Tuesday, 29 July 2025",2025-07-31,40,2.0,1,1.0,Apartment / Unit / Flat,4/22 Donald Street,-37.924435,145.12488,2025-09-09 16:47:12,17695166,,5,0,0,False,Apartment,Apartment / Unit / Flat,ZERVAS AND CO REAL ESTATE AGENTS,20657,"Max Mai, Dianne Wilson",Gas,https://www.domain.com.au/4-22-donald-street-clayton-vic-3168-17695166
17700157,CLAYTON,3168,485.0,2107.0,"Wednesday, 01 October 2025",2025-08-05,35,1.0,1,,New Apartments / Off the Plan,18/1931 Dandenong Road,-37.911896,145.1241,2025-09-09 16:47:12,17700157,,1,0,0,False,New Developments,New Apartments / Off the Plan,Student Housing Australia,11870,Lynn Do,Ensuite,https://www.domain.com.au/18-1931-dandenong-road-clayton-vic-3168-17700157
17700159,CLAYTON,3168,485.0,2107.0,"Wednesday, 01 October 2025",2025-08-05,35,1.0,1,,New Apartments / Off the Plan,21/1931 Dandenong Road,-37.911896,145.1241,2025-09-09 16:47:12,17700159,,1,0,0,False,New Developments,New Apartments / Off the Plan,Student Housing Australia,11870,Lynn Do,Ensuite,https://www.domain.com.au/21-1931-dandenong-road-clayton-vic-3168-17700159
17700163,CLAYTON,3168,485.0,2107.0,"Wednesday, 01 October 2025",2025-08-05,35,1.0,1,,New Apartments / Off the Plan,25/1931 Dandenong Road,-37.911896,145.1241,2025-09-09 16:47:12,17700163,,1,0,0,False,New Developments,New Apartments / Off the Plan,Student Housing Australia,11870,Lynn Do,Ensuite,https://www.domain.com.au/25-1931-dandenong-road-clayton-vic-3168-17700163
17700166,CLAYTON,3168,450.0,1955.0,"Wednesday, 01 October 2025",2025-08-05,35,1.0,1,,New Apartments / Off the Plan,9/1931 Dandenong Road,-37.911896,145.1241,2025-09-09 16:47:12,17700166,,1,0,0,False,New Developments,New Apartments / Off the Plan,Student Housing Australia,11870,Lynn Do,Ensuite,https://www.domain.com.au/9-1931-dandenong-road-clayton-vic-3168-17700166
17700169,CLAYTON,3168,470.0,2042.0,"Wednesday, 01 October 2025",2025-08-05,35,1.0,1,,New Apartments / Off the Plan,7/1931 Dandenong Road,-37.911896,145.1241,2025-09-09 16:47:12,17700169,,1,0,0,False,New Developments,New Apartments / Off the Plan,Student Housing Australia,11870,Lynn Do,Ensuite,https://www.domain.com.au/7-1931-dandenong-road-clayton-vic-3168-17700169
17700174,CLAYTON,3168,450.0,1955.0,"Wednesday, 01 October 2025",2025-08-05,35,1.0,1,,New Apartments / Off the Plan,29/1931 Dandenong Road,-37.911896,145.1241,2025-09-09 16:47:12,17700174,,1,0,0,False,New Developments,New Apartments / Off the Plan,Student Housing Australia,11870,Lynn Do,Ensuite,https://www.domain.com.au/29-1931-dandenong-road-clayton-vic-3168-17700174
17700176,CLAYTON,3168,450.0,1955.0,"Wednesday, 01 October 2025",2025-08-05,35,1.0,1,,New Apartments / Off the Plan,28/1931 Dandenong Road,-37.911896,145.1241,2025-09-09 16:47:12,17700176,,1,0,0,False,New Developments,New Apartments / Off the Plan,Student Housing Australia,11870,Lynn Do,Ensuite,https://www.domain.com.au/28-1931-dandenong-road-clayton-vic-3168-17700176
17700178,CLAYTON,3168,450.0,1955.0,"Wednesday, 01 October 2025",2025-08-05,35,1.0,1,,New Apartments / Off the Plan,27/1931 Dandenong Road,-37.911896,145.1241,2025-09-09 16:47:12,17700178,,1,0,0,False,New Developments,New Apartments / Off the Plan,Student Housing Australia,11870,Lynn Do,Ensuite,https://www.domain.com.au/27-1931-dandenong-road-clayton-vic-3168-17700178
8436079,CLAYTON,3168,360.0,1564.0,"Monday, 07 July 2025",2025-05-19,113,1.0,1,,Apartment / Unit / Flat,212/1457 North Road,-37.91366,145.12398,2025-09-09 16:47:18,8436079,OE-5192-GA,13,0,1,False,Apartment,Apartment / Unit / Flat,Student Housing Australia,11870,Varsha Jones,,https://www.domain.com.au/212-1457-north-road-clayton-vic-3168-8436079
15248295,CLAYTON,3168,620.0,2695.0,"Friday, 04 July 2025",2021-07-12,1519,2.0,2,1.0,Apartment / Unit / Flat,A206/29 Browns Road,-37.924385,145.12703,2025-09-09 16:47:18,15248295,,9,1,0,False,Apartment,Apartment / Unit / Flat,BRW Group,34868,"Janever Lee, Support Team",,https://www.domain.com.au/a206-29-browns-road-clayton-vic-3168-15248295
15319184,CLAYTON,3168,620.0,2695.0,"Monday, 07 February 2022",2021-08-12,1489,2.0,1,1.0,Apartment / Unit / Flat,2.1B/29 Browns Road,-37.924385,145.12703,2025-09-09 16:47:18,15319184,,11,0,0,False,Apartment,Apartment / Unit / Flat,BRW Group,34868,Jeana Chen,,https://www.domain.com.au/2-1b-29-browns-road-clayton-vic-3168-15319184
15726278,CLAYTON,3168,750.0,,"Sunday, 01 February 2026",2023-12-19,630,2.0,1,1.0,New Apartments / Off the Plan,APF2.1/29 Browns Road,-37.922047,145.12701,2025-09-09 16:47:18,15726278,,1,0,0,False,New Developments,New Apartments / Off the Plan,AUSTRALIAN PROPERTY MANAGEMENT ALLIANCE,26052,Wing Property for Eastwood Monash,"Air conditioning, Built in wardrobes, Dishwasher, Gas Stove, Intercom, Secure Parking, Separate Laundry, Alarm System, Heating, Furnished",https://www.domain.com.au/apf2-1-29-browns-road-clayton-vic-3168-15726278
15954019,CLAYTON,3168,940.0,4085.0,"Wednesday, 15 January 2025",2022-06-25,1171,5.0,3,2.0,Townhouse,5B3B/29 Browns Road,-37.924385,145.12703,2025-09-09 16:47:18,15954019,,13,1,0,True,Townhouse/Villa,Townhouse,BRW Group,34868,Support Team,,https://www.domain.com.au/5b3b-29-browns-road-clayton-vic-3168-15954019
16477996,CLAYTON,3168,375.0,1600.0,"Friday, 08 December 2023",2025-06-03,98,1.0,1,,Apartment / Unit / Flat,6 Carlson Ave,-37.90594,145.12625,2025-09-09 16:47:18,16477996,WY-7829-FQ,9,0,0,False,Apartment,Apartment / Unit / Flat,For Sale By Owner,20095,For Rent (VIC),"Air conditioning, Built in wardrobes, Gas, Broadband internet access, Heating, Dishwasher, Shed",https://www.domain.com.au/6-carlson-ave-clayton-vic-3168-16477996
16633181,CLAYTON,3168,290.0,1257.0,"Saturday, 06 September 2025",2025-06-15,85,,1,,Studio,95 Carinish Road,-37.922405,145.11842,2025-09-09 16:47:18,16633181,,10,0,0,False,Apartment,Studio,For Sale By Owner,20095,For Rent (VIC),"Heating, Built in wardrobes, Ensuite",https://www.domain.com.au/95-carinish-road-clayton-vic-3168-16633181
16747039,CLAYTON,3168,360.0,2160.0,"Monday, 15 September 2025",2025-06-26,74,1.0,1,,Apartment / Unit / Flat,56 Marshall Avenue,-37.911655,145.127,2025-09-09 16:47:18,16747039,,7,0,0,False,Apartment,Apartment / Unit / Flat,Jellis Craig Mount Waverley ,17805,"Jayden Hong, Jack Wang","Internal Laundry, Split System Air Con, Split System Heating, Built in wardrobes",https://www.domain.com.au/56-marshall-avenue-clayton-vic-3168-16747039
17059913,CLAYTON,3168,360.0,1440.0,"Monday, 21 April 2025",2025-04-01,161,1.0,1,1.0,House,1 & 2/23 Koonawarra Street,-37.9086,145.1247,2025-09-09 16:47:18,17059913,,13,0,0,False,House,House,The Hopkins Group,17841,James Hickey,"Air conditioning, Built in wardrobes, Close to schools, Furnished",https://www.domain.com.au/1-2-23-koonawarra-street-clayton-vic-3168-17059913
17177197,CLAYTON,3168,320.0,1390.0,"Monday, 26 August 2024",2024-08-26,379,1.0,1,,Townhouse,24 Koonawarra Street,-37.908688,145.12553,2025-09-09 16:47:18,17177197,MD-6993-GK,3,0,0,False,Townhouse/Villa,Townhouse,Professionals First & Co,29341,Jing Chong,"Gas, Internal Laundry, Secure Parking, Broadband internet access",https://www.domain.com.au/24-koonawarra-street-clayton-vic-3168-17177197
17434184,CLAYTON,3168,330.0,1434.0,"Tuesday, 11 February 2025",2025-02-11,210,1.0,1,,Townhouse,18 Glenbrook Avenue,-37.908104,145.1245,2025-09-09 16:47:18,17434184,YK-9796-BA,9,0,0,False,Townhouse/Villa,Townhouse,Professionals First & Co,29341,Jing Chong,Broadband internet access,https://www.domain.com.au/18-glenbrook-avenue-clayton-vic-3168-17434184
17472944,CLAYTON,3168,295.0,1282.0,"Monday, 05 May 2025",2025-03-07,186,1.0,3,,Townhouse,2/37 Stockdale Avenue,-37.91008,145.12544,2025-09-09 16:47:18,17472944,GO-2253-QG,6,0,0,False,Townhouse/Villa,Townhouse,ZERVAS AND CO REAL ESTATE AGENTS,20657,Max Mai,"Internal Laundry, Broadband Internet Available, Built in wardrobes, Furnished",https://www.domain.com.au/2-37-stockdale-avenue-clayton-vic-3168-17472944
17476644,CLAYTON,3168,395.0,1716.0,"Friday, 14 March 2025",2025-03-11,182,1.0,1,,Studio,2/47 Beddoe Avenue,-37.91117,145.12753,2025-09-09 16:47:18,17476644,,5,0,0,False,Apartment,Studio,ZERVAS AND CO REAL ESTATE AGENTS,20657,Max Mai,"Internal Laundry, Furnished",https://www.domain.com.au/2-47-beddoe-avenue-clayton-vic-3168-17476644
17533296,CLAYTON,3168,270.0,1080.0,"Thursday, 21 November 2024",2025-04-16,146,8.0,4,2.0,House,2/67 Marshall Ave,-37.912434,145.12614,2025-09-09 16:47:18,17533296,PO-0723-VY,12,0,0,False,House,House,Levic Group Pty Ltd,32569,Victoria Chen,"Gas, Internal Laundry",https://www.domain.com.au/2-67-marshall-ave-clayton-vic-3168-17533296
17592326,CLAYTON,3168,680.0,2955.0,"Saturday, 07 June 2025",2025-05-27,105,4.0,2,2.0,Apartment / Unit / Flat,1/850 Blackburn Road,-37.91892,145.13991,2025-09-09 16:47:18,17592326,ZT-1788-BE,12,0,0,False,Apartment,Apartment / Unit / Flat,ZERVAS AND CO REAL ESTATE AGENTS,20657,"Max Mai, Chris Zervas",Secure Parking,https://www.domain.com.au/1-850-blackburn-road-clayton-vic-3168-17592326
17592369,CLAYTON,3168,700.0,3042.0,"Tuesday, 17 June 2025",2025-05-27,105,3.0,2,2.0,Townhouse,5/21 Colonel Street,-37.920036,145.11807,2025-09-09 16:47:18,17592369,,7,0,0,False,Townhouse/Villa,Townhouse,ZERVAS AND CO REAL ESTATE AGENTS,20657,"Max Mai, Chris Zervas","Remote Garage, Courtyard, Built in wardrobes, Ducted Heating",https://www.domain.com.au/5-21-colonel-street-clayton-vic-3168-17592369
17592427,CLAYTON,3168,520.0,2259.0,"Friday, 13 June 2025",2025-05-27,105,2.0,1,1.0,Apartment / Unit / Flat,27/2 Greenfield Drive,-37.92317,145.12863,2025-09-09 16:47:18,17592427,PH-3199-TG,7,0,0,False,Apartment,Apartment / Unit / Flat,ZERVAS AND CO REAL ESTATE AGENTS,20657,"Max Mai, Chrissy Savic","Gas, Balcony / Deck, Swimming Pool - In Ground, Built in wardrobes, Dishwasher, Intercom, Air conditioning",https://www.domain.com.au/27-2-greenfield-drive-clayton-vic-3168-17592427
17594182,CLAYTON,3168,750.0,3259.0,"Thursday, 29 May 2025",2025-05-28,104,4.0,2,2.0,Apartment / Unit / Flat,2/91 Moriah Street,-37.925022,145.12938,2025-09-09 16:47:18,17594182,ZA-9117-SV,7,0,0,False,Apartment,Apartment / Unit / Flat,ZERVAS AND CO REAL ESTATE AGENTS,20657,Max Mai,"Secure Parking, Ducted Heating",https://www.domain.com.au/2-91-moriah-street-clayton-vic-3168-17594182
17647013,CLAYTON,3168,650.0,2824.0,"Wednesday, 09 July 2025",2025-07-01,70,3.0,1,1.0,Apartment / Unit / Flat,323A Clayton Road,-37.924587,145.11963,2025-09-09 16:47:18,17647013,,7,0,0,False,Apartment,Apartment / Unit / Flat,ZERVAS AND CO REAL ESTATE AGENTS,20657,"Max Mai, Chris Zervas",Heating,https://www.domain.com.au/323a-clayton-road-clayton-vic-3168-17647013
17648848,CLAYTON,3168,780.0,3389.0,"Wednesday, 02 July 2025",2025-07-02,69,4.0,2,2.0,House,1/11 Iona Street,-37.921368,145.1285,2025-09-09 16:47:18,17648848,,8,1,0,True,House,House,Xynergy Realty Altona,31396,Kenny Gregorius,"Built in wardrobes, Bath",https://www.domain.com.au/1-11-iona-street-clayton-vic-3168-17648848
8430042,CLAYTON,3168,360.0,,"Friday, 20 July 2018",2023-03-02,922,1.0,1,,Apartment / Unit / Flat,1457 North Road,-37.91365,145.12383,2025-09-09 16:47:24,8430042,,17,0,0,False,Apartment,Apartment / Unit / Flat,Student Housing Australia,11870,Varsha Jones,"Gas, Intercom, Study, Balcony / Deck, Furnished",https://www.domain.com.au/1457-north-road-clayton-vic-3168-8430042
8433008,CLAYTON,3168,350.0,,"Monday, 21 October 2013",2023-03-02,922,1.0,1,,Apartment / Unit / Flat,1728 Dandenong Road,-37.91309,145.12418,2025-09-09 16:47:24,8433008,,18,0,0,False,Apartment,Apartment / Unit / Flat,Student Housing Australia,11870,Varsha Jones,"Gas, Intercom, Balcony / Deck, Built in wardrobes, Furnished",https://www.domain.com.au/1728-dandenong-road-clayton-vic-3168-8433008
15778927,CLAYTON,3168,,3476.0,"Thursday, 11 April 2024",2022-03-11,1277,3.0,2,1.0,Townhouse,,-37.914547,145.12749,2025-09-09 16:47:24,15778927,,1,0,0,False,Townhouse/Villa,Townhouse,Aushome Real Estate,35673,Sarah Lam,"Ensuite(s), Air conditioning, Broadband internet access, Balcony / Deck",https://www.domain.com.au/clayton-vic-3168-15778927
16156351,CLAYTON,3168,280.0,1028.0,"Wednesday, 26 June 2024",2024-06-26,439,8.0,4,2.0,House,12 Auguste Avenue,-37.904377,145.12708,2025-09-09 16:47:24,16156351,LK-4078-DN,12,0,1,False,House,House,Levic Group Pty Ltd,32569,Mayu Yamamoto,Gas,https://www.domain.com.au/12-auguste-avenue-clayton-vic-3168-16156351
16193176,CLAYTON,3168,,3380.0,,2022-11-18,1026,3.0,3,1.0,Apartment / Unit / Flat,28/29 Browns Road,-37.92438,145.12704,2025-09-09 16:47:24,16193176,PP-5426-JL,17,1,0,False,Apartment,Apartment / Unit / Flat,BRW Group,34868,Support Team,Ensuite,https://www.domain.com.au/28-29-browns-road-clayton-vic-3168-16193176
16478547,CLAYTON,3168,,1000.0,"Monday, 22 May 2023",2024-09-16,358,8.0,4,,House,2/67 Marshall Avenue,-37.912434,145.12614,2025-09-09 16:47:24,16478547,PO-0723-VY,8,0,0,False,House,House,Levic Group Pty Ltd,32569,Mayu Yamamoto,"Gas, Internal Laundry",https://www.domain.com.au/2-67-marshall-avenue-clayton-vic-3168-16478547
16698301,CLAYTON,3168,265.0,1151.0,"Wednesday, 10 January 2024",2023-10-13,696,1.0,1,,Studio,Unit 2/18 Glenbrook Avenue,-37.908096,145.12453,2025-09-09 16:47:24,16698301,KW-1219-EO,9,0,0,False,Apartment,Studio,LANDNEST REAL ESTATE,30082,Clayton Leasing team,,https://www.domain.com.au/unit-2-18-glenbrook-avenue-clayton-vic-3168-16698301
16941390,CLAYTON,3168,795.0,3454.0,"Wednesday, 27 March 2024",2024-03-26,532,4.0,4,1.0,Apartment / Unit / Flat,2/66 Margaret Street,-37.91736,145.11757,2025-09-09 16:47:24,16941390,QO-2160-AO,9,0,0,False,Apartment,Apartment / Unit / Flat,ZERVAS AND CO REAL ESTATE AGENTS,20657,"Max Mai, Silvana Costandi",,https://www.domain.com.au/2-66-margaret-street-clayton-vic-3168-16941390
17048236,CLAYTON,3168,250.0,1086.0,"Monday, 12 August 2024",2024-08-10,395,1.0,3,,House,53 Beddoe Avenue,-37.911686,145.12761,2025-09-09 16:47:24,17048236,OM-6033-OX,5,0,0,False,House,House,ZERVAS AND CO REAL ESTATE AGENTS,20657,Max Mai,"Broadband Internet Available, Built in wardrobes, Air conditioning, Furnished",https://www.domain.com.au/53-beddoe-avenue-clayton-vic-3168-17048236
17087950,CLAYTON,3168,,,"Sunday, 17 November 2024",2024-06-29,437,2.0,2,1.0,New Apartments / Off the Plan,APF2.2B/29 Browns Road,-37.922047,145.12701,2025-09-09 16:47:24,17087950,,7,0,0,False,New Developments,New Apartments / Off the Plan,AUSTRALIAN PROPERTY MANAGEMENT ALLIANCE,26052,Wing Property for Eastwood Monash,"Air conditioning, Built in wardrobes, Dishwasher, Gas Stove, Intercom, Secure Parking, Separate Laundry, Alarm System, Heating, Furnished",https://www.domain.com.au/apf2-2b-29-browns-road-clayton-vic-3168-17087950
17153385,CLAYTON,3168,250.0,1086.0,"Saturday, 10 August 2024",2024-08-09,396,1.0,3,,House,53 Beddoe Avenue,-37.911686,145.12761,2025-09-09 16:47:24,17153385,OM-6033-OX,5,0,0,False,House,House,ZERVAS AND CO REAL ESTATE AGENTS,20657,Max Mai,"Broadband Internet Available, Built in wardrobes, Air conditioning, Furnished",https://www.domain.com.au/53-beddoe-avenue-clayton-vic-3168-17153385
17198544,CLAYTON,3168,800.0,3500.0,"Tuesday, 01 October 2024",2024-09-09,365,4.0,3,2.0,House,1/5 Jaguar Dr,-37.923553,145.13223,2025-09-09 16:47:24,17198544,IA-1859-TL,5,0,0,False,House,House,No Agent Property ,20869,No Agent Property - VIC,"Built in wardrobes, Internal Laundry, Bath, Air conditioning, Floorboards, Alarm System, Remote Garage, Dishwasher, Fully fenced",https://www.domain.com.au/1-5-jaguar-dr-clayton-vic-3168-17198544
17207775,CLAYTON,3168,310.0,1347.0,"Thursday, 18 April 2024",2024-09-13,361,1.0,1,,Townhouse,16 Stockdale Avenue,-37.908264,145.12671,2025-09-09 16:47:24,17207775,PA-7586-EI,5,0,0,False,Townhouse/Villa,Townhouse,McGrath Clayton,29763,"Sho Hai Mai, Pisey Kim","Gas, Internal Laundry, Broadband internet access, Close to transport, Close to shops, Close to schools, Furnished",https://www.domain.com.au/16-stockdale-avenue-clayton-vic-3168-17207775
17371146,CLAYTON,3168,,660.0,"Friday, 10 January 2025",2025-01-06,246,1.0,1,,Townhouse,1/26 Arnott Street,-37.918022,145.1348,2025-09-09 16:47:24,17371146,TA-0094-PR,9,0,0,False,Townhouse/Villa,Townhouse,Professionals First & Co,29341,Jing Chong,"Air conditioning, Gas, Internal Laundry, Secure Parking, Furnished, Heating, Balcony / Deck",https://www.domain.com.au/1-26-arnott-street-clayton-vic-3168-17371146
17426360,CLAYTON,3168,370.0,1608.0,"Saturday, 08 February 2025",2025-02-05,216,1.0,1,,Townhouse,1A&B/196 CLAYTON RD,-37.91667,145.12157,2025-09-09 16:47:24,17426360,,12,0,0,False,Townhouse/Villa,Townhouse,ZERVAS AND CO REAL ESTATE AGENTS,20657,Max Mai,"Internal Laundry, Courtyard, Deck, Outdoor Entertainment Area, Remote Garage, Secure Parking, Shed, Broadband Internet Available, Built in wardrobes, Dishwasher, Floorboards, Air conditioning, Furnished",https://www.domain.com.au/1a-b-196-clayton-rd-clayton-vic-3168-17426360
