listing_id,suburb,postcode,weekly_rent,bond,available_date,date_listed,days_listed,bedrooms,bathrooms,carspaces,property_type,address,lat,lon,scraped_date,domain_page_id,property_id,photo_count,video_count,floorplans_count,virtual_tour,primary_type,secondary_type,agency,agency_id,agent_names,structured_features,url
15660577,CRANBOURNE NORTH,3977,530.0,2303.0,"Friday, 15 August 2025",2025-07-16,55,3,2,1.0,House,3 Bannan Crescent,-38.08586,145.33286,2025-09-09 17:05:18,15660577,CS-8751-ZM,12,0,0,False,House,House,Ray White Cranbourne,18759,Sophie Bridges,"Gas, Internal Laundry, Secure Parking, Bath",https://www.domain.com.au/3-bannan-crescent-cranbourne-north-vic-3977-15660577
16688558,CRANBOURNE NORTH,3977,590.0,2564.0,"Tuesday, 05 August 2025",2025-07-10,60,4,2,2.0,House,144 Lawless Drive,-38.069096,145.27435,2025-09-09 17:05:18,16688558,GV-4650-FF,11,0,0,False,House,House,Ray White Cranbourne,18759,Sophie Bridges,"Heating, Study",https://www.domain.com.au/144-lawless-drive-cranbourne-north-vic-3977-16688558
17120906,CRANBOURNE NORTH,3977,550.0,2390.0,"Friday, 05 September 2025",2025-08-07,33,3,2,2.0,House,6 Tinara Court,-38.079422,145.28134,2025-09-09 17:05:18,17120906,GQ-0336-WG,11,0,0,False,House,House,Ray White Cranbourne,18759,Sophie Bridges,"Built in wardrobes, Gas, Bath, Dishwasher, Balcony / Deck",https://www.domain.com.au/6-tinara-court-cranbourne-north-vic-3977-17120906
17191643,CRANBOURNE NORTH,3977,600.0,2600.0,"Friday, 26 September 2025",2025-09-03,6,4,2,1.0,House,2 Elda Court,-38.083233,145.28685,2025-09-09 17:05:18,17191643,AH-7805-YZ,7,0,0,False,House,House,Ray White Croydon,17921,Leasing ...,"Air conditioning, Internal Laundry, Secure Parking, Heating, Dishwasher, Study, Shed, Fully fenced, Ensuite",https://www.domain.com.au/2-elda-court-cranbourne-north-vic-3977-17191643
17653801,CRANBOURNE NORTH,3977,550.0,2390.0,"Friday, 11 July 2025",2025-07-04,67,3,2,2.0,House,7 Filomena Court,-38.08175,145.2838,2025-09-09 17:05:18,17653801,,15,0,0,False,House,House,Ray White Cranbourne,18759,"Uaina Purcell, Kevin Cabezas","Built in wardrobes, Gas, Internal Laundry, Bath, Heating, Dishwasher, Solar panels",https://www.domain.com.au/7-filomena-court-cranbourne-north-vic-3977-17653801
17698163,CRANBOURNE NORTH,3977,550.0,2390.0,"Monday, 25 August 2025",2025-08-04,36,3,2,1.0,House,6 Bamboo Court,-38.071404,145.27151,2025-09-09 17:05:18,17698163,,14,0,0,False,House,House,Ray White Cranbourne,18759,"Sophie Bridges, Mia Johnson","Internal Laundry, Air conditioning, Built in wardrobes, Separate Dining Room, Secure Parking, Evaporative Cooling, Close to shops, schools and train station",https://www.domain.com.au/6-bamboo-court-cranbourne-north-vic-3977-17698163
17702879,CRANBOURNE NORTH,3977,550.0,2389.0,"Wednesday, 06 August 2025",2025-08-06,34,3,2,2.0,House,13 Samantha Crescent,-38.077484,145.29358,2025-09-09 17:05:18,17702879,,12,0,0,False,House,House,Ray White Cranbourne,18759,"Sophie Bridges, Mia Johnson",,https://www.domain.com.au/13-samantha-crescent-cranbourne-north-vic-3977-17702879
17703371,CRANBOURNE NORTH,3977,630.0,2738.0,"Thursday, 07 August 2025",2025-08-06,34,4,2,2.0,House,31 Tilden Rise,-38.07659,145.3214,2025-09-09 17:05:18,17703371,,10,0,0,False,House,House,Ray White Carrum Downs,8673,Peter Bell,"Gas, Secure Parking, Bath, Heating, Dishwasher",https://www.domain.com.au/31-tilden-rise-cranbourne-north-vic-3977-17703371
17725611,CRANBOURNE NORTH,3977,600.0,2607.0,"Thursday, 21 August 2025",2025-08-21,19,3,2,2.0,House,12 Mariner Close,-38.077717,145.28452,2025-09-09 17:05:18,17725611,,15,0,0,False,House,House,Ray White Cranbourne,18759,"Sophie Bridges, Mia Johnson",Study,https://www.domain.com.au/12-mariner-close-cranbourne-north-vic-3977-17725611
17726775,CRANBOURNE NORTH,3977,600.0,2608.0,"Monday, 15 September 2025",2025-08-21,19,4,2,2.0,House,10 Islington Avenue,-38.069637,145.28912,2025-09-09 17:05:18,17726775,,3,0,0,False,House,House,Ray White Cranbourne,18759,Uaina Purcell,,https://www.domain.com.au/10-islington-avenue-cranbourne-north-vic-3977-17726775
17729886,CRANBOURNE NORTH,3977,695.0,3020.0,"Monday, 22 September 2025",2025-08-25,15,4,2,2.0,House,117 Rosebank Drive,-38.07544,145.28929,2025-09-09 17:05:18,17729886,,17,0,0,False,House,House,Ray White Cranbourne,18759,"Uaina Purcell, Kevin Cabezas","Secure Parking, Bath, Heating, Dishwasher, Solar panels, Balcony / Deck",https://www.domain.com.au/117-rosebank-drive-cranbourne-north-vic-3977-17729886
17733941,CRANBOURNE NORTH,3977,650.0,2824.0,"Saturday, 06 September 2025",2025-08-27,13,4,2,2.0,House,10 St Gwinear La,-38.07724,145.32637,2025-09-09 17:05:18,17733941,,14,0,0,False,House,House,UpHill Real Estate,31519,"Lorenzo Lazo, Leasing Department","Built in wardrobes, Dishwasher, Bathtub, Ducted Heating, Evaporative Cooling, Outdoor Entertainment Area, Remote Garage, Secure Parking, Fully fenced",https://www.domain.com.au/10-st-gwinear-la-cranbourne-north-vic-3977-17733941
17738384,CRANBOURNE NORTH,3977,420.0,1825.0,"Friday, 05 September 2025",2025-08-29,11,2,1,1.0,Apartment / Unit / Flat,1b Blaxland Avenue,-38.07975,145.27225,2025-09-09 17:05:18,17738384,,3,0,0,False,Apartment,Apartment / Unit / Flat,Ray White (Judd White Group),17402,"Lida Khem, Danielle Budd","Built in wardrobes, Gas, Internal Laundry",https://www.domain.com.au/1b-blaxland-avenue-cranbourne-north-vic-3977-17738384
17742943,CRANBOURNE NORTH,3977,560.0,2433.0,"Tuesday, 02 September 2025",2025-09-02,7,3,2,2.0,House,138 Alisma Boulevard,-38.077293,145.32016,2025-09-09 17:05:18,17742943,,9,0,0,False,House,House,OBrien Real Estate Berwick,17662,"Brittany Esmore, Josh Barbut","Air conditioning, Heating, Built in wardrobes, Close to transport, Close to shops, Close to schools, Ensuite, Carpeted, Openable Windows, Dishwasher",https://www.domain.com.au/138-alisma-boulevard-cranbourne-north-vic-3977-17742943
17744690,CRANBOURNE NORTH,3977,590.0,2564.0,"Wednesday, 03 September 2025",2025-09-03,6,3,2,2.0,House,34 Andrea Crescent,-38.079395,145.29184,2025-09-09 17:05:18,17744690,,19,0,0,False,House,House,Hall & Partners First National Dandenong,17903,Jackie Lyons,"Gas, Secure Parking, Dishwasher",https://www.domain.com.au/34-andrea-crescent-cranbourne-north-vic-3977-17744690
17745748,CRANBOURNE NORTH,3977,560.0,2433.0,"Wednesday, 03 September 2025",2025-09-03,6,3,2,2.0,House,10 Mawson Court,-38.08038,145.27036,2025-09-09 17:05:18,17745748,,16,0,0,False,House,House,Finning First National  ,8602,Property Management Team,"Pets Allowed, Heating, Shed",https://www.domain.com.au/10-mawson-court-cranbourne-north-vic-3977-17745748
17749206,CRANBOURNE NORTH,3977,565.0,2455.0,"Wednesday, 10 September 2025",2025-09-05,4,3,2,1.0,House,43 Paxford Drive,-38.085915,145.31943,2025-09-09 17:05:18,17749206,,11,0,1,False,House,House,OBrien Real Estate Cranbourne,20364,"Karen Arnott, Jane Daddo","Secure Parking, Air conditioning, Heating, Close to transport, Close to shops, Close to schools, Ensuite",https://www.domain.com.au/43-paxford-drive-cranbourne-north-vic-3977-17749206
17750197,CRANBOURNE NORTH,3977,560.0,2433.0,"Monday, 22 September 2025",2025-09-05,3,3,2,2.0,House,122 Sabel Drive,-38.07452,145.32274,2025-09-09 17:05:18,17750197,,9,0,0,False,House,House,YPA Cranbourne,31602,"Hemant Dobriyal, Pulkit Khetarpal",,https://www.domain.com.au/122-sabel-drive-cranbourne-north-vic-3977-17750197
17751297,CRANBOURNE NORTH,3977,600.0,2607.0,"Wednesday, 01 October 2025",2025-09-08,1,3,2,2.0,House,90 Alisma Boulevard,-38.07605,145.31503,2025-09-09 17:05:18,17751297,,17,0,0,False,House,House,All Avenues Real Estate,31528,"Anu Sandhu, Husena Bastawala","Air conditioning, Secure Parking, Heating, Dishwasher",https://www.domain.com.au/90-alisma-boulevard-cranbourne-north-vic-3977-17751297
17752630,CRANBOURNE NORTH,3977,520.0,2260.0,"Monday, 20 October 2025",2025-09-09,0,3,1,2.0,House,62 Huon Park Road,-38.075542,145.28133,2025-09-09 17:05:18,17752630,,4,0,0,False,House,House,Care Property Management,29924,Rebecca Storey,"Internal Laundry, Heating, Courtyard, Fully fenced, Secure Parking, Built in wardrobes",https://www.domain.com.au/62-huon-park-road-cranbourne-north-vic-3977-17752630
15826015,CRANBOURNE NORTH,3977,600.0,2607.0,"Saturday, 14 June 2025",2025-06-05,96,3,2,2.0,House,52 Ironwood Avenue,-38.072266,145.2772,2025-09-09 17:05:23,15826015,RB-6653-TF,14,0,0,False,House,House,Linage ,24840,Kavinda Kudage Don,"Built in wardrobes, Dishwasher, Broadband, Bathtub, Gas Appliances, Ducted Heating, Ducted Air Conditioning, Gas Hot Water, Ensuite(s), Balcony, Courtyard, Remote Garage, Secure Parking, Fully fenced, Pets Allowed",https://www.domain.com.au/52-ironwood-avenue-cranbourne-north-vic-3977-15826015
16427168,CRANBOURNE NORTH,3977,570.0,2477.0,"Saturday, 06 May 2023",2023-04-19,874,4,2,2.0,House,3 Baddeley Circuit,-38.072765,145.29562,2025-09-09 17:05:23,16427168,XD-4107-LC,5,0,0,False,House,House,Just Realty International,30731,,"Built in wardrobes, Gas, Internal Laundry, Secure Parking, Fireplace(s), Heating, Balcony / Deck",https://www.domain.com.au/3-baddeley-circuit-cranbourne-north-vic-3977-16427168
16849899,CRANBOURNE NORTH,3977,525.0,2281.0,"Monday, 23 December 2024",2024-12-23,260,3,1,,House,25 Thompsons Road,-38.081245,145.27174,2025-09-09 17:05:23,16849899,IK-8758-GX,7,0,0,False,House,House,Casey Estate Agents,19032,Lee-Anne Harley,"Heating, Shed",https://www.domain.com.au/25-thompsons-road-cranbourne-north-vic-3977-16849899
16990303,CRANBOURNE NORTH,3977,610.0,,"Friday, 15 August 2025",2025-06-28,72,4,2,2.0,House,15 Chantenay Parade,-38.079983,145.31754,2025-09-09 17:05:23,16990303,IA-3206-YL,12,0,0,False,House,House,Waterfront Real Estate,17081,"Jason Ealdama, Waterfront Real Estate","Gas, Secure Parking, Dishwasher, Solar panels",https://www.domain.com.au/15-chantenay-parade-cranbourne-north-vic-3977-16990303
17409020,CRANBOURNE NORTH,3977,,680.0,,2025-01-24,228,5,2,2.0,House,5 Karawarra Circuit,-38.074467,145.32614,2025-09-09 17:05:23,17409020,DW-8373-KK,16,0,0,False,House,House,UpHill Real Estate,31519,"Lorenzo Lazo, Leasing Department","Study, Vacuum System, Built in wardrobes, Dishwasher, Ducted Heating, Outdoor Entertainment Area, Remote Garage, Secure Parking, Shed, Fully fenced, Solar panels",https://www.domain.com.au/5-karawarra-circuit-cranbourne-north-vic-3977-17409020
17420606,CRANBOURNE NORTH,3977,,590.0,,2025-02-03,218,4,2,2.0,House,57 Tamarind Road,-38.08037,145.3328,2025-09-09 17:05:23,17420606,CL-0578-TL,12,0,0,False,House,House,UpHill Real Estate,31519,Leasing Department,"Bath, Dishwasher, Built in wardrobes, Ducted Heating, Air conditioning, Outdoor Entertainment Area, Remote Garage",https://www.domain.com.au/57-tamarind-road-cranbourne-north-vic-3977-17420606
17691131,CRANBOURNE NORTH,3977,470.0,2042.0,"Tuesday, 02 September 2025",2025-07-29,42,3,1,1.0,House,48 Endeavour Drive,-38.080193,145.26634,2025-09-09 17:05:23,17691131,,9,0,0,False,House,House,Hockingstuart Dandenong,18679,"Lisa Bishop, Rebecca Lee","Internal Laundry, Bath, Heating, Built in wardrobes, Close to transport, Close to schools, Floorboards, Secure Parking",https://www.domain.com.au/48-endeavour-drive-cranbourne-north-vic-3977-17691131
17714262,CRANBOURNE NORTH,3977,570.0,2477.0,"Wednesday, 20 August 2025",2025-08-13,27,4,2,2.0,House,31 Courtenay Avenue,-38.077904,145.27725,2025-09-09 17:05:23,17714262,,15,0,0,False,House,House,Peake Real Estate,8709,Ally Byers,"Internal Laundry, Ensuite, Pets Allowed, Split System AirCon",https://www.domain.com.au/31-courtenay-avenue-cranbourne-north-vic-3977-17714262
17719077,CRANBOURNE NORTH,3977,820.0,3563.0,"Monday, 18 August 2025",2025-08-18,22,5,3,2.0,House,121 Wheelers Park Drive,-38.079147,145.32764,2025-09-09 17:05:23,17719077,,15,0,0,False,House,House,Harcourts Asap Group,29204,Reception Asap,"Bedrooms Carpet, Built in wardrobes, Garden / Courtyard, Dishwasher, Heating, Ensuite, Air conditioning, Floorboards, Fully fenced, Gas cooktop, Outdoor Entertaining, Powder room, Stone benchtops, Study",https://www.domain.com.au/121-wheelers-park-drive-cranbourne-north-vic-3977-17719077
17719394,CRANBOURNE NORTH,3977,520.0,2260.0,"Thursday, 18 September 2025",2025-08-18,22,3,2,2.0,Townhouse,48 Mannavue Boulevard,-38.080498,145.30019,2025-09-09 17:05:23,17719394,,7,0,0,False,Townhouse/Villa,Townhouse,LJ Hooker Casey,19249,Olivia Ferguson,"Secure Parking, Dishwasher, Built in wardrobes, Close to shops, Ensuite, Ducted Heating, Close to transport",https://www.domain.com.au/48-mannavue-boulevard-cranbourne-north-vic-3977-17719394
17722059,CRANBOURNE NORTH,3977,560.0,2432.0,"Tuesday, 19 August 2025",2025-08-19,21,3,2,2.0,House,37 Hoysted Avenue,-38.08072,145.27985,2025-09-09 17:05:23,17722059,,6,0,0,False,House,House,Hall & Partners First National Dandenong,17903,Brooke Wilson,"Air conditioning, Heating, Built in wardrobes, Close to transport, Close to shops, Close to schools",https://www.domain.com.au/37-hoysted-avenue-cranbourne-north-vic-3977-17722059
17722607,CRANBOURNE NORTH,3977,650.0,2824.0,"Monday, 25 August 2025",2025-08-19,21,4,2,4.0,House,14 Terrence Drive,-38.070885,145.26772,2025-09-09 17:05:23,17722607,,17,0,0,False,House,House,LJ Hooker Casey,19249,Michelle Newson,"Internal Laundry, Secure Parking, Dishwasher, Built in wardrobes, Close to transport, Close to schools, Ensuite, Evaporative Cooling, Ducted Heating, Alfresco",https://www.domain.com.au/14-terrence-drive-cranbourne-north-vic-3977-17722607
17724681,CRANBOURNE NORTH,3977,565.0,2455.0,"Thursday, 07 August 2025",2025-08-20,20,3,2,2.0,House,10 Tinara Court,-38.079594,145.28163,2025-09-09 17:05:23,17724681,,12,0,0,False,House,House,Top Estate Agents,37270,"Jagjeet Singh, Karan Singh","Air conditioning, Gas, Internal Laundry, Secure Parking, Heating, Dishwasher, Ensuite",https://www.domain.com.au/10-tinara-court-cranbourne-north-vic-3977-17724681
17725682,CRANBOURNE NORTH,3977,560.0,2433.0,"Wednesday, 20 August 2025",2025-08-21,19,3,2,3.0,House,46 Courtenay Avenue,-38.078583,145.28047,2025-09-09 17:05:23,17725682,,15,0,0,False,House,House,Uphill Real Estate Pakenham/Officer,37620,"Chanaka Perera, Leasing Team","Pets Allowed, Courtyard, Fully fenced, Outdoor Entertainment Area, Remote Garage, Secure Parking, Shed, Broadband Internet Available, Built in wardrobes, Dishwasher, Floorboards, Rumpus Room, Air conditioning, Gas Heating, Open Fireplace, Reverse Cycle Air Conditioning, Ensuite",https://www.domain.com.au/46-courtenay-avenue-cranbourne-north-vic-3977-17725682
17725853,CRANBOURNE NORTH,3977,585.0,2542.0,"Thursday, 21 August 2025",2025-08-21,19,4,2,2.0,House,9 Balook Court,-38.067913,145.27112,2025-09-09 17:05:23,17725853,,19,0,0,False,House,House,Finning First National  ,8602,Property Management Team,"Air conditioning, Gas, Secure Parking, Heating, Fully fenced",https://www.domain.com.au/9-balook-court-cranbourne-north-vic-3977-17725853
17726554,CRANBOURNE NORTH,3977,580.0,2520.0,"Monday, 08 September 2025",2025-08-21,19,4,2,2.0,House,29 Stirling Avenue,-38.069153,145.26749,2025-09-09 17:05:23,17726554,,17,0,0,False,House,House,Del Real Estate,18196,Theo Maric,"Secure Parking, Heating, Evaporative Cooling, Laundry",https://www.domain.com.au/29-stirling-avenue-cranbourne-north-vic-3977-17726554
17730854,CRANBOURNE NORTH,3977,630.0,2738.0,"Monday, 01 September 2025",2025-08-25,15,4,2,2.0,House,4 Winchcombe Way,-38.087807,145.32806,2025-09-09 17:05:23,17730854,,15,0,1,False,House,House,LJ Hooker Dandenong,33610,Leasing Team,"Air conditioning, Internal Laundry, Secure Parking, Bath, Dishwasher, Shed, Balcony / Deck",https://www.domain.com.au/4-winchcombe-way-cranbourne-north-vic-3977-17730854
17732259,CRANBOURNE NORTH,3977,610.0,2651.0,"Monday, 25 August 2025",2025-08-26,14,4,2,2.0,House,11 Landau Court,-38.083927,145.29327,2025-09-09 17:05:23,17732259,,17,0,1,True,House,House,Casey Estate Agents,19032,Lee-Ann Harley,Heating,https://www.domain.com.au/11-landau-court-cranbourne-north-vic-3977-17732259
17734923,CRANBOURNE NORTH,3977,675.0,2933.0,"Monday, 01 September 2025",2025-08-27,13,4,2,2.0,House,10 Mountainview Boulevard,-38.08308,145.31607,2025-09-09 17:05:23,17734923,,15,0,1,False,House,House,LJ Hooker Dandenong,33610,Leasing Team,"Internal Laundry, Pets Allowed, Bath, Heating",https://www.domain.com.au/10-mountainview-boulevard-cranbourne-north-vic-3977-17734923
17736451,CRANBOURNE NORTH,3977,540.0,2346.0,"Tuesday, 23 September 2025",2025-08-28,12,3,1,2.0,House,9 Hoysted Avenue,-38.07897,145.27693,2025-09-09 17:05:23,17736451,,6,0,0,False,House,House,All Avenues Real Estate,31528,"Anu Sandhu, Husena Bastawala",Heating,https://www.domain.com.au/9-hoysted-avenue-cranbourne-north-vic-3977-17736451
