listing_id,suburb,postcode,weekly_rent,bond,available_date,date_listed,days_listed,bedrooms,bathrooms,carspaces,property_type,address,lat,lon,scraped_date,domain_page_id,property_id,photo_count,video_count,floorplans_count,virtual_tour,primary_type,secondary_type,agency,agency_id,agent_names,structured_features,url
16561254,DONCASTER,3108,795.0,3454.0,"Friday, 19 September 2025",2025-09-09,0,4,3,2,House,41 Pettys Lane,-37.79115,145.11263,2025-09-09 16:35:34,16561254,NO-3107-TN,8,0,0,False,House,House,Harcourts Manningham,33307,Sevda Edraki,Secure Parking,https://www.domain.com.au/41-pettys-lane-doncaster-vic-3108-16561254
17190655,DONCASTER,3108,665.0,2890.0,"Wednesday, 01 October 2025",2025-09-04,5,2,2,1,Apartment / Unit / Flat,206/8 Clay Drive,-37.78812,145.12825,2025-09-09 16:35:34,17190655,RT-6438-AI,8,0,1,False,Apartment,Apartment / Unit / Flat,Barry Plant Manningham,7015,"Damian Gattone, Nonny Junsomran","Gas, Internal Laundry, Intercom, Floorboards, Built in wardrobes, Dishwasher, Broadband, Bathtub, Split System Heating, Split System Air Conditioning, Electric Hot Water, Ensuite(s), Balcony, Remote Garage, Secure Parking, Valley Views",https://www.domain.com.au/206-8-clay-drive-doncaster-vic-3108-17190655
17452588,DONCASTER,3108,700.0,3042.0,"Monday, 29 September 2025",2025-09-08,1,3,1,2,House,2/26 Kiewa Street,-37.788948,145.13976,2025-09-09 16:35:34,17452588,ZY-5281-ET,6,0,0,False,House,House,Barry Plant Manningham,7015,"Nonny Junsomran, Nick Mallisioras","Air conditioning, Built in wardrobes, Internal Laundry, Secure Parking, Bath, Heating",https://www.domain.com.au/2-26-kiewa-street-doncaster-vic-3108-17452588
17724744,DONCASTER,3108,650.0,2824.0,"Friday, 22 August 2025",2025-08-20,19,2,2,2,Apartment / Unit / Flat,103/632 Doncaster Road,-37.78752,145.12662,2025-09-09 16:35:34,17724744,,8,0,0,False,Apartment,Apartment / Unit / Flat, Jellis Craig & Company Pty Ltd,6525,Lachie Hollamby,Balcony / Deck,https://www.domain.com.au/103-632-doncaster-road-doncaster-vic-3108-17724744
17725963,DONCASTER,3108,830.0,3607.0,"Saturday, 20 September 2025",2025-08-21,19,4,2,2,House,13 Cason Street,-37.77849,145.11891,2025-09-09 16:35:34,17725963,,11,0,0,False,House,House, Woodards Manningham ,21971,"Virginia Sier, Manningham Rentals","Split System Air Con, Split System Heating, Dishwasher, Floorboards, Fully fenced, Gas, Outdoor Entertainment Area, Pets Allowed, Secure Parking, Built in wardrobes, Air conditioning, Study, Garden / Courtyard, Ensuite",https://www.domain.com.au/13-cason-street-doncaster-vic-3108-17725963
17729730,DONCASTER,3108,745.0,3237.0,"Wednesday, 03 September 2025",2025-08-25,15,4,2,2,House,7 Harcourt Street,-37.789547,145.11237,2025-09-09 16:35:34,17729730,,7,0,0,False,House,House,Hudson Bond,15409,Hudson Bond Rentals,"Air conditioning, Heating, Built in wardrobes, Close to transport, Close to shops, Close to schools, Ensuite, Car Parking - Surface, Openable Windows, Toilet Facilities, Window Treatments",https://www.domain.com.au/7-harcourt-street-doncaster-vic-3108-17729730
17746454,DONCASTER,3108,795.0,3454.0,"Friday, 12 September 2025",2025-09-04,5,3,2,2,Townhouse,4/723 Elgar Road,-37.794964,145.11923,2025-09-09 16:35:34,17746454,,13,0,1,False,Townhouse/Villa,Townhouse,Woodards Blackburn,3599,"Amy Hu, Angelica Martinez","Secure Parking, Heating, Air conditioning, Garden / Courtyard, Built in wardrobes, Dishwasher, Floorboards, Ensuite",https://www.domain.com.au/4-723-elgar-road-doncaster-vic-3108-17746454
17747000,DONCASTER,3108,650.0,2824.0,"Sunday, 28 September 2025",2025-09-04,5,2,2,1,Apartment / Unit / Flat,11/872 Doncaster Road,-37.78737,145.12477,2025-09-09 16:35:34,17747000,,10,0,1,False,Apartment,Apartment / Unit / Flat,Noel Jones Doncaster,11515,"Rentals Noel Jones Doncaster, Michelle D'Assisi","Internal Laundry, Built in wardrobes, Garden / Courtyard, Dishwasher, Floorboards, Intercom, Remote Garage, Reverse Cycle Air Conditioning, Air conditioning, Secure Parking",https://www.domain.com.au/11-872-doncaster-road-doncaster-vic-3108-17747000
17748321,DONCASTER,3108,1100.0,4780.0,"Monday, 29 September 2025",2025-09-05,4,5,3,2,House,1A Glenfern Avenue,-37.779,145.10414,2025-09-09 16:35:34,17748321,,6,0,0,False,House,House,Barry Plant Manningham,7015,"Nonny Junsomran, Alex Fassos","Gas, Secure Parking, Heating, Dishwasher, Bathtub",https://www.domain.com.au/1a-glenfern-avenue-doncaster-vic-3108-17748321
17748742,DONCASTER,3108,700.0,3042.0,"Monday, 13 October 2025",2025-09-05,4,2,2,2,Apartment / Unit / Flat,G03/20 Hepburn Road,-37.788387,145.12927,2025-09-09 16:35:34,17748742,,7,0,1,False,Apartment,Apartment / Unit / Flat,VICPROP Manningham,29196,Kaan Arel,"Internal Laundry, Secure Parking, Intercom, Heating, Study, Balcony / Deck",https://www.domain.com.au/g03-20-hepburn-road-doncaster-vic-3108-17748742
17749156,DONCASTER,3108,650.0,2824.0,"Friday, 05 September 2025",2025-09-05,4,3,2,1,Townhouse,54 Harvest Court,-37.77453,145.1293,2025-09-09 16:35:34,17749156,,10,0,0,False,Townhouse/Villa,Townhouse,Barry Plant Croydon,12205,Lisa Quigley,"Gas, Internal Laundry, Secure Parking, Dishwasher, Balcony / Deck, Built in wardrobes, Close to transport, Close to shops, Close to schools",https://www.domain.com.au/54-harvest-court-doncaster-vic-3108-17749156
17752212,DONCASTER,3108,395.0,1716.0,"Monday, 08 September 2025",2025-09-08,1,1,1,1,Apartment / Unit / Flat,13/10-16 Wetherby Road,-37.788055,145.14378,2025-09-09 16:35:34,17752212,,10,0,0,False,Apartment,Apartment / Unit / Flat,Haughton Stotts Real Estate,11284,Peter Ricardo,"Built in wardrobes, Secure Parking, Heating, Balcony / Deck",https://www.domain.com.au/13-10-16-wetherby-road-doncaster-vic-3108-17752212
17752620,DONCASTER,3108,910.0,3954.0,"Friday, 17 October 2025",2025-09-09,0,3,2,2,Townhouse,13 Hillingdon Crescent,-37.783604,145.106,2025-09-09 16:35:34,17752620,,10,0,0,False,Townhouse/Villa,Townhouse,RT Edgar Manningham,30446,Christie Joannides,"Air conditioning, Built in wardrobes, Garden / Courtyard, Dishwasher, Remote Garage, Gas",https://www.domain.com.au/13-hillingdon-crescent-doncaster-vic-3108-17752620
17752972,DONCASTER,3108,695.0,3020.0,"Saturday, 20 September 2025",2025-09-09,0,3,2,2,House,2/11 Curlew Court,-37.785713,145.13376,2025-09-09 16:35:34,17752972,,13,1,0,False,House,House,Ray White Blackburn,4665,Narelle Poloso,"Gas, Heating, Dishwasher, Air conditioning, Built in wardrobes, Secure Parking",https://www.domain.com.au/2-11-curlew-court-doncaster-vic-3108-17752972
17753071,DONCASTER,3108,760.0,3302.0,"Friday, 19 September 2025",2025-09-09,0,3,2,2,Townhouse,2/11 Paul Street,-37.787224,145.10326,2025-09-09 16:35:34,17753071,,8,0,0,False,Townhouse/Villa,Townhouse,Jellis Craig Doncaster,18680,"Tina Dekas, Samantha Newton","Gas, Split System Air Con, Split System Heating, Built in wardrobes, Garden / Courtyard, Balcony / Deck, Dishwasher, Floorboards, Outdoor Entertainment Area, Remote Garage, Secure Parking, Shed",https://www.domain.com.au/2-11-paul-street-doncaster-vic-3108-17753071
17753609,DONCASTER,3108,600.0,2607.0,"Monday, 27 March 2023",2025-09-09,0,3,1,1,Apartment / Unit / Flat,13 Paul Street,-37.787178,145.10304,2025-09-09 16:35:34,17753609,,7,0,0,False,Apartment,Apartment / Unit / Flat,Hudson Bond,15409,Hudson Bond Rentals,"Gas, Dishwasher, Shed, Air conditioning, Heating, Built in wardrobes, Close to transport, Close to shops, Close to schools, Openable Windows, Toilet Facilities, Window Treatments",https://www.domain.com.au/13-paul-street-doncaster-vic-3108-17753609
17753788,DONCASTER,3108,500.0,2173.0,"Friday, 10 October 2025",2025-09-09,0,1,1,1,Apartment / Unit / Flat,1004/5 Elgar Court,-37.788696,145.12404,2025-09-09 16:35:34,17753788,,10,0,0,False,Apartment,Apartment / Unit / Flat,RT Edgar Manningham,30446,Pamela Theoharakos,"Split System Air Con, Balcony / Deck, Intercom, Built in wardrobes, Dishwasher, Floorboards, Secure Parking",https://www.domain.com.au/1004-5-elgar-court-doncaster-vic-3108-17753788
17753826,DONCASTER,3108,1600.0,,"Monday, 08 September 2025",2025-09-09,0,4,3,2,Townhouse,153A Ayr St,-37.77354,145.1048,2025-09-09 16:35:34,17753826,,8,0,0,True,Townhouse/Villa,Townhouse,Colin Knight Real Estate,383,Justyn Knight,"Heating, Air conditioning, Dishwasher, Secure Parking",https://www.domain.com.au/153a-ayr-st-doncaster-vic-3108-17753826
17753862,DONCASTER,3108,1600.0,,"Monday, 08 September 2025",2025-09-09,0,4,3,2,Townhouse,153B Ayr St,-37.77357,145.10487,2025-09-09 16:35:34,17753862,,9,0,0,True,Townhouse/Villa,Townhouse,Colin Knight Real Estate,383,Justyn Knight,"Intercom, Heating, Air conditioning, Dishwasher, Secure Parking",https://www.domain.com.au/153b-ayr-st-doncaster-vic-3108-17753862
17753922,DONCASTER,3108,660.0,2868.0,"Thursday, 10 October 2024",2025-09-09,0,2,1,1,Apartment / Unit / Flat,622/642 Doncaster Road,-37.787575,145.12701,2025-09-09 16:35:34,17753922,,15,0,0,False,Apartment,Apartment / Unit / Flat,Hudson Bond,15409,Hudson Bond Rentals,"Internal Laundry, Air conditioning, Heating, Built in wardrobes, Close to shops, Close to schools, Car Parking - Surface, Openable Windows, Toilet Facilities, Window Treatments",https://www.domain.com.au/622-642-doncaster-road-doncaster-vic-3108-17753922
14925098,DONCASTER,3108,650.0,2824.0,"Tuesday, 16 September 2025",2025-08-18,22,2,2,1,Apartment / Unit / Flat,114/642 Doncaster Road,-37.787575,145.12701,2025-09-09 16:35:40,14925098,NX-0784-BS,18,1,0,False,Apartment,Apartment / Unit / Flat,Austrump Glen Pty Ltd,31049,"Angel Fang, Mary Navarro","Internal Laundry, Gym, Intercom, Study, Alarm System, Floorboards, Built in wardrobes, Dishwasher, Broadband, Split System Heating, Split System Air Conditioning, Outdoor Entertainment Area, Balcony, Remote Garage, Secure Parking, Above Ground Pool",https://www.domain.com.au/114-642-doncaster-road-doncaster-vic-3108-14925098
16953317,DONCASTER,3108,650.0,2824.0,"Thursday, 25 September 2025",2025-09-01,8,2,2,1,Apartment / Unit / Flat,LG4/802 Elgar Road,-37.78935,145.12357,2025-09-09 16:35:40,16953317,,9,0,0,False,Apartment,Apartment / Unit / Flat,Auspacific Box Hill Pty Ltd,37357,"Rental Department, Grace Lu","Balcony / Deck, Intercom, Alarm System, Built in wardrobes, Dishwasher, Gas Appliances, Split System Heating, Air conditioning, Courtyard, Secure Parking, Furnished",https://www.domain.com.au/lg4-802-elgar-road-doncaster-vic-3108-16953317
17350623,DONCASTER,3108,700.0,3042.0,"Friday, 12 September 2025",2025-09-01,8,2,2,1,Apartment / Unit / Flat,312/642 Doncaster Rd,-37.787586,145.127,2025-09-09 16:35:40,17350623,OU-5385-YF,9,0,0,False,Apartment,Apartment / Unit / Flat,Eighth Quarter Real Estate,22013,"Jane Huang, Charles Gao","Built in wardrobes, Furnished, Heating, Balcony / Deck",https://www.domain.com.au/312-642-doncaster-rd-doncaster-vic-3108-17350623
17696959,DONCASTER,3108,950.0,4127.0,"Monday, 08 September 2025",2025-08-01,39,4,3,2,Townhouse,6/165-170 George Street,-37.78014,145.14272,2025-09-09 16:35:40,17696959,,6,0,0,False,Townhouse/Villa,Townhouse,Jellis Craig Whitehorse,20157,"William Ferraro, Naomi Henderson","Gas, Heating, Air conditioning, Built in wardrobes, Garden / Courtyard, Dishwasher, Remote Garage, Floorboards",https://www.domain.com.au/6-165-170-george-street-doncaster-vic-3108-17696959
17700613,DONCASTER,3108,960.0,4171.0,"Monday, 11 August 2025",2025-08-05,35,5,2,2,House,46 Wetherby Road,-37.79092,145.14337,2025-09-09 16:35:40,17700613,,8,0,1,False,House,House,Barry Plant Manningham,7015,"Nonny Junsomran, Brian Jeon","Air conditioning, Secure Parking, Heating",https://www.domain.com.au/46-wetherby-road-doncaster-vic-3108-17700613
17704290,DONCASTER,3108,895.0,3889.0,"Tuesday, 05 August 2025",2025-08-06,33,3,3,2,House,7/285 George Street,-37.778152,145.13141,2025-09-09 16:35:40,17704290,,17,0,0,False,House,House,CHN Real Estate Group,29444,"Chris Sun, Winnie Wen","Internal Laundry, Heating",https://www.domain.com.au/7-285-george-street-doncaster-vic-3108-17704290
17711572,DONCASTER,3108,700.0,3042.0,"Monday, 11 August 2025",2025-08-12,28,2,2,1,Apartment / Unit / Flat,122/642 Doncaster Road,-37.787575,145.12701,2025-09-09 16:35:40,17711572,,11,0,0,False,Apartment,Apartment / Unit / Flat,Noel Jones Doncaster,11515,"Rentals Noel Jones Doncaster, Michelle D'Assisi","Secure Parking, Built-in Wardrobes;Dishwasher;Intercom, Floorboards, Furnished, Air conditioning, Heating",https://www.domain.com.au/122-642-doncaster-road-doncaster-vic-3108-17711572
17721554,DONCASTER,3108,530.0,2303.0,"Tuesday, 09 September 2025",2025-08-19,21,2,1,1,Apartment / Unit / Flat,114/101 Tram Road,-37.78773,145.12437,2025-09-09 16:35:40,17721554,,9,0,2,False,Apartment,Apartment / Unit / Flat,Jellis Craig Whitehorse,20157,Katrina George,"Built in wardrobes, Gas, Internal Laundry, Secure Parking, Dishwasher, Balcony / Deck",https://www.domain.com.au/114-101-tram-road-doncaster-vic-3108-17721554
17721915,DONCASTER,3108,800.0,3476.0,"Tuesday, 02 September 2025",2025-08-19,21,4,3,2,House,29 Burgundy Drive,-37.780186,145.11989,2025-09-09 16:35:40,17721915,,12,0,0,False,House,House,Jellis Craig Doncaster,18680,"Tina Dekas, Wayne Cheung","Bath, Balcony / Deck, Dishwasher, Ducted Heating, Evaporative Cooling, Floorboards, Secure Parking",https://www.domain.com.au/29-burgundy-drive-doncaster-vic-3108-17721915
17723214,DONCASTER,3108,750.0,3258.0,"Saturday, 23 August 2025",2025-08-20,20,4,2,2,House,18 Botanic Drive,-37.7786,145.13545,2025-09-09 16:35:40,17723214,,8,0,0,False,House,House,Jellis Craig Maroondah,4081,Amy Hindrum,Study,https://www.domain.com.au/18-botanic-drive-doncaster-vic-3108-17723214
17725123,DONCASTER,3108,1195.0,7170.0,"Friday, 22 August 2025",2025-08-21,19,4,3,2,Townhouse,27 Heyington Avenue,-37.793854,145.11276,2025-09-09 16:35:40,17725123,,11,0,0,False,Townhouse/Villa,Townhouse,Jellis Craig Doncaster,18680,"Tina Dekas, Kate Rolfe","Internal Laundry, Balcony / Deck, Built in wardrobes, Dishwasher, Ducted Cooling, Ducted Heating, Outdoor Entertainment Area, Remote Garage, Secure Parking, Rumpus Room, Air conditioning",https://www.domain.com.au/27-heyington-avenue-doncaster-vic-3108-17725123
17728170,DONCASTER,3108,849.0,3689.0,"Friday, 22 August 2025",2025-08-22,18,4,2,1,House,75 Turana Street,-37.78497,145.13097,2025-09-09 16:35:40,17728170,,13,0,1,False,House,House,VICPROP Manningham,29196,Kaan Arel,,https://www.domain.com.au/75-turana-street-doncaster-vic-3108-17728170
17732360,DONCASTER,3108,800.0,3476.0,"Monday, 01 September 2025",2025-08-26,14,3,3,2,Townhouse,7/2 Curlew Court,-37.786083,145.13457,2025-09-09 16:35:40,17732360,,12,0,1,False,Townhouse/Villa,Townhouse,A Dot Realty VIC,38737,"Clark Guan, A Dot Realty Leasing","Built in wardrobes, Internal Laundry, Secure Parking",https://www.domain.com.au/7-2-curlew-court-doncaster-vic-3108-17732360
17733248,DONCASTER,3108,545.0,2368.0,"Tuesday, 26 August 2025",2025-08-26,13,2,1,1,Apartment / Unit / Flat,906/632 Doncaster Road,-37.78752,145.12662,2025-09-09 16:35:40,17733248,,8,0,0,False,Apartment,Apartment / Unit / Flat,VICPROP Manningham,29196,Kaan Arel,"Built in wardrobes, Secure Parking, Intercom, Balcony / Deck",https://www.domain.com.au/906-632-doncaster-road-doncaster-vic-3108-17733248
17733265,DONCASTER,3108,500.0,2173.0,"Monday, 29 September 2025",2025-08-27,13,1,1,1,Apartment / Unit / Flat,104/1 Grosvenor Street,-37.783237,145.12825,2025-09-09 16:35:40,17733265,,10,0,1,False,Apartment,Apartment / Unit / Flat,MRE,20795,Lara Nicholson,"Air conditioning, Gas, Internal Laundry, Dishwasher, Balcony / Deck, Car Accom: Carport, Pool/Spa Count: 0",https://www.domain.com.au/104-1-grosvenor-street-doncaster-vic-3108-17733265
17734079,DONCASTER,3108,680.0,2955.0,"Monday, 15 September 2025",2025-08-27,13,3,1,1,House,86 Ayr Street,-37.78021,145.1032,2025-09-09 16:35:40,17734079,,8,0,1,False,House,House,VICPROP Manningham,29196,Kaan Arel,"Air conditioning, Heating",https://www.domain.com.au/86-ayr-street-doncaster-vic-3108-17734079
17736111,DONCASTER,3108,650.0,2825.0,"Friday, 19 September 2025",2025-08-28,12,2,2,1,Apartment / Unit / Flat,611/600 Doncaster Road,-37.78775,145.12415,2025-09-09 16:35:40,17736111,,13,0,0,False,Apartment,Apartment / Unit / Flat,Area Specialist Dynamic,38901,Radin Shojaei,"Ensuite, Air conditioning, Secure Parking, Intercom, Balcony / Deck, Built in wardrobes, Dishwasher, Floorboards, Gas Heating, Gym, Internal Laundry",https://www.domain.com.au/611-600-doncaster-road-doncaster-vic-3108-17736111
17737690,DONCASTER,3108,670.0,2911.0,"Friday, 05 September 2025",2025-08-29,11,2,2,1,Apartment / Unit / Flat,701/91-93 Tram Road,-37.789127,145.12492,2025-09-09 16:35:40,17737690,,10,1,1,True,Apartment,Apartment / Unit / Flat,Barry Plant Manningham,7015,"Jorja Ierardo, Nonny Junsomran","Internal Laundry, Intercom, Study, Floorboards, Built in wardrobes, Dishwasher, Bathtub, Gas Appliances, Ducted Heating, Ducted Air Conditioning, Ensuite(s), Outdoor Entertainment Area, Balcony, Remote Garage, Secure Parking, Fully fenced",https://www.domain.com.au/701-91-93-tram-road-doncaster-vic-3108-17737690
17743515,DONCASTER,3108,800.0,3476.0,"Monday, 08 September 2025",2025-09-02,7,3,2,2,Apartment / Unit / Flat,217/8 Berkeley Street,-37.785652,145.12807,2025-09-09 16:35:40,17743515,,7,0,1,False,Apartment,Apartment / Unit / Flat,Barry Plant Manningham,7015,"Jorja Ierardo, Nonny Junsomran","Intercom, Study, Floorboards, Built in wardrobes, Dishwasher, Broadband, Gas Appliances, Split System Heating, Split System Air Conditioning, Ensuite(s), Outdoor Entertainment Area, Balcony, Remote Garage, Secure Parking, Fully fenced, Pets Allowed",https://www.domain.com.au/217-8-berkeley-street-doncaster-vic-3108-17743515
17744625,DONCASTER,3108,650.0,2824.0,"Thursday, 23 October 2025",2025-09-03,6,2,1,1,Apartment / Unit / Flat,4/65-69 Turana Street,-37.785122,145.13159,2025-09-09 16:35:40,17744625,,6,0,0,False,Apartment,Apartment / Unit / Flat,Hudson Bond,15409,Hudson Bond Rentals,"Gas, Internal Laundry, Secure Parking, Heating, Dishwasher, Balcony / Deck, Air conditioning, Built in wardrobes, Close to transport, Close to shops, Close to schools, Furnished",https://www.domain.com.au/4-65-69-turana-street-doncaster-vic-3108-17744625
14217286,DONCASTER,3108,600.0,2607.0,"Tuesday, 20 June 2023",2023-06-15,817,4,2,2,House,32 Council Street,-37.78349,145.13034,2025-09-09 16:35:47,14217286,WJ-1387-XZ,8,0,0,False,House,House,VICPROP Melbourne,22748,Julie Yu,Heating,https://www.domain.com.au/32-council-street-doncaster-vic-3108-14217286
16523300,DONCASTER,3108,980.0,4259.0,"Friday, 27 June 2025",2023-06-20,812,4,3,2,Townhouse,4B3B/8-10 Toni Street,-37.782684,145.1315,2025-09-09 16:35:47,16523300,,12,1,0,False,Townhouse/Villa,Townhouse,BRW Group,34868,Support Team,,https://www.domain.com.au/4b3b-8-10-toni-street-doncaster-vic-3108-16523300
16771102,DONCASTER,3108,,3477.0,,2023-11-29,650,3,2,2,Townhouse,3 Kelly Street,-37.77957,145.1257,2025-09-09 16:35:47,16771102,NB-7169-GA,16,0,0,True,Townhouse/Villa,Townhouse,BRW Group,34868,,"Secure Parking, Dishwasher, Study, Balcony / Deck",https://www.domain.com.au/3-kelly-street-doncaster-vic-3108-16771102
17113807,DONCASTER,3108,650.0,2824.0,"Wednesday, 27 August 2025",2025-08-13,27,2,1,1,Apartment / Unit / Flat,621/642 Doncaster Road,-37.787575,145.12701,2025-09-09 16:35:47,17113807,HO-6060-EG,10,0,1,False,Apartment,Apartment / Unit / Flat,First National Avant - Box Hill,33756,Isabelle Chan,"Built in wardrobes, Internal Laundry, Secure Parking, Heating",https://www.domain.com.au/621-642-doncaster-road-doncaster-vic-3108-17113807
17261668,DONCASTER,3108,,10000.0,,2024-10-21,323,5,5,2,House,58 Stables Circuit,-37.78692,145.11641,2025-09-09 16:35:47,17261668,MJ-9047-CO,11,0,0,False,House,House,Harcourts Blackburn,37344,Sophia Cong,"Secure Parking, Heating, Ensuite, Furnished",https://www.domain.com.au/58-stables-circuit-doncaster-vic-3108-17261668
17348572,DONCASTER,3108,650.0,2824.0,"Wednesday, 03 September 2025",2025-08-01,39,2,2,1,Apartment / Unit / Flat,108/802 Elgar Road,-37.78935,145.12357,2025-09-09 16:35:47,17348572,IA-2206-UE,8,0,0,False,Apartment,Apartment / Unit / Flat,Auspacific Box Hill Pty Ltd,37357,"Rental Department, Grace Lu","Built in wardrobes, Dishwasher, Pets Allowed, Furnished",https://www.domain.com.au/108-802-elgar-road-doncaster-vic-3108-17348572
17455105,DONCASTER,3108,180.0,782.0,"Friday, 28 November 2025",2025-02-24,196,9,4,2,House,Room 103/36 Boyd Street,-37.792393,145.12415,2025-09-09 16:35:47,17455105,,9,0,1,False,House,House,McGrath Doncaster,38161,Cecilia Yao,,https://www.domain.com.au/room-103-36-boyd-street-doncaster-vic-3108-17455105
17533763,DONCASTER,3108,500.0,2173.0,"Wednesday, 16 April 2025",2025-04-16,146,2,1,2,Apartment / Unit / Flat,3/18 Firth Street,-37.786854,145.12189,2025-09-09 16:35:47,17533763,JT-2449-PV,8,0,0,False,Apartment,Apartment / Unit / Flat,Barry Plant Manningham,7015,"Tayla Opitz, Matilda Carroll","Built in wardrobes, Bathtub, Ducted Heating, Split System Air Conditioning, Balcony",https://www.domain.com.au/3-18-firth-street-doncaster-vic-3108-17533763
17628064,DONCASTER,3108,640.0,2780.0,"Wednesday, 18 June 2025",2025-06-19,82,2,2,1,Townhouse,5/9 Citrus Court,-37.790623,145.12431,2025-09-09 16:35:47,17628064,,11,0,1,False,Townhouse/Villa,Townhouse,MEPROP,37828,Johnny Ng,"Courtyard, Remote Garage, Built in wardrobes, Dishwasher, Floorboards, Air conditioning, Ensuite",https://www.domain.com.au/5-9-citrus-court-doncaster-vic-3108-17628064
17650576,DONCASTER,3108,525.0,2281.0,"Friday, 01 August 2025",2025-07-03,68,2,1,1,Apartment / Unit / Flat,3/15 Firth Street,-37.786564,145.12181,2025-09-09 16:35:47,17650576,,8,0,1,False,Apartment,Apartment / Unit / Flat,Barry Plant Manningham,7015,"Nonny Junsomran, Deep Sareen","Built in wardrobes, Internal Laundry, Secure Parking, Bath, Heating, Balcony / Deck",https://www.domain.com.au/3-15-firth-street-doncaster-vic-3108-17650576
17651156,DONCASTER,3108,550.0,2390.0,"Tuesday, 29 July 2025",2025-07-03,68,2,1,1,Apartment / Unit / Flat,214/101 Tram Road,-37.78773,145.12437,2025-09-09 16:35:47,17651156,,10,0,0,False,Apartment,Apartment / Unit / Flat,CHN Real Estate Group,29444,"Suki Chan, Winnie Wen","Built in wardrobes, Heating, Dishwasher, Balcony / Deck",https://www.domain.com.au/214-101-tram-road-doncaster-vic-3108-17651156
17657793,DONCASTER,3108,550.0,,"Monday, 28 July 2025",2025-07-08,63,2,1,1,Apartment / Unit / Flat,1012/5 Elgar Court,-37.788696,145.12404,2025-09-09 16:35:47,17657793,,12,0,0,False,Apartment,Apartment / Unit / Flat,Mandy Lee Real Estate ,15950,Iris Wu,"Built in wardrobes, Gym, Balcony / Deck",https://www.domain.com.au/1012-5-elgar-court-doncaster-vic-3108-17657793
17689765,DONCASTER,3108,670.0,2911.0,"Sunday, 24 August 2025",2025-07-29,42,2,2,1,Apartment / Unit / Flat,417/642 Doncaster Road,-37.787575,145.12701,2025-09-09 16:35:47,17689765,,6,0,0,False,Apartment,Apartment / Unit / Flat,VICPROP Manningham,29196,Kaan Arel,"Secure Parking, Gym, Intercom, Heating",https://www.domain.com.au/417-642-doncaster-road-doncaster-vic-3108-17689765
17702438,DONCASTER,3108,1150.0,4997.0,"Thursday, 04 September 2025",2025-08-06,34,4,3,2,House,83A Ayr Street,-37.779617,145.10382,2025-09-09 16:35:47,17702438,,5,0,0,False,House,House,Barry Plant Manningham,7015,"Nonny Junsomran, Rob Ryan","Secure Parking, Heating, Balcony / Deck",https://www.domain.com.au/83a-ayr-street-doncaster-vic-3108-17702438
17703410,DONCASTER,3108,650.0,2824.0,"Friday, 05 September 2025",2025-08-06,34,3,2,2,Townhouse,6/55-57 Wetherby Road,-37.791573,145.14244,2025-09-09 16:35:47,17703410,,9,0,0,False,Townhouse/Villa,Townhouse,Noel Jones Doncaster,11515,"Rentals Noel Jones Doncaster, Michelle D'Assisi","Secure Parking, Built in wardrobes, Dishwasher, Air conditioning, Heating",https://www.domain.com.au/6-55-57-wetherby-road-doncaster-vic-3108-17703410
17705090,DONCASTER,3108,745.0,3237.0,"Friday, 15 August 2025",2025-08-07,33,2,2,1,Townhouse,7/1-3 Curlew Court,-37.785725,145.13481,2025-09-09 16:35:47,17705090,,8,0,1,False,Townhouse/Villa,Townhouse,Harcourts Manningham,33307,Alana Kolders,"Gas, Secure Parking, Heating, Dishwasher",https://www.domain.com.au/7-1-3-curlew-court-doncaster-vic-3108-17705090
17713437,DONCASTER,3108,980.0,4258.0,"Wednesday, 10 September 2025",2025-08-13,27,4,2,3,House,5 Fleur La,-37.783474,145.11575,2025-09-09 16:35:47,17713437,,5,0,0,False,House,House,Frank Dowling,8167,Reception Frank Dowling,"Ensuite, Air conditioning, Secure Parking, Garden / Courtyard, Built in wardrobes, Dishwasher, Internal Laundry",https://www.domain.com.au/5-fleur-la-doncaster-vic-3108-17713437
17714547,DONCASTER,3108,740.0,3215.0,"Friday, 12 September 2025",2025-08-13,26,2,2,1,Apartment / Unit / Flat,315/642 Doncaster Road,-37.787575,145.12701,2025-09-09 16:35:47,17714547,,13,0,0,False,Apartment,Apartment / Unit / Flat,VICPROP Manningham,29196,Kaan Arel,,https://www.domain.com.au/315-642-doncaster-road-doncaster-vic-3108-17714547
17716921,DONCASTER,3108,750.0,3259.0,"Wednesday, 03 September 2025",2025-08-15,25,2,2,2,Apartment / Unit / Flat,G01/65 Stables Circuit,-37.78706,145.11533,2025-09-09 16:35:47,17716921,,11,0,1,False,Apartment,Apartment / Unit / Flat,Real Estate Services by Mirvac,29175,"Sienna Parrillo, Zac Batticciotto","Bedrooms, Bathrooms, Secure Parking",https://www.domain.com.au/g01-65-stables-circuit-doncaster-vic-3108-17716921
