listing_id,suburb,postcode,weekly_rent,bond,available_date,date_listed,days_listed,bedrooms,bathrooms,carspaces,property_type,address,lat,lon,scraped_date,domain_page_id,property_id,photo_count,video_count,floorplans_count,virtual_tour,primary_type,secondary_type,agency,agency_id,agent_names,structured_features,url
17135689,DONNYBROOK,3064,595.0,2578.0,"Wednesday, 21 August 2024",2025-07-29,41,4,2,2,House,12 Forresters Road,-37.54449,145.01248,2025-09-09 16:48:00,17135689,ZD-5775-WO,3,0,0,False,House,House,Raine & Horne Blackburn,29609,"Rupa Mane, Patrick Mane","Internal Laundry, Secure Parking, Dishwasher, Ensuite",https://www.domain.com.au/12-forresters-road-donnybrook-vic-3064-17135689
17648239,DONNYBROOK,3064,495.0,2145.0,"Friday, 11 July 2025",2025-07-01,69,4,2,2,House,13 Mound Avenue,-37.535957,144.98734,2025-09-09 16:48:00,17648239,,11,0,0,False,House,House,KLK Real Estate,38371,Leila Khaled,"Internal Laundry, Secure Parking, Heating",https://www.domain.com.au/13-mound-avenue-donnybrook-vic-3064-17648239
17653856,DONNYBROOK,3064,580.0,2520.0,"Friday, 04 July 2025",2025-07-04,67,4,2,2,House,26 Feedwater Road,-37.53969,144.97939,2025-09-09 16:48:00,17653856,,16,0,0,False,House,House,Bombay Real Estate Pty Ltd,29247,Eminda Ruwin,,https://www.domain.com.au/26-feedwater-road-donnybrook-vic-3064-17653856
17696249,DONNYBROOK,3064,495.0,2145.0,"Friday, 01 August 2025",2025-08-01,39,4,2,2,House,8 Bawley Road,-37.544678,145.01857,2025-09-09 16:48:00,17696249,,14,0,0,False,House,House,Pinewoods,39169,"Rady Sandhu, Shailesh Goswami","Internal Laundry, Secure Parking, Heating, Dishwasher, Ensuite",https://www.domain.com.au/8-bawley-road-donnybrook-vic-3064-17696249
17708712,DONNYBROOK,3064,480.0,2086.0,"Monday, 25 August 2025",2025-08-11,29,3,2,2,House,22 Thornbury Street,-37.54669,144.96031,2025-09-09 16:48:00,17708712,,16,0,1,False,House,House,Bombay Real Estate Pty Ltd,29247,Samantha Ashley,"Built in wardrobes, Heating, Solar panels, Balcony / Deck",https://www.domain.com.au/22-thornbury-street-donnybrook-vic-3064-17708712
17715136,DONNYBROOK,3064,530.0,2303.0,"Tuesday, 12 August 2025",2025-08-14,26,4,2,2,House,54 Farm Crescent,-37.534676,144.98839,2025-09-09 16:48:00,17715136,,16,0,0,False,House,House,Bombay Real Estate Pty Ltd,29247,Samantha Ashley,"Built in wardrobes, Heating, Dishwasher",https://www.domain.com.au/54-farm-crescent-donnybrook-vic-3064-17715136
17722523,DONNYBROOK,3064,470.0,2042.0,"Tuesday, 19 August 2025",2025-08-19,21,3,2,2,House,3A Spring Road,-37.542164,144.96858,2025-09-09 16:48:00,17722523,,12,0,0,False,House,House,Bombay Real Estate Pty Ltd,29247,"Amandeep Kaur, Samantha Ashley","Internal Laundry, Secure Parking, Heating",https://www.domain.com.au/3a-spring-road-donnybrook-vic-3064-17722523
17732869,DONNYBROOK,3064,480.0,2085.0,"Tuesday, 26 August 2025",2025-08-26,14,4,2,2,House,7 Bluey's Rd,-37.541298,145.0149,2025-09-09 16:48:00,17732869,,11,0,0,False,House,House,Reventon Residential,26980,Chantelle Boudoloh,"Alarm System, Rumpus Room, Floorboards, Built in wardrobes, Dishwasher, Bathtub, Gas Appliances, Ducted Heating, Evaporative Cooling, Remote Garage, Fully fenced",https://www.domain.com.au/7-bluey-s-rd-donnybrook-vic-3064-17732869
17739770,DONNYBROOK,3064,450.0,1955.0,"Friday, 29 August 2025",2025-09-01,8,3,2,2,House,31 Pitton Walk,-37.550243,144.96176,2025-09-09 16:48:00,17739770,,12,1,0,False,House,House,Ray White Craigieburn,4110,Ray White Craigieburn,"Internal Laundry, Bath, Built in wardrobes, Heating, Dishwasher, Secure Parking",https://www.domain.com.au/31-pitton-walk-donnybrook-vic-3064-17739770
17742852,DONNYBROOK,3064,560.0,2433.0,"Tuesday, 02 September 2025",2025-09-02,7,4,3,2,House,13 Cheddar Street,-37.54831,144.99684,2025-09-09 16:48:00,17742852,,18,0,0,False,House,House,Bombay Real Estate Pty Ltd,29247,"Samantha Ashley, Eminda Ruwin","Secure Parking, Heating, Ensuite",https://www.domain.com.au/13-cheddar-street-donnybrook-vic-3064-17742852
17744215,DONNYBROOK,3064,520.0,2260.0,"Tuesday, 02 September 2025",2025-09-02,6,4,2,2,House,14 Dome Avenue,-37.541912,144.98602,2025-09-09 16:48:00,17744215,,11,0,0,False,House,House,THE LANCORE WEST AND NORTH,35534,Jot  Dhaliwal,,https://www.domain.com.au/14-dome-avenue-donnybrook-vic-3064-17744215
17750518,DONNYBROOK,3064,515.0,2238.0,"Monday, 13 October 2025",2025-09-08,1,4,2,2,House,549 Cameron Street,-37.52649,144.95776,2025-09-09 16:48:00,17750518,,14,0,0,False,House,House,Bombay Real Estate Pty Ltd,29247,"Samantha Ashley, Eminda Ruwin","Secure Parking, Heating",https://www.domain.com.au/549-cameron-street-donnybrook-vic-3064-17750518
17751137,DONNYBROOK,3064,670.0,2911.0,"Monday, 08 September 2025",2025-09-08,1,6,3,2,House,3 Arizona Circuit,-37.543926,144.98851,2025-09-09 16:48:00,17751137,,29,0,1,False,House,House,Bombay Real Estate Pty Ltd,29247,"Eminda Ruwin, Samantha Ashley","Dishwasher, Study",https://www.domain.com.au/3-arizona-circuit-donnybrook-vic-3064-17751137
17751154,DONNYBROOK,3064,500.0,2173.0,"Monday, 08 September 2025",2025-09-08,1,4,2,2,House,3 Dome Avenue,-37.541393,144.98648,2025-09-09 16:48:00,17751154,,11,1,0,False,House,House,Ray White Craigieburn,4110,Ray White Craigieburn,"Internal Laundry, Secure Parking, Intercom, Bath, Heating, Dishwasher",https://www.domain.com.au/3-dome-avenue-donnybrook-vic-3064-17751154
17751309,DONNYBROOK,3064,420.0,1825.0,"Monday, 08 September 2025",2025-09-08,1,3,2,2,House,16 Molesworth Crescent,-37.54088,144.99054,2025-09-09 16:48:00,17751309,,15,0,0,False,House,House,Barry Plant Craigieburn,15326,Melissa Chatfield,"Bath, Dishwasher",https://www.domain.com.au/16-molesworth-crescent-donnybrook-vic-3064-17751309
17753376,DONNYBROOK,3064,500.0,2167.0,"Wednesday, 10 September 2025",2025-09-09,0,4,2,2,House,10 Greenwood Road,-37.53753,144.97057,2025-09-09 16:48:00,17753376,,10,0,0,False,House,House,YPA Craigieburn,21927,Ypa Craigieburn,"Secure Parking, Bath, Heating",https://www.domain.com.au/10-greenwood-road-donnybrook-vic-3064-17753376
17753757,DONNYBROOK,3064,560.0,2433.0,"Tuesday, 09 September 2025",2025-09-09,0,4,2,2,House,15 Coach Dve,-37.5425,144.99954,2025-09-09 16:48:00,17753757,,15,0,0,False,House,House,Nexa Real Estate,38987,Rental,Secure Parking,https://www.domain.com.au/15-coach-dve-donnybrook-vic-3064-17753757
17753865,DONNYBROOK,3064,420.0,1825.0,"Saturday, 13 September 2025",2025-09-09,0,3,2,1,House,42 Brown Boulevard,-37.54097,144.98833,2025-09-09 16:48:00,17753865,,11,0,0,False,House,House,Stockdale & Leggo Craigieburn/Mickleham,31877,"Lauren Vicary, Daniel Morlacci-Fortuna","Air conditioning, Ensuite, Built in wardrobes, Internal Laundry, Bath, Heating, Dishwasher, Secure Parking",https://www.domain.com.au/42-brown-boulevard-donnybrook-vic-3064-17753865
17754336,DONNYBROOK,3064,490.0,2129.0,"Wednesday, 08 October 2025",2025-09-09,0,3,2,2,House,3 Hamlet Drive,-37.535538,144.9991,2025-09-09 16:48:00,17754336,,10,0,0,False,House,House,My Agent Real Estate,18474,Adrian Anastovski,Broadband internet access,https://www.domain.com.au/3-hamlet-drive-donnybrook-vic-3064-17754336
17754348,DONNYBROOK,3064,530.0,2303.0,"Tuesday, 09 September 2025",2025-09-09,0,4,2,2,House,56 Brown Boulevard,-37.540936,144.98697,2025-09-09 16:48:00,17754348,,10,0,0,False,House,House,Hockingstuart Epping,26544,Jass Kaur,Heating,https://www.domain.com.au/56-brown-boulevard-donnybrook-vic-3064-17754348
16567823,DONNYBROOK,3064,470.0,2042.0,"Monday, 16 June 2025",2025-05-29,102,4,2,2,House,82 Molesworth Crescent,-37.53823,144.99068,2025-09-09 16:48:06,16567823,HZ-5920-EB,21,1,0,False,House,House,Ray White Craigieburn,4110,Ray White Craigieburn,"Internal Laundry, Heating, Dishwasher, Secure Parking",https://www.domain.com.au/82-molesworth-crescent-donnybrook-vic-3064-16567823
16700317,DONNYBROOK,3064,480.0,2086.0,"Monday, 25 August 2025",2025-08-15,24,3,2,2,House,28 Molesworth Crescent,-37.540977,144.99136,2025-09-09 16:48:06,16700317,YE-6722-IY,22,1,0,False,House,House,Ray White Craigieburn,4110,Ray White Craigieburn,"Built in wardrobes, Heating, Dishwasher",https://www.domain.com.au/28-molesworth-crescent-donnybrook-vic-3064-16700317
17173117,DONNYBROOK,3064,550.0,2390.0,"Wednesday, 25 September 2024",2025-08-13,27,4,2,2,House,53 Ashbourne Boulevard,-37.54604,144.95705,2025-09-09 16:48:06,17173117,KE-9473-HQ,21,0,1,False,House,House,Ray White Craigieburn,4110,Ray White Craigieburn,"Internal Laundry, Bath, Air conditioning, Built in wardrobes, Heating, Dishwasher, Secure Parking",https://www.domain.com.au/53-ashbourne-boulevard-donnybrook-vic-3064-17173117
17531573,DONNYBROOK,3064,615.0,2738.0,"Tuesday, 15 April 2025",2025-09-03,5,4,3,2,House,40 Mound Avenue,-37.535603,144.98897,2025-09-09 16:48:06,17531573,HX-5961-VE,15,0,1,False,House,House,M&K Investment Solutions,38179,,"Fully fenced, Outdoor Entertainment Area, Remote Garage, Alarm System, Built in wardrobes, Dishwasher, Floorboards, Intercom, Ducted Heating, Reverse Cycle Air Conditioning, Ensuite, Pets Allowed",https://www.domain.com.au/40-mound-avenue-donnybrook-vic-3064-17531573
17669631,DONNYBROOK,3064,500.0,2296.0,"Tuesday, 15 July 2025",2025-07-15,56,4,2,2,House,18 Awbridge Drive,-37.551804,144.96419,2025-09-09 16:48:06,17669631,,18,0,0,False,House,House,SKAD REAL ESTATE THOMASTOWN,30016,Sarwan Sandhu,"Secure Parking, Heating, Study",https://www.domain.com.au/18-awbridge-drive-donnybrook-vic-3064-17669631
17669654,DONNYBROOK,3064,500.0,2166.0,"Wednesday, 16 July 2025",2025-07-15,56,4,2,2,House,19 Bearing Street,-37.542007,144.97632,2025-09-09 16:48:06,17669654,,14,0,0,False,House,House,Bombay Real Estate Pty Ltd,29247,Eminda Ruwin,"Internal Laundry, Secure Parking, Heating, Dishwasher",https://www.domain.com.au/19-bearing-street-donnybrook-vic-3064-17669654
17701219,DONNYBROOK,3064,499.0,2168.0,"Friday, 08 August 2025",2025-08-05,35,4,2,1,House,3 Mound Avenue,-37.53588,144.98665,2025-09-09 16:48:06,17701219,,13,0,1,False,House,House,Csquare Craigieburn Group Pty Ltd,34921,"Brooke Johnson, Rental Management","Intercom, Bath, Heating, Dishwasher",https://www.domain.com.au/3-mound-avenue-donnybrook-vic-3064-17701219
17710658,DONNYBROOK,3064,470.0,2036.0,"Friday, 15 August 2025",2025-08-12,28,4,2,2,House,9 Acres Road,-37.528965,145.00099,2025-09-09 16:48:06,17710658,,11,0,0,False,House,House,Csquare Craigieburn Group Pty Ltd,34921,"Hana Merhi, Brooke Johnson","Secure Parking, Heating",https://www.domain.com.au/9-acres-road-donnybrook-vic-3064-17710658
17716243,DONNYBROOK,3064,480.0,2086.0,"Thursday, 14 August 2025",2025-08-14,26,4,2,2,House,9 Brotus Way,-37.540085,144.99084,2025-09-09 16:48:06,17716243,,7,0,1,False,House,House,The Avenue Property Co. Pty Ltd,28108,"Paulina Porras PM, Katherine Lopez","Secure Parking, Bath, Air conditioning, Built in wardrobes, Garden / Courtyard",https://www.domain.com.au/9-brotus-way-donnybrook-vic-3064-17716243
17716745,DONNYBROOK,3064,520.0,2259.0,"Thursday, 25 September 2025",2025-08-15,25,4,2,2,House,3 Vestige Street,-37.542976,144.97868,2025-09-09 16:48:06,17716745,,12,0,0,False,House,House,Mann Estate Agents,32483,"Priyanka (Priya) Mukherjee, Jaswinder Pal Singh",Secure Parking,https://www.domain.com.au/3-vestige-street-donnybrook-vic-3064-17716745
17733783,DONNYBROOK,3064,500.0,2172.0,"Thursday, 28 August 2025",2025-08-27,13,4,2,2,House,15 Heaton Rd,-37.541965,145.01526,2025-09-09 16:48:06,17733783,,8,0,1,False,House,House,Reventon Residential,26980,Chantelle Boudoloh,"Alarm System, Rumpus Room, Floorboards, Built in wardrobes, Dishwasher, Bathtub, Gas Appliances, Ducted Heating, Evaporative Cooling, Remote Garage, Fully fenced",https://www.domain.com.au/15-heaton-rd-donnybrook-vic-3064-17733783
17741024,DONNYBROOK,3064,450.0,,"Saturday, 20 September 2025",2025-09-01,8,3,2,2,House,27 Rochford Drive,-37.5474,144.96448,2025-09-09 16:48:06,17741024,,9,0,0,False,House,House,OBrien Real Estate Preston/Reservoir,30751,Anna Varrica,"Secure Parking, Heating, Dishwasher",https://www.domain.com.au/27-rochford-drive-donnybrook-vic-3064-17741024
17741483,DONNYBROOK,3064,490.0,2129.0,"Tuesday, 23 September 2025",2025-09-01,8,3,2,2,House,25 Albida Street,-37.535892,144.99196,2025-09-09 16:48:06,17741483,,12,0,0,False,House,House,Hockingstuart Epping,26544,Deepak Bawa,"Close to transport, Close to shops, Pets Allowed, Close to schools, Ensuite, Floorboards, Secure Parking",https://www.domain.com.au/25-albida-street-donnybrook-vic-3064-17741483
17741487,DONNYBROOK,3064,550.0,2390.0,"Saturday, 06 September 2025",2025-09-01,8,4,2,2,House,11 Tarrengower Street,-37.544037,145.01047,2025-09-09 16:48:06,17741487,,12,0,0,False,House,House,Hockingstuart Epping,26544,Deepak Bawa,"Heating, Air conditioning, Built in wardrobes, Close to transport, Close to shops, Alarm System, Close to schools, Security Access, Prestige Homes, Floorboards, Fully fenced, Secure Parking, Window Treatments, Broadband Internet Available, Dishwasher",https://www.domain.com.au/11-tarrengower-street-donnybrook-vic-3064-17741487
17742795,DONNYBROOK,3064,470.0,2043.0,"Monday, 29 September 2025",2025-09-02,7,3,2,2,House,7 Henty Walk,-37.54106,144.97707,2025-09-09 16:48:06,17742795,,11,0,0,False,House,House,Areal Property - Melbourne,35843,Rayna Hao,"Secure Parking, Garden / Courtyard, Fully fenced, Dishwasher, Gas Heating, Internal Laundry",https://www.domain.com.au/7-henty-walk-donnybrook-vic-3064-17742795
17743506,DONNYBROOK,3064,450.0,1955.0,"Tuesday, 09 September 2025",2025-09-02,7,3,2,2,House,7 Lazuli Road,-37.535557,144.98058,2025-09-09 16:48:06,17743506,,11,0,0,False,House,House,Chwyla,37349,"Bri McIntyre, Hayley Baker","Secure Parking, Solar panels",https://www.domain.com.au/7-lazuli-road-donnybrook-vic-3064-17743506
17743600,DONNYBROOK,3064,520.0,2260.0,"Tuesday, 02 September 2025",2025-09-02,7,4,2,2,House,7 Hawkesbury Drive,-37.540344,144.96864,2025-09-09 16:48:06,17743600,,11,0,1,False,House,House,Hockingstuart Epping,26544,Nav Gunerathna*,,https://www.domain.com.au/7-hawkesbury-drive-donnybrook-vic-3064-17743600
17745323,DONNYBROOK,3064,530.0,2297.0,"Friday, 05 September 2025",2025-09-03,6,4,3,2,House,12 Butter Way,-37.539894,144.99059,2025-09-09 16:48:06,17745323,,13,0,0,False,House,House,Nexa Real Estate,38987,"Prabhjot SINGH, Mohit  Jain","Fully fenced, Remote Garage, Secure Parking, Built in wardrobes, Dishwasher, Floorboards, Intercom, Ducted Heating, Evaporative Cooling, Ensuite",https://www.domain.com.au/12-butter-way-donnybrook-vic-3064-17745323
17747036,DONNYBROOK,3064,530.0,2303.0,"Tuesday, 23 September 2025",2025-09-04,5,4,2,2,House,65 Hardwood Grove,-37.542564,144.96875,2025-09-09 16:48:06,17747036,,10,0,0,False,House,House,LJ Hooker Craigieburn,20696,Aiden Be-Hanna,"Internal Laundry, Built in wardrobes, Dishwasher, Heating, Air conditioning, Remote Garage, Ensuite",https://www.domain.com.au/65-hardwood-grove-donnybrook-vic-3064-17747036
17747242,DONNYBROOK,3064,530.0,2303.0,"Sunday, 21 September 2025",2025-09-04,5,4,2,2,House,19 Brown Boulevard,-37.54147,144.98969,2025-09-09 16:48:06,17747242,,12,0,0,False,House,House,THE AGENTS EXCELLENCE IN REAL ESTATE,32651,"Sandy Agrawal, Leasing Team","Internal Laundry, Secure Parking, Air conditioning, Heating, Built in wardrobes, Close to transport, Close to shops, Close to schools, Ensuite, Study",https://www.domain.com.au/19-brown-boulevard-donnybrook-vic-3064-17747242
17146337,DONNYBROOK,3064,490.0,2129.0,"Wednesday, 27 August 2025",2025-08-26,14,4,2,2,House,90 Farm Crescent,-37.534977,144.99124,2025-09-09 16:48:11,17146337,LH-2651-AX,16,0,1,False,House,House,SKAD REAL ESTATE THOMASTOWN,30016,Rental Team,"Built in wardrobes, Internal Laundry, Secure Parking, Heating, Dishwasher",https://www.domain.com.au/90-farm-crescent-donnybrook-vic-3064-17146337
17606642,DONNYBROOK,3064,490.0,2000.0,"Wednesday, 04 June 2025",2025-06-04,96,4,2,2,House,16 Awbridge Drive,-37.55179,144.96405,2025-09-09 16:48:11,17606642,,17,0,0,False,House,House,SKAD REAL ESTATE THOMASTOWN,30016,Sarwan Sandhu,"Secure Parking, Heating, Study",https://www.domain.com.au/16-awbridge-drive-donnybrook-vic-3064-17606642
17676549,DONNYBROOK,3064,530.0,2303.0,"Monday, 11 August 2025",2025-07-19,52,4,2,3,House,78 Brown Boulevard,-37.54075,144.98521,2025-09-09 16:48:11,17676549,,10,0,0,True,House,House,Harcourts Coburg,34825,"Shae Williams, Amber Howlett","Air conditioning, Ensuite, Built in wardrobes, Internal Laundry, Bath, Heating, Dishwasher, Secure Parking, Solar panels",https://www.domain.com.au/78-brown-boulevard-donnybrook-vic-3064-17676549
17696310,DONNYBROOK,3064,520.0,2260.0,"Monday, 11 August 2025",2025-08-01,39,4,2,2,House,58 Hardwood Grove,-37.532448,145.00209,2025-09-09 16:48:11,17696310,,11,0,0,False,House,House,Krish Real Estate,38890,"Chirag Yadav, ROHAN RANA","Fully fenced, Outdoor Entertainment Area, Remote Garage, Secure Parking, Dishwasher, Floorboards, Ducted Heating, Evaporative Cooling, Ensuite",https://www.domain.com.au/58-hardwood-grove-donnybrook-vic-3064-17696310
17704066,DONNYBROOK,3064,500.0,2173.0,"Tuesday, 26 August 2025",2025-08-06,33,4,3,2,House,93 Springs Road,-37.538883,144.97028,2025-09-09 16:48:11,17704066,,14,0,0,False,House,House,One Group Realty,32679,"Chantell Hawzi, Kalley Singh","Internal Laundry, Heating, Dishwasher, Study, Ensuite",https://www.domain.com.au/93-springs-road-donnybrook-vic-3064-17704066
17705118,DONNYBROOK,3064,500.0,2173.0,"Wednesday, 13 August 2025",2025-08-07,33,4,2,2,House,12 Shelly Street,-37.5414,145.01373,2025-09-09 16:48:11,17705118,,11,0,0,False,House,House,THE LANCORE WEST AND NORTH,35534,"Jot  Dhaliwal, HK  Dhindsa",,https://www.domain.com.au/12-shelly-street-donnybrook-vic-3064-17705118
17720562,DONNYBROOK,3064,595.0,2586.0,"Monday, 18 August 2025",2025-08-18,22,4,2,2,House,18 Pollen Place,-37.544693,144.9964,2025-09-09 16:48:11,17720562,,5,0,0,False,House,House,Capital & Co. Real Estate,32201,Nayyab Fatima,"Secure Parking, Solar panels, Ensuite",https://www.domain.com.au/18-pollen-place-donnybrook-vic-3064-17720562
17721672,DONNYBROOK,3064,495.0,2151.0,"Monday, 06 October 2025",2025-08-19,21,3,2,2,Townhouse,32B Hardwood Grove,-37.532223,145.0003,2025-09-09 16:48:11,17721672,,12,0,0,False,Townhouse/Villa,Townhouse,Harcourts Rata & Co,30123,Monique Di Domenica,"Gas, Built in wardrobes, Close to schools, Ensuite, Openable Windows",https://www.domain.com.au/32b-hardwood-grove-donnybrook-vic-3064-17721672
17723433,DONNYBROOK,3064,500.0,2172.0,"Monday, 18 August 2025",2025-08-20,20,4,2,2,House,6 Golden Parkway,-37.53612,144.97997,2025-09-09 16:48:11,17723433,,13,0,0,False,House,House,Ray White Wollert,38147,Bassam Mansour,Heating,https://www.domain.com.au/6-golden-parkway-donnybrook-vic-3064-17723433
17723529,DONNYBROOK,3064,550.0,2389.0,"Tuesday, 16 September 2025",2025-08-20,20,4,2,2,House,39 Boomerang Road,-37.547077,145.01509,2025-09-09 16:48:11,17723529,,19,0,0,False,House,House,Reliance Craigieburn,36313,Sushmitha Kaparthi,"Secure Parking, Study",https://www.domain.com.au/39-boomerang-road-donnybrook-vic-3064-17723529
17725912,DONNYBROOK,3064,500.0,2173.0,"Thursday, 04 September 2025",2025-08-21,19,4,2,2,House,16 Radius Walk,-37.537987,144.97632,2025-09-09 16:48:11,17725912,,16,0,0,False,House,House,SKAD REAL ESTATE THOMASTOWN,30016,Arun Rangi,"Secure Parking, Bath, Heating",https://www.domain.com.au/16-radius-walk-donnybrook-vic-3064-17725912
17726083,DONNYBROOK,3064,610.0,2650.0,"Thursday, 21 August 2025",2025-08-21,19,4,2,2,House,6 Cycad Avenue,-37.540737,144.99837,2025-09-09 16:48:11,17726083,,15,0,0,False,House,House,Hockingstuart Epping,26544,Deepak Bawa,"Air conditioning, Close to transport, Close to shops, Alarm System, Close to schools, Prestige Homes, Pay TV Access",https://www.domain.com.au/6-cycad-avenue-donnybrook-vic-3064-17726083
17727143,DONNYBROOK,3064,495.0,2151.0,"Friday, 26 September 2025",2025-08-22,18,4,2,3,House,29 Boomerang Road,-37.546658,145.01491,2025-09-09 16:48:11,17727143,,10,0,0,False,House,House,Harcourts Rata & Co,30123,Vanessa Vescio,"Gas, Heating, Close to schools, Openable Windows, Split System Cooling, Dishwasher",https://www.domain.com.au/29-boomerang-road-donnybrook-vic-3064-17727143
17730131,DONNYBROOK,3064,580.0,2513.0,"Monday, 25 August 2025",2025-08-25,15,4,2,2,House,4 Molesworth Crescent,-37.54073,144.98975,2025-09-09 16:48:11,17730131,,19,0,1,False,House,House,Nexa Real Estate,38987,"Prabhjot SINGH, Mohit  Jain","Pets Allowed, Fully fenced, Remote Garage, Secure Parking, Broadband Internet Available, Built in wardrobes, Dishwasher, Floorboards, Ensuite",https://www.domain.com.au/4-molesworth-crescent-donnybrook-vic-3064-17730131
17734035,DONNYBROOK,3064,520.0,2260.0,"Wednesday, 10 September 2025",2025-08-27,13,4,2,2,House,21 Vestige Street,-37.541668,144.97899,2025-09-09 16:48:11,17734035,,8,0,2,False,House,House,Harcourts Rata & Co,30123,"George Stavrakis, Monique Di Domenica","Secure Parking, Heating, Built in wardrobes, Close to transport, Ensuite, Openable Windows, Dishwasher",https://www.domain.com.au/21-vestige-street-donnybrook-vic-3064-17734035
17735676,DONNYBROOK,3064,470.0,2042.0,"Wednesday, 27 August 2025",2025-08-27,12,4,2,2,House,1B Ballina Crescent,-37.543175,145.01744,2025-09-09 16:48:11,17735676,,8,0,0,True,House,House,Motion Property,8551,Sabrina El-Hares,Pets Allowed,https://www.domain.com.au/1b-ballina-crescent-donnybrook-vic-3064-17735676
17737695,DONNYBROOK,3064,500.0,2173.0,"Monday, 15 September 2025",2025-08-29,11,4,2,2,House,3 Yancey Street,-37.528687,144.99796,2025-09-09 16:48:11,17737695,,10,0,0,False,House,House,Harcourts Rata & Co,30123,Taleisha Roberts,"Gas, Internal Laundry, Secure Parking, Air conditioning, Heating, Built in wardrobes, Ensuite, Openable Windows, Cooling, Dishwasher",https://www.domain.com.au/3-yancey-street-donnybrook-vic-3064-17737695
17738460,DONNYBROOK,3064,430.0,1868.0,"Friday, 29 August 2025",2025-08-29,11,2,2,1,Townhouse,35 Pitton Walk,-37.55023,144.96164,2025-09-09 16:48:11,17738460,,10,1,1,False,Townhouse/Villa,Townhouse,Ray White Brunswick,21490,"Hassan Allouche, Property Management Brunswick",,https://www.domain.com.au/35-pitton-walk-donnybrook-vic-3064-17738460
17740577,DONNYBROOK,3064,450.0,1955.0,"Monday, 01 September 2025",2025-09-01,8,3,2,2,Townhouse,11 Pitton Walk,-37.542564,144.96875,2025-09-09 16:48:11,17740577,,10,1,1,False,Townhouse/Villa,Townhouse,Ray White Brunswick,21490,"Hassan Allouche, Property Management Brunswick",,https://www.domain.com.au/11-pitton-walk-donnybrook-vic-3064-17740577
17741231,DONNYBROOK,3064,450.0,1955.0,"Wednesday, 03 September 2025",2025-09-01,8,2,2,1,House,9 Pitton Walk,-37.542564,144.96875,2025-09-09 16:48:11,17741231,,11,0,1,False,House,House,Performance Asset Management Melbourne,35595,Leasing Concierge,"Built in wardrobes, Bathtub, Gas Appliances, Split System Heating, Split System Air Conditioning, Ensuite(s), Balcony",https://www.domain.com.au/9-pitton-walk-donnybrook-vic-3064-17741231
15214443,DONNYBROOK,3064,490.0,2129.0,"Monday, 28 July 2025",2025-06-26,75,4,2,2,House,10 Artful Street,-37.54279,144.97786,2025-09-09 16:48:16,15214443,CE-2918-WE,15,0,0,False,House,House,SKAD REAL ESTATE THOMASTOWN,30016,Rental Team,"Secure Parking, Heating",https://www.domain.com.au/10-artful-street-donnybrook-vic-3064-15214443
16758918,DONNYBROOK,3064,500.0,2173.0,"Monday, 04 August 2025",2025-07-04,67,4,2,2,House,13 Swanmore Road,-37.544884,144.96156,2025-09-09 16:48:16,16758918,FU-5991-YK,13,0,0,False,House,House,SKAD REAL ESTATE THOMASTOWN,30016,"Sunil Kumar, Arun Rangi",Internal Laundry,https://www.domain.com.au/13-swanmore-road-donnybrook-vic-3064-16758918
16959915,DONNYBROOK,3064,500.0,2173.0,"Wednesday, 25 June 2025",2025-06-25,76,4,2,2,House,15 Tarrengower Street,-37.54381,145.01044,2025-09-09 16:48:16,16959915,BC-3290-OU,14,0,0,False,House,House,SKAD REAL ESTATE THOMASTOWN,30016,Rental Team,"Secure Parking, Heating, Dishwasher",https://www.domain.com.au/15-tarrengower-street-donnybrook-vic-3064-16959915
17174805,DONNYBROOK,3064,490.0,2129.0,"Monday, 25 August 2025",2025-08-15,25,4,2,2,House,3 Glideriter Road,-37.544724,144.96025,2025-09-09 16:48:16,17174805,KO-8245-KB,11,0,0,False,House,House,Ray White Mernda,33841,Rental Department Mernda,,https://www.domain.com.au/3-glideriter-road-donnybrook-vic-3064-17174805
17327181,DONNYBROOK,3064,515.0,2231.0,"Monday, 12 August 2024",2025-07-28,43,4,2,2,House,82 RULINGIA ROAD,-37.535614,144.98967,2025-09-09 16:48:16,17327181,ZG-7697-PV,19,0,0,False,House,House,Right Key Real Estate,34803,"GURUMUKH SINGH, Bhupinder  Singh","Fully fenced, Air conditioning, Ensuite, Alarm System, Gas, Bath, Heating, Dishwasher, Water efficient appliances, Wall / ceiling insulation, Solar hot water",https://www.domain.com.au/82-rulingia-road-donnybrook-vic-3064-17327181
17610821,DONNYBROOK,3064,540.0,2346.0,"Monday, 07 July 2025",2025-06-06,94,4,2,2,House,5 Rochford Drive,-37.547245,144.96313,2025-09-09 16:48:16,17610821,,6,0,0,False,House,House,One Group Realty,32679,Chantell Hawzi,Ensuite,https://www.domain.com.au/5-rochford-drive-donnybrook-vic-3064-17610821
17619007,DONNYBROOK,3064,530.0,2303.0,"Monday, 16 June 2025",2025-06-13,88,4,2,2,House,12 Chilworth Street,-37.55291,144.96179,2025-09-09 16:48:16,17619007,,17,0,0,False,House,House,Nest & Co Real Estate Pty Ltd,37597,"AJ Pramod Moga, Nisha Saini",Ensuite,https://www.domain.com.au/12-chilworth-street-donnybrook-vic-3064-17619007
17647743,DONNYBROOK,3064,480.0,2086.0,"Tuesday, 15 July 2025",2025-07-01,70,4,2,4,House,35 Ivory Road,-37.54493,145.01332,2025-09-09 16:48:16,17647743,,10,0,0,False,House,House,Harcourts Rata & Co,30123,"Travis Whelan, Monique Di Domenica","Gas, Internal Laundry, Secure Parking, Air conditioning, Heating, Built in wardrobes, Close to transport, Close to shops, Close to schools, Ensuite, Carpeted, Openable Windows, Cooling, Dishwasher",https://www.domain.com.au/35-ivory-road-donnybrook-vic-3064-17647743
17665257,DONNYBROOK,3064,525.0,2281.0,"Friday, 18 July 2025",2025-07-11,60,4,2,2,House,15 Boilersmith Street,-37.538525,144.97845,2025-09-09 16:48:16,17665257,,15,0,0,False,House,House,Areal Property - Box Hill,33000,Michael Zhang,"Internal Laundry, Secure Parking, Heating",https://www.domain.com.au/15-boilersmith-street-donnybrook-vic-3064-17665257
17669216,DONNYBROOK,3064,470.0,2042.0,"Friday, 11 July 2025",2025-07-15,56,4,2,2,House,25 Cream Road,-37.535477,144.98813,2025-09-09 16:48:16,17669216,,12,0,1,False,House,House,Harcourts Rata & Co,30123,"Travis Whelan, Savannah Cristiano","Gas, Secure Parking, Air conditioning, Built in wardrobes, Close to transport, Close to shops, Close to schools, Ensuite, Openable Windows, Cooling, Dishwasher",https://www.domain.com.au/25-cream-road-donnybrook-vic-3064-17669216
17669515,DONNYBROOK,3064,495.0,2151.0,"Friday, 01 August 2025",2025-07-15,56,4,2,2,House,16 Foreshores Drive,-37.542267,145.01492,2025-09-09 16:48:16,17669515,,12,0,0,False,House,House,Hockingstuart Epping,26544,Deepak Bawa,"Heating, Area Views, Built in wardrobes, Close to transport, Close to shops, Alarm System, Intercom, Close to schools, Security Access, Prestige Homes, Floorboards, Fully fenced, Secure Parking, Dishwasher",https://www.domain.com.au/16-foreshores-drive-donnybrook-vic-3064-17669515
17686163,DONNYBROOK,3064,520.0,2260.0,"Monday, 18 August 2025",2025-07-25,46,4,2,2,House,11 Cardigan Street,-37.540962,144.97823,2025-09-09 16:48:16,17686163,,20,0,0,False,House,House,Harcourts Rata & Co,30123,Sachi Samarasekera,"Air conditioning, Heating, Built in wardrobes, Ensuite, Openable Windows, Dishwasher",https://www.domain.com.au/11-cardigan-street-donnybrook-vic-3064-17686163
17687941,DONNYBROOK,3064,490.0,2130.0,"Friday, 22 August 2025",2025-07-28,43,4,2,2,House,11 River Redgum Bvd,-37.53659,144.98866,2025-09-09 16:48:16,17687941,,15,0,1,False,House,House,YPA Estate Agents Doreen Mernda,34804,Tania Pitt,Secure Parking,https://www.domain.com.au/11-river-redgum-bvd-donnybrook-vic-3064-17687941
17698520,DONNYBROOK,3064,500.0,2172.0,"Monday, 04 August 2025",2025-08-04,36,4,3,2,House,2 Radius Walk,-37.537598,144.97646,2025-09-09 16:48:16,17698520,,31,0,0,False,House,House,Reliance Craigieburn,36313,Jade Truong,"Gas, Internal Laundry, Heating",https://www.domain.com.au/2-radius-walk-donnybrook-vic-3064-17698520
17700274,DONNYBROOK,3064,540.0,2346.0,"Thursday, 14 August 2025",2025-08-05,35,4,2,2,House,23 Decumbens Way,-37.542957,144.98952,2025-09-09 16:48:16,17700274,,14,0,1,False,House,House,One Group Realty,32679,"Chantell Hawzi, Kalley Singh","Ensuite, Dishwasher, Built in wardrobes, Remote Garage, Secure Parking",https://www.domain.com.au/23-decumbens-way-donnybrook-vic-3064-17700274
17708127,DONNYBROOK,3064,440.0,,"Friday, 08 August 2025",2025-08-08,31,2,2,1,Townhouse,29 Pitton Walk,-37.55025,144.96182,2025-09-09 16:48:16,17708127,,7,0,2,True,Townhouse/Villa,Townhouse,Stone Real Estate Whittlesea,1195,"Jessica Conte-Singh, Chloe Dwyer-Fraser","Secure Parking, Balcony / Deck, Air conditioning, Heating, Area Views, Built in wardrobes, Close to transport, Carpeted",https://www.domain.com.au/29-pitton-walk-donnybrook-vic-3064-17708127
17708715,DONNYBROOK,3064,490.0,2129.0,"Monday, 18 August 2025",2025-08-11,29,3,2,2,House,24 Hawkesbury Drive,-37.54052,144.96906,2025-09-09 16:48:16,17708715,,12,0,0,False,House,House,Ray White Wollert,38147,Bassam Mansour,"Bath, Built in wardrobes, Dishwasher, Secure Parking, Fully fenced, Garden / Courtyard",https://www.domain.com.au/24-hawkesbury-drive-donnybrook-vic-3064-17708715
17717167,DONNYBROOK,3064,510.0,2217.0,"Friday, 07 November 2025",2025-08-15,25,4,2,2,House,8 Stainer Way,-37.53825,144.97874,2025-09-09 16:48:16,17717167,,10,0,0,False,House,House,YPA Estate Agents Doreen Mernda,34804,"Tania Pitt, Carla Primiano","Secure Parking, Heating",https://www.domain.com.au/8-stainer-way-donnybrook-vic-3064-17717167
17717290,DONNYBROOK,3064,460.0,1999.0,"Monday, 18 August 2025",2025-08-15,25,3,2,2,Townhouse,25 Pitton Walk,-37.550262,144.96196,2025-09-09 16:48:16,17717290,,7,0,2,False,Townhouse/Villa,Townhouse,Stone Real Estate Whittlesea,1195,"Jessica Conte-Singh, Chloe Dwyer-Fraser","Secure Parking, Heating, Balcony / Deck, Air conditioning, Built in wardrobes, Ensuite",https://www.domain.com.au/25-pitton-walk-donnybrook-vic-3064-17717290
17717291,DONNYBROOK,3064,440.0,1912.0,"Thursday, 14 August 2025",2025-08-15,25,2,2,1,Townhouse,37 Pitton Walk,-37.550224,144.96158,2025-09-09 16:48:16,17717291,,7,0,2,False,Townhouse/Villa,Townhouse,Stone Real Estate Whittlesea,1195,"Jessica Conte-Singh, Chloe Dwyer-Fraser","Secure Parking, Heating, Balcony / Deck, Air conditioning, Built in wardrobes, Ensuite",https://www.domain.com.au/37-pitton-walk-donnybrook-vic-3064-17717291
17101641,DONNYBROOK,3064,550.0,2390.0,"Tuesday, 15 April 2025",2025-04-04,157,4,2,2,House,39 Ironside Street,-37.542698,145.00586,2025-09-09 16:48:21,17101641,IB-6348-UO,12,0,0,False,House,House,Nest & Co Real Estate Pty Ltd,37597,"Nisha Saini, Gaurika Kohli","Secure Parking, Internal Laundry, Heating, Dishwasher",https://www.domain.com.au/39-ironside-street-donnybrook-vic-3064-17101641
17410429,DONNYBROOK,3064,,2260.0,,2025-01-28,224,4,3,2,House,5 Sandon Crescent,-37.545544,145.0133,2025-09-09 16:48:21,17410429,JV-2788-NK,21,0,0,False,House,House,Empyrean Property Group,37197,"Kylie Sanders, Sahil Kakar","Internal Laundry, Secure Parking, Floorboards, Built in wardrobes, Dishwasher, Study",https://www.domain.com.au/5-sandon-crescent-donnybrook-vic-3064-17410429
17440362,DONNYBROOK,3064,,2303.0,,2025-02-14,207,4,3,2,House,10 Selby Way,-37.54681,144.96075,2025-09-09 16:48:21,17440362,IU-2252-JY,9,0,0,False,House,House,Bombay Real Estate Pty Ltd,29247,"Amandeep Kaur, Jessica Kaur","Built in wardrobes, Intercom, Heating",https://www.domain.com.au/10-selby-way-donnybrook-vic-3064-17440362
17453208,DONNYBROOK,3064,650.0,,"Friday, 21 March 2025",2025-02-23,198,4,2,2,House,,-37.542564,144.96875,2025-09-09 16:48:21,17453208,,6,1,1,False,House,House,First Step Homes 4U,24633,Kerry Smith,"Secure Parking, Air conditioning, Built in wardrobes, Courtyard, Dishwasher, Fully fenced",https://www.domain.com.au/donnybrook-vic-3064-17453208
17547900,DONNYBROOK,3064,580.0,,"Tuesday, 29 April 2025",2025-04-29,133,4,2,2,New House & Land,92 Farm Crescent,-37.534992,144.99138,2025-09-09 16:48:21,17547900,OJ-3559-WA,7,0,0,False,House,New House & Land,UNIVERSAL REAL ESTATE VIC NORTH,34633,"Property Management, Kabir Gandhi","Bath, Heating, Secure Parking",https://www.domain.com.au/92-farm-crescent-donnybrook-vic-3064-17547900
