listing_id,suburb,postcode,weekly_rent,bond,available_date,date_listed,days_listed,bedrooms,bathrooms,carspaces,property_type,address,lat,lon,scraped_date,domain_page_id,property_id,photo_count,video_count,floorplans_count,virtual_tour,primary_type,secondary_type,agency,agency_id,agent_names,structured_features,url
14290675,EAST MELBOURNE,3002,625,2716,"Friday, 10 October 2025",2025-09-05,4,1.0,1,1.0,Apartment / Unit / Flat,10/21-23 Hotham Street,-37.814762,144.9898,2025-09-09 16:24:16,14290675,,8,0,0,False,Apartment,Apartment / Unit / Flat,Gotham Property,32563,Carolina  Hernandez,,https://www.domain.com.au/10-21-23-hotham-street-east-melbourne-vic-3002-14290675
15570253,EAST MELBOURNE,3002,495,2151,"Wednesday, 03 September 2025",2025-08-12,28,2.0,1,,Apartment / Unit / Flat,5/126 Albert Street,-37.810604,144.98703,2025-09-09 16:24:16,15570253,LV-8216-VU,9,0,0,False,Apartment,Apartment / Unit / Flat,LITTLE Real Estate Victoria,24974,Agnes Hartono,"Built in wardrobes, Bath, Car Accom: Single Off-Street Parking, Pool/Spa Count: 0",https://www.domain.com.au/5-126-albert-street-east-melbourne-vic-3002-15570253
17060542,EAST MELBOURNE,3002,370,1608,"Thursday, 21 August 2025",2025-08-13,27,1.0,1,,Apartment / Unit / Flat,10/25 Hotham Street,-37.81488,144.98953,2025-09-09 16:24:16,17060542,IH-4515-UN,7,0,1,False,Apartment,Apartment / Unit / Flat,Ray White CRE,7728,RACHEL BOGGS,"Intercom, Built in wardrobes, Pets Allowed, Heating",https://www.domain.com.au/10-25-hotham-street-east-melbourne-vic-3002-17060542
17165217,EAST MELBOURNE,3002,490,2129,"Thursday, 28 August 2025",2025-08-11,29,1.0,1,1.0,Apartment / Unit / Flat,4/1-11 Grey Street,-37.812634,144.99057,2025-09-09 16:24:16,17165217,CO-7239-MQ,8,0,1,False,Apartment,Apartment / Unit / Flat,Ray White CRE,7728,Diana Jurisic,"Floorboards, Built in wardrobes, Bath, Dishwasher",https://www.domain.com.au/4-1-11-grey-street-east-melbourne-vic-3002-17165217
17407096,EAST MELBOURNE,3002,1750,7605,"Monday, 11 August 2025",2025-08-11,29,2.0,2,1.0,House,166 George Street,-37.815025,144.98466,2025-09-09 16:24:16,17407096,YI-0443-JL,13,0,1,False,House,House,Ray White CRE,7728,RACHEL BOGGS,"Air conditioning, Intercom, Built in wardrobes, Internal Laundry, Pets Allowed, Separate Dining Room, Heating, Dishwasher, Study, Furnished, Secure Parking, Balcony / Deck, Garden / Courtyard",https://www.domain.com.au/166-george-street-east-melbourne-vic-3002-17407096
17442484,EAST MELBOURNE,3002,600,2607,"Saturday, 06 September 2025",2025-09-02,7,2.0,1,1.0,Apartment / Unit / Flat,707V/162 Albert Street,-37.810074,144.98547,2025-09-09 16:24:16,17442484,,10,0,0,False,Apartment,Apartment / Unit / Flat,Ray White CRE,7728,RACHEL BOGGS,,https://www.domain.com.au/707v-162-albert-street-east-melbourne-vic-3002-17442484
17687446,EAST MELBOURNE,3002,485,2107,"Friday, 01 August 2025",2025-07-28,43,1.0,1,,Apartment / Unit / Flat,2/100 George Street,-37.81529,144.98706,2025-09-09 16:24:16,17687446,,6,0,0,False,Apartment,Apartment / Unit / Flat,ASK Property Partners Pty Ltd,37858,Zara-Jane Hayes,"Internal Laundry, Broadband Internet Available, Built in wardrobes, Pay TV Access, Pets Allowed",https://www.domain.com.au/2-100-george-street-east-melbourne-vic-3002-17687446
17700518,EAST MELBOURNE,3002,990,5940,"Tuesday, 05 August 2025",2025-08-05,35,2.0,2,1.0,Apartment / Unit / Flat,601/1 Powlett Street,-37.81611,144.98495,2025-09-09 16:24:16,17700518,,11,0,0,False,Apartment,Apartment / Unit / Flat,Kay & Burton Stonnington,88,Debbie Davut,"Balcony, Ducted Air-conditioning, Ducted Heating, Furnished, Gym, Intercom",https://www.domain.com.au/601-1-powlett-street-east-melbourne-vic-3002-17700518
17713413,EAST MELBOURNE,3002,615,2672,"Thursday, 11 September 2025",2025-08-13,27,2.0,1,1.0,Apartment / Unit / Flat,507/166 Wellington Parade,-37.81606,144.98451,2025-09-09 16:24:16,17713413,,7,0,0,True,Apartment,Apartment / Unit / Flat,BLACK & WHITE ESTATE AGENTS (VIC) PTY LTD,12640,"Jake Peters, Kurt  Rimes","Internal Laundry, Gym, Bath, Built in wardrobes, Dishwasher, Secure Parking",https://www.domain.com.au/507-166-wellington-parade-east-melbourne-vic-3002-17713413
17721907,EAST MELBOURNE,3002,800,3476,"Tuesday, 19 August 2025",2025-08-19,21,2.0,1,1.0,Apartment / Unit / Flat,5/246 Albert Street,-37.81011,144.98283,2025-09-09 16:24:16,17721907,,11,0,1,True,Apartment,Apartment / Unit / Flat,Jellis Craig Fitzroy,3709,"Jayde Cashion, Jellis Craig Inner North","Balcony / Deck, Built in wardrobes, Floorboards, Split System Air Con, Split System Heating",https://www.domain.com.au/5-246-albert-street-east-melbourne-vic-3002-17721907
17723217,EAST MELBOURNE,3002,470,2043,"Monday, 08 September 2025",2025-08-20,20,,1,,Studio,12/12 Garden Avenue,-37.816254,144.98898,2025-09-09 16:24:16,17723217,,6,0,0,True,Apartment,Studio,Woodards South Yarra,7920,Yiotis Christodoulou,,https://www.domain.com.au/12-12-garden-avenue-east-melbourne-vic-3002-17723217
17728519,EAST MELBOURNE,3002,1000,5435,"Monday, 15 September 2025",2025-08-22,18,3.0,2,2.0,Apartment / Unit / Flat,27/8 Wellington Crescent,-37.81721,144.97768,2025-09-09 16:24:16,17728519,,10,0,0,False,Apartment,Apartment / Unit / Flat,Harcourts Melbourne City,16216,"Mikaele Horsnell, Lliam Milkins","Built in wardrobes, Dishwasher, Ducted Heating, Floorboards, Gym, Inground Pool, Intercom, Intercom System, Living Areas, Secure Parking",https://www.domain.com.au/27-8-wellington-crescent-east-melbourne-vic-3002-17728519
17729953,EAST MELBOURNE,3002,695,3020,"Monday, 25 August 2025",2025-08-25,15,2.0,1,,Semi-Detached,492 Victoria Parade,-37.809864,144.98785,2025-09-09 16:24:16,17729953,,6,0,0,True,Any,Semi-Detached,Shelter Real Estate,33086,Shelter Real Estate,"Air conditioning, Close to transport, Close to shops, Close to schools",https://www.domain.com.au/492-victoria-parade-east-melbourne-vic-3002-17729953
17733623,EAST MELBOURNE,3002,650,2824,"Wednesday, 24 September 2025",2025-08-27,13,2.0,1,1.0,Apartment / Unit / Flat,8/165 Hotham Street,-37.81422,144.98457,2025-09-09 16:24:16,17733623,,13,0,0,False,Apartment,Apartment / Unit / Flat,Buxton Stonnington,122,Cameron  Gibson,"Air conditioning, Split System Air Con, Balcony / Deck, Split System Heating, Built in wardrobes, Dishwasher",https://www.domain.com.au/8-165-hotham-street-east-melbourne-vic-3002-17733623
17737778,EAST MELBOURNE,3002,400,1739,"Tuesday, 07 October 2025",2025-08-29,11,1.0,1,,Apartment / Unit / Flat,204/25 Hotham Street,-37.81488,144.98953,2025-09-09 16:24:16,17737778,,5,0,1,False,Apartment,Apartment / Unit / Flat,MRE,20795,Daniel Suarez,"Built in wardrobes, Heating, Pool/Spa Count: 0",https://www.domain.com.au/204-25-hotham-street-east-melbourne-vic-3002-17737778
17742261,EAST MELBOURNE,3002,600,2607,"Friday, 05 September 2025",2025-09-02,7,2.0,1,1.0,Apartment / Unit / Flat,216V/162 Albert Street,-37.810074,144.98547,2025-09-09 16:24:16,17742261,,13,0,1,True,Apartment,Apartment / Unit / Flat,Belle Property Carlton | Melbourne | North Melbourne,24322,Helena Eglezos,"Air conditioning, Heating, Close to transport, Swimming Pool, Intercom, Security Access, Gym, Dishwasher",https://www.domain.com.au/216v-162-albert-street-east-melbourne-vic-3002-17742261
17744919,EAST MELBOURNE,3002,900,3910,"Saturday, 27 September 2025",2025-09-03,6,3.0,1,,House,550 Victoria Parade,-37.810093,144.98982,2025-09-09 16:24:16,17744919,,9,0,0,False,House,House,BigginScott Richmond,3355,"Liam Mulligan, Wayne Bronkhorst",,https://www.domain.com.au/550-victoria-parade-east-melbourne-vic-3002-17744919
17746635,EAST MELBOURNE,3002,475,2065,"Tuesday, 30 September 2025",2025-09-04,5,1.0,1,,Apartment / Unit / Flat,24/18 Grey Street,-37.812138,144.99017,2025-09-09 16:24:16,17746635,,8,0,0,False,Apartment,Apartment / Unit / Flat,Nelson Alexander Fitzroy,4718,Shona Brewer,"Air conditioning, Built in wardrobes, Heating, Dishwasher",https://www.domain.com.au/24-18-grey-street-east-melbourne-vic-3002-17746635
17751097,EAST MELBOURNE,3002,850,3693,"Friday, 03 October 2025",2025-09-08,1,2.0,2,2.0,Apartment / Unit / Flat,5/110 Albert Street,-37.810402,144.98741,2025-09-09 16:24:16,17751097,,10,0,0,False,Apartment,Apartment / Unit / Flat,Gotham Property,32563,Kai Seeto-Grossi,,https://www.domain.com.au/5-110-albert-street-east-melbourne-vic-3002-17751097
17752142,EAST MELBOURNE,3002,825,3585,"Friday, 12 September 2025",2025-09-08,1,2.0,2,1.0,Apartment / Unit / Flat,3/1141 Hoddle Street,-37.81441,144.99025,2025-09-09 16:24:16,17752142,,15,0,1,False,Apartment,Apartment / Unit / Flat,The Core Advisory Team VIC,31816,Danielle Ryan,"Intercom, Floorboards, Built in wardrobes, Dishwasher, Balcony",https://www.domain.com.au/3-1141-hoddle-street-east-melbourne-vic-3002-17752142
10715072,EAST MELBOURNE,3002,475,2064,"Tuesday, 07 May 2013",2018-09-06,2560,1.0,1,1.0,Apartment / Unit / Flat,86 Hotham Street,-37.81414,144.98747,2025-09-09 16:24:21,10715072,,15,0,1,False,Apartment,Apartment / Unit / Flat,BigginScott Richmond,3355,,,https://www.domain.com.au/86-hotham-street-east-melbourne-vic-3002-10715072
15589957,EAST MELBOURNE,3002,1500,6517,"Sunday, 01 January 2023",2021-12-09,1370,1.0,1,1.0,Apartment / Unit / Flat,,-37.81033,144.98347,2025-09-09 16:24:21,15589957,,33,0,1,False,Apartment,Apartment / Unit / Flat,Cubbi,24478,Cubbi (38121),"Built in wardrobes, Gas, Intercom, Bath, Heating",https://www.domain.com.au/east-melbourne-vic-3002-15589957
17002873,EAST MELBOURNE,3002,40,173,"Tuesday, 07 May 2024",2024-05-07,489,1.0,1,1.0,Car Space,P12parking/191 Powlett Street,-37.81285,144.98587,2025-09-09 16:24:21,17002873,,1,0,0,False,Any,Car Space,Nelson Alexander Fitzroy,4718,Charlotte Robertson,,https://www.domain.com.au/p12parking-191-powlett-street-east-melbourne-vic-3002-17002873
17066569,EAST MELBOURNE,3002,490,2129,"Friday, 05 July 2024",2024-06-17,449,1.0,1,1.0,Apartment / Unit / Flat,110/166 Wellington Parade,-37.815983,144.9845,2025-09-09 16:24:21,17066569,XY-5811-MJ,4,0,0,False,Apartment,Apartment / Unit / Flat,Dingle Partners,345,"Sara Sis, Stephanie Allen","Bedrooms, Bathrooms, Secure Parking",https://www.domain.com.au/110-166-wellington-parade-east-melbourne-vic-3002-17066569
17510710,EAST MELBOURNE,3002,1900,8256,"Tuesday, 08 April 2025",2025-04-01,160,1.0,1,1.0,Apartment / Unit / Flat,504/150 Clarendon Street,-37.812088,144.9836,2025-09-09 16:24:21,17510710,ZG-7443-UY,21,0,0,False,Apartment,Apartment / Unit / Flat,Ray White CRE,7728,Diana Jurisic,,https://www.domain.com.au/504-150-clarendon-street-east-melbourne-vic-3002-17510710
17619670,EAST MELBOURNE,3002,1495,8970,"Friday, 13 June 2025",2025-06-13,88,1.0,1,1.0,Apartment / Unit / Flat,106/150 Clarendon Street,-37.812088,144.9836,2025-09-09 16:24:21,17619670,,16,0,1,False,Apartment,Apartment / Unit / Flat,Kay & Burton Stonnington,88,Debbie Davut,"Ducted Air-conditioning, Ducted Heating, Fireplace(s), Floorboards, Furnished, Gym, Inground Pool, Intercom",https://www.domain.com.au/106-150-clarendon-street-east-melbourne-vic-3002-17619670
17658279,EAST MELBOURNE,3002,1300,5649,"Sunday, 27 July 2025",2025-07-08,63,3.0,2,,House,148 Hotham Street,-37.813877,144.9853,2025-09-09 16:24:21,17658279,,20,0,0,False,House,House,Ray White CRE,7728,RACHEL BOGGS,,https://www.domain.com.au/148-hotham-street-east-melbourne-vic-3002-17658279
17688476,EAST MELBOURNE,3002,1200,7614,"Friday, 29 August 2025",2025-07-28,43,2.0,2,1.0,Apartment / Unit / Flat,421/280 Albert Street,-37.809795,144.98175,2025-09-09 16:24:21,17688476,,16,0,1,False,Apartment,Apartment / Unit / Flat,Belle Property South Yarra,3721,"Lauren Herber, Sam Landale","Built in wardrobes, Gas, Bath, Heating, Dishwasher, Study",https://www.domain.com.au/421-280-albert-street-east-melbourne-vic-3002-17688476
17696096,EAST MELBOURNE,3002,840,3650,"Tuesday, 30 September 2025",2025-08-01,39,2.0,1,1.0,Apartment / Unit / Flat,111M/201 Powlett Street,-37.809658,144.98563,2025-09-09 16:24:21,17696096,,11,0,1,False,Apartment,Apartment / Unit / Flat,Nelson Alexander Fitzroy,4718,Mark De Fazio,Built in wardrobes,https://www.domain.com.au/111m-201-powlett-street-east-melbourne-vic-3002-17696096
17696512,EAST MELBOURNE,3002,700,3042,"Tuesday, 02 September 2025",2025-08-01,39,2.0,1,1.0,Apartment / Unit / Flat,1308V/162 Albert Street,-37.810074,144.98547,2025-09-09 16:24:21,17696512,,9,0,1,False,Apartment,Apartment / Unit / Flat,Nelson Alexander Northcote,4721,Amanda Lachmund,"Built in wardrobes, Gas, Heating, Dishwasher, Balcony / Deck",https://www.domain.com.au/1308v-162-albert-street-east-melbourne-vic-3002-17696512
