listing_id,suburb,postcode,weekly_rent,bond,available_date,date_listed,days_listed,bedrooms,bathrooms,carspaces,property_type,address,lat,lon,scraped_date,domain_page_id,property_id,photo_count,video_count,floorplans_count,virtual_tour,primary_type,secondary_type,agency,agency_id,agent_names,structured_features,url
17533261,FITZROY,3065,1100,5880.0,"Wednesday, 16 April 2025",2025-09-03,6,3,2,2.0,House,27 John Street,-37.800465,144.97641,2025-09-09 16:16:05,17533261,JN-2866-RT,9,0,0,False,House,House,Jellis Craig Fitzroy,3709,"Jayde Cashion, Jellis Craig Inner North","Built in wardrobes, Garden / Courtyard, Dishwasher, Ducted Heating, Floorboards, Laundry",https://www.domain.com.au/27-john-street-fitzroy-vic-3065-17533261
17569645,FITZROY,3065,995,4324.0,"Friday, 20 June 2025",2025-09-03,6,2,1,1.0,Apartment / Unit / Flat,15/183 Kerr Street,-37.796864,144.98157,2025-09-09 16:16:05,17569645,TO-7911-ZY,18,0,0,False,Apartment,Apartment / Unit / Flat,Nelson Alexander Fitzroy,4718,Ebony O'Regan,"Built in wardrobes, Furnished, Heating",https://www.domain.com.au/15-183-kerr-street-fitzroy-vic-3065-17569645
17699987,FITZROY,3065,625,2716.0,"Friday, 08 August 2025",2025-08-04,35,2,1,2.0,Townhouse,1/34 Alexandra Parade,-37.793423,144.97714,2025-09-09 16:16:05,17699987,,9,0,0,False,Townhouse/Villa,Townhouse,Agents'Agency Network Partners,11919,Katrina Minos,"Gas, Heating, Dishwasher, Air conditioning, Built in wardrobes, Internal Laundry, Garden / Courtyard",https://www.domain.com.au/1-34-alexandra-parade-fitzroy-vic-3065-17699987
17700622,FITZROY,3065,1200,5514.0,"Tuesday, 14 October 2025",2025-08-25,15,2,1,1.0,Townhouse,147 Kerr Street,-37.796562,144.9806,2025-09-09 16:16:05,17700622,,10,0,0,False,Townhouse/Villa,Townhouse,Nelson Alexander Fitzroy,4718,"Lauren Honey, Yvette Johnston",Balcony / Deck,https://www.domain.com.au/147-kerr-street-fitzroy-vic-3065-17700622
17728561,FITZROY,3065,560,2433.0,"Thursday, 18 September 2025",2025-09-08,1,1,1,1.0,Apartment / Unit / Flat,207/81 Argyle Street,-37.79736,144.97815,2025-09-09 16:16:05,17728561,,5,0,0,False,Apartment,Apartment / Unit / Flat,Jellis Craig Fitzroy,3709,"Jayde Cashion, Jellis Craig Inner North","Split System Air Con, Split System Heating, Built in wardrobes",https://www.domain.com.au/207-81-argyle-street-fitzroy-vic-3065-17728561
17731399,FITZROY,3065,1100,4998.0,"Saturday, 04 October 2025",2025-08-26,14,2,2,2.0,Apartment / Unit / Flat,207/166 Gertrude Street,-37.80622,144.98026,2025-09-09 16:16:05,17731399,,12,1,1,False,Apartment,Apartment / Unit / Flat,MRE,20795,Millie Bowles,"Air conditioning, Internal Laundry, Balcony / Deck, Car Accom: Carport, Pool/Spa Count: 0",https://www.domain.com.au/207-166-gertrude-street-fitzroy-vic-3065-17731399
17735756,FITZROY,3065,1290,5500.0,"Wednesday, 01 October 2025",2025-08-28,12,3,2,2.0,Townhouse,122 Rose St,-37.796135,144.97993,2025-09-09 16:16:05,17735756,,7,0,0,False,Townhouse/Villa,Townhouse,RentBetter,27499,,"Internal Laundry, Air conditioning, Balcony / Deck, Built in wardrobes, Dishwasher, Fully fenced, Garden / Courtyard, Heating, Pets Allowed, Secure Parking",https://www.domain.com.au/122-rose-st-fitzroy-vic-3065-17735756
17740765,FITZROY,3065,560,2433.0,"Thursday, 07 August 2025",2025-09-01,8,1,1,1.0,Apartment / Unit / Flat,13/300 Young Street,-37.797417,144.9799,2025-09-09 16:16:05,17740765,,9,0,1,False,Apartment,Apartment / Unit / Flat,Melcorp Real Estate,11842,"Leasing Team, Romina Alessi","Internal Laundry, Gym, Dishwasher, Air conditioning, Heating, Built in wardrobes, Close to transport, Close to shops, Swimming Pool, Intercom, Close to schools, City Views, Security Access, Security System",https://www.domain.com.au/13-300-young-street-fitzroy-vic-3065-17740765
17741537,FITZROY,3065,950,4128.0,"Tuesday, 02 September 2025",2025-09-01,8,2,1,1.0,Apartment / Unit / Flat,38/183 Kerr Street,-37.796875,144.98157,2025-09-09 16:16:05,17741537,,13,0,0,False,Apartment,Apartment / Unit / Flat,Nelson Alexander Kew,3909,"Celia McGregor, Eliza Bonnett","Built in wardrobes, Internal Laundry, Heating",https://www.domain.com.au/38-183-kerr-street-fitzroy-vic-3065-17741537
17741646,FITZROY,3065,775,3368.0,"Monday, 01 September 2025",2025-09-01,8,2,1,1.0,Apartment / Unit / Flat,5/156 Rose Street,-37.796356,144.98167,2025-09-09 16:16:05,17741646,,8,0,1,False,Apartment,Apartment / Unit / Flat,Kay & Burton Stonnington,88,Jonathan Boon,"Built in wardrobes, Dishwasher, Floorboards, Intercom, Secure Parking, Split System AirCon",https://www.domain.com.au/5-156-rose-street-fitzroy-vic-3065-17741646
17741868,FITZROY,3065,1200,5214.0,"Monday, 01 September 2025",2025-09-01,7,2,2,2.0,Apartment / Unit / Flat,201/75 Argyle Street,-37.797337,144.97786,2025-09-09 16:16:05,17741868,,13,0,0,False,Apartment,Apartment / Unit / Flat,Thomson ,176,Kerry Kyloh,,https://www.domain.com.au/201-75-argyle-street-fitzroy-vic-3065-17741868
17744327,FITZROY,3065,3010,2000.0,"Monday, 01 September 2025",2025-09-03,6,3,2,,House,604/416 Gore Street,-37.796806,144.98402,2025-09-09 16:16:05,17744327,,22,0,0,False,House,House,Minus The Agent,26625,Minus The Agent Property Management,"Internal Laundry, Furnished, Air conditioning, Ensuite(s), Secure Parking, Deck, Dishwasher",https://www.domain.com.au/604-416-gore-street-fitzroy-vic-3065-17744327
17746808,FITZROY,3065,390,1695.0,"Thursday, 28 August 2025",2025-09-04,5,1,1,,Apartment / Unit / Flat,22/35-41 Napier Street,-37.80695,144.97908,2025-09-09 16:16:05,17746808,,7,0,0,False,Apartment,Apartment / Unit / Flat,Woodards,19,Emina Taleb,Heating,https://www.domain.com.au/22-35-41-napier-street-fitzroy-vic-3065-17746808
17748400,FITZROY,3065,835,3628.0,"Friday, 26 September 2025",2025-09-05,4,2,2,1.0,Apartment / Unit / Flat,718/338 Gore Street,-37.798702,144.98355,2025-09-09 16:16:05,17748400,,12,0,0,False,Apartment,Apartment / Unit / Flat,Nelson Alexander Essendon,4722,Chelsea Barber,"Air conditioning, Built in wardrobes, Internal Laundry, Broadband internet access, Dishwasher, Balcony / Deck",https://www.domain.com.au/718-338-gore-street-fitzroy-vic-3065-17748400
17749194,FITZROY,3065,1050,4563.0,"Friday, 12 September 2025",2025-09-05,4,2,1,1.0,House,297 George Street,-37.800426,144.9814,2025-09-09 16:16:05,17749194,,10,0,0,False,House,House,Gotham Property,32563,Madeleine  Saric,Furnished,https://www.domain.com.au/297-george-street-fitzroy-vic-3065-17749194
17750474,FITZROY,3065,400,1738.0,"Tuesday, 16 September 2025",2025-09-08,1,1,1,1.0,Studio,8/21-23 George Street,-37.807774,144.98016,2025-09-09 16:16:05,17750474,,6,0,0,False,Apartment,Studio,Jellis Craig Fitzroy,3709,"Jayde Cashion, Jellis Craig Inner North","Split System Air Con, Split System Heating, Open Plan Living",https://www.domain.com.au/8-21-23-george-street-fitzroy-vic-3065-17750474
17750644,FITZROY,3065,650,,"Friday, 05 September 2025",2025-09-08,1,2,1,1.0,Apartment / Unit / Flat,313A Smith St,-37.79967,144.98396,2025-09-09 16:16:05,17750644,,4,0,0,False,Apartment,Apartment / Unit / Flat,Colin Knight Real Estate,383,Justyn Knight,"Air conditioning, Dishwasher, Floorboards, Secure Parking",https://www.domain.com.au/313a-smith-st-fitzroy-vic-3065-17750644
17750770,FITZROY,3065,550,2390.0,"Monday, 08 September 2025",2025-09-08,1,1,1,1.0,Apartment / Unit / Flat,306/424 Gore Street,-37.796356,144.98395,2025-09-09 16:16:05,17750770,,9,0,0,False,Apartment,Apartment / Unit / Flat,Nelson Alexander Fitzroy,4718,Imigen Johnson,"Internal Laundry, Balcony / Deck",https://www.domain.com.au/306-424-gore-street-fitzroy-vic-3065-17750770
17750911,FITZROY,3065,700,3042.0,"Friday, 26 September 2025",2025-09-08,1,1,1,,Apartment / Unit / Flat,301/181 Smith Street,-37.803806,144.98323,2025-09-09 16:16:05,17750911,,10,0,1,False,Apartment,Apartment / Unit / Flat,Belle Property Carlton | Melbourne | North Melbourne,24322,Ben Searle,,https://www.domain.com.au/301-181-smith-street-fitzroy-vic-3065-17750911
17751837,FITZROY,3065,800,3476.0,"Sunday, 05 October 2025",2025-09-08,1,2,1,1.0,Apartment / Unit / Flat,8/165 Rose Street,-37.79627,144.98293,2025-09-09 16:16:05,17751837,,9,0,1,False,Apartment,Apartment / Unit / Flat,Jellis Craig Fitzroy,3709,"Jayde Cashion, Jellis Craig Inner North","Split System Air Con, Split System Heating, Intercom, Built in wardrobes, Dishwasher, Floorboards, Secure Parking",https://www.domain.com.au/8-165-rose-street-fitzroy-vic-3065-17751837
15695475,FITZROY,3065,550,2390.0,"Friday, 12 September 2025",2025-08-12,28,1,1,2.0,Apartment / Unit / Flat,8/40 Moor Street,-37.80152,144.97581,2025-09-09 16:16:10,15695475,VV-0364-MB,11,0,0,False,Apartment,Apartment / Unit / Flat,Samma Real Estate,15424,Allen Iverson,"Intercom, Built in wardrobes, Balcony, Secure Parking, Fully fenced",https://www.domain.com.au/8-40-moor-street-fitzroy-vic-3065-15695475
16299723,FITZROY,3065,1200,750.0,"Saturday, 28 January 2023",2023-01-29,953,1,1,,Apartment / Unit / Flat,110/8 Royal Lane,-37.804474,144.97498,2025-09-09 16:16:10,16299723,,9,0,0,False,Apartment,Apartment / Unit / Flat,Corporate Keys Australia,7537,CKI Residences Department,"Internal Laundry, Furnished",https://www.domain.com.au/110-8-royal-lane-fitzroy-vic-3065-16299723
17598171,FITZROY,3065,1350,5000.0,"Monday, 01 September 2025",2025-05-30,102,3,1,,House,387 NAPIER STREET,-37.795998,144.98091,2025-09-09 16:16:10,17598171,,22,0,0,False,House,House,VIP Consulting Real Estate & Smart Property Manager,26667,"The VIP Consulting Team, David Melatti","Air conditioning, Broadband internet access, Fireplace(s), Furnished",https://www.domain.com.au/387-napier-street-fitzroy-vic-3065-17598171
17680938,FITZROY,3065,525,2281.0,"Thursday, 04 July 2024",2025-07-22,48,1,1,,Apartment / Unit / Flat,4/130 Nicholson Street,-37.801712,144.9745,2025-09-09 16:16:10,17680938,,7,0,0,False,Apartment,Apartment / Unit / Flat,Nelson Alexander Fitzroy,4718,Mark De Fazio,"Intercom, Balcony / Deck, Furnished",https://www.domain.com.au/4-130-nicholson-street-fitzroy-vic-3065-17680938
17687167,FITZROY,3065,780,3380.0,"Monday, 18 August 2025",2025-07-27,43,2,3,,Townhouse,6 Leicester St,-37.795193,144.97621,2025-09-09 16:16:10,17687167,,11,0,0,False,Townhouse/Villa,Townhouse,For Sale By Owner,20095,For Rent,"Built in wardrobes, Heating, Shed",https://www.domain.com.au/6-leicester-st-fitzroy-vic-3065-17687167
17690417,FITZROY,3065,1350,6750.0,"Friday, 22 August 2025",2025-07-29,42,3,2,2.0,Apartment / Unit / Flat,106/166 Gertrude Street,-37.80622,144.98026,2025-09-09 16:16:10,17690417,,9,0,0,True,Apartment,Apartment / Unit / Flat,Woodards,19,Samantha Maldonado,"Built in wardrobes, Heating, Dishwasher, Balcony / Deck",https://www.domain.com.au/106-166-gertrude-street-fitzroy-vic-3065-17690417
17701945,FITZROY,3065,1250,7740.0,"Tuesday, 30 September 2025",2025-08-05,34,3,2,,House,36 Alexandra Parade,-37.793446,144.97723,2025-09-09 16:16:10,17701945,,12,0,0,False,House,House,Nelson Alexander Fitzroy,4718,Lauren Honey,"Built in wardrobes, Internal Laundry, Heating, Ensuite",https://www.domain.com.au/36-alexandra-parade-fitzroy-vic-3065-17701945
17713686,FITZROY,3065,1050,4563.0,"Friday, 08 August 2025",2025-08-13,27,2,2,,House,16 Napier Street,-37.807613,144.97937,2025-09-09 16:16:10,17713686,,10,0,0,False,House,House,Nelson Alexander Fitzroy,4718,Mark De Fazio,"Internal Laundry, Balcony / Deck",https://www.domain.com.au/16-napier-street-fitzroy-vic-3065-17713686
