listing_id,suburb,postcode,weekly_rent,bond,available_date,date_listed,days_listed,bedrooms,bathrooms,carspaces,property_type,address,lat,lon,scraped_date,domain_page_id,property_id,photo_count,video_count,floorplans_count,virtual_tour,primary_type,secondary_type,agency,agency_id,agent_names,structured_features,url
16155832,FLEMINGTON,3031,1100,6500,"Thursday, 04 September 2025",2025-08-25,15,4,1,2.0,House,1 Illawarra Road,-37.78512,144.92575,2025-09-09 16:24:45,16155832,MS-4019-PH,13,0,1,False,House,House,Keyhole Property Investments,8749,"Rentals, Please  Contact Office","Balcony / Deck, Air conditioning, Built in wardrobes, Internal Laundry, Bath, Heating, Dishwasher, Secure Parking, Shed, Garden / Courtyard, Floorboards, Gas",https://www.domain.com.au/1-illawarra-road-flemington-vic-3031-16155832
16604447,FLEMINGTON,3031,520,2260,"Thursday, 02 October 2025",2025-08-29,11,1,1,1.0,Apartment / Unit / Flat,108A/72 Ascot Vale Road,-37.784096,144.92307,2025-09-09 16:24:45,16604447,,10,0,1,False,Apartment,Apartment / Unit / Flat,Asset Advantage Management,7605,Jasmin Hickey,"Built in wardrobes, Internal Laundry, Secure Parking, Dishwasher",https://www.domain.com.au/108a-72-ascot-vale-road-flemington-vic-3031-16604447
16609198,FLEMINGTON,3031,660,2868,"Friday, 26 September 2025",2025-08-26,14,2,2,1.0,Apartment / Unit / Flat,110B/72 Ascot Vale Road,-37.784096,144.92307,2025-09-09 16:24:45,16609198,CI-7606-DP,13,0,1,False,Apartment,Apartment / Unit / Flat,Richardson & Wrench Projects Victoria,31321,Daniel Aldieri,"Dishwasher, Split System Heating, Split System Air Conditioning",https://www.domain.com.au/110b-72-ascot-vale-road-flemington-vic-3031-16609198
16609883,FLEMINGTON,3031,660,2868,"Friday, 19 September 2025",2025-08-26,14,2,2,1.0,Apartment / Unit / Flat,306B/72 Ascot Vale Road,-37.784096,144.92307,2025-09-09 16:24:45,16609883,,15,0,1,False,Apartment,Apartment / Unit / Flat,Richardson & Wrench Projects Victoria,31321,Daniel Aldieri,"Dishwasher, Split System Heating",https://www.domain.com.au/306b-72-ascot-vale-road-flemington-vic-3031-16609883
17650305,FLEMINGTON,3031,550,2390,"Monday, 04 August 2025",2025-07-02,68,2,1,1.0,Apartment / Unit / Flat,7/39 Dover Street,-37.78325,144.92548,2025-09-09 16:24:45,17650305,,9,0,0,False,Apartment,Apartment / Unit / Flat,Nelson Alexander Flemington,4478,Amber Ward,"Intercom, Heating, Dishwasher",https://www.domain.com.au/7-39-dover-street-flemington-vic-3031-17650305
17659131,FLEMINGTON,3031,460,1998,"Friday, 08 August 2025",2025-07-08,63,2,1,1.0,Apartment / Unit / Flat,6/44 Ascot Vale Road,-37.785133,144.922,2025-09-09 16:24:45,17659131,,10,0,1,True,Apartment,Apartment / Unit / Flat,Jellis Craig Kensington,20419,"Megan Reddy, Edward Tombs","Internal Laundry, Bath, Heating, Intercom, Built in wardrobes",https://www.domain.com.au/6-44-ascot-vale-road-flemington-vic-3031-17659131
17726048,FLEMINGTON,3031,615,2672,"Friday, 26 September 2025",2025-08-21,19,2,1,,House,474 Racecourse Road,-37.787395,144.92455,2025-09-09 16:24:45,17726048,,11,0,1,True,House,House,Jellis Craig Kensington,20419,"Megan Reddy, Mohammed Eleter","Split System Heating, Floorboards",https://www.domain.com.au/474-racecourse-road-flemington-vic-3031-17726048
17726849,FLEMINGTON,3031,460,1998,"Saturday, 30 August 2025",2025-08-21,18,1,1,1.0,Apartment / Unit / Flat,6/7-9 Farnham Court,-37.781593,144.92987,2025-09-09 16:24:45,17726849,,9,0,0,False,Apartment,Apartment / Unit / Flat,Jellis Craig Kensington,20419,"Justin Jovanov, Vicki Lekanis","Built in wardrobes, Gas, Intercom, Bath",https://www.domain.com.au/6-7-9-farnham-court-flemington-vic-3031-17726849
17730659,FLEMINGTON,3031,395,1716,"Monday, 25 August 2025",2025-08-25,15,1,1,1.0,Apartment / Unit / Flat,10/7 Waltham Street,-37.783485,144.92865,2025-09-09 16:24:45,17730659,,6,0,0,False,Apartment,Apartment / Unit / Flat,Nelson Alexander Flemington,4478,"Amber Ward, Cheryl Garton",Air conditioning,https://www.domain.com.au/10-7-waltham-street-flemington-vic-3031-17730659
17734243,FLEMINGTON,3031,440,1912,"Wednesday, 17 September 2025",2025-08-27,13,1,1,,Apartment / Unit / Flat,1/107 Princes Street,-37.78507,144.93442,2025-09-09 16:24:45,17734243,,6,0,1,False,Apartment,Apartment / Unit / Flat,Nelson Alexander Flemington,4478,Brittany Findlay,Furnished,https://www.domain.com.au/1-107-princes-street-flemington-vic-3031-17734243
17736214,FLEMINGTON,3031,900,3910,"Thursday, 28 August 2025",2025-08-28,12,4,1,1.0,House,69 Victoria Street,-37.786465,144.93436,2025-09-09 16:24:45,17736214,,8,0,0,False,House,House,Woodards Brunswick/Coburg,34781,Paula Tran,"Heating, Dishwasher",https://www.domain.com.au/69-victoria-street-flemington-vic-3031-17736214
17738940,FLEMINGTON,3031,440,1912,"Monday, 01 September 2025",2025-08-29,11,1,1,1.0,Apartment / Unit / Flat,12/60 Farnham St,-37.782562,144.93106,2025-09-09 16:24:45,17738940,,6,0,0,False,Apartment,Apartment / Unit / Flat,McDonald Upton,11154,Lina Alyas,"Heating, Dishwasher, Balcony / Deck",https://www.domain.com.au/12-60-farnham-st-flemington-vic-3031-17738940
17739908,FLEMINGTON,3031,450,1955,"Friday, 05 September 2025",2025-09-01,8,2,1,1.0,Apartment / Unit / Flat,3/90 Dover Street,-37.782707,144.92317,2025-09-09 16:24:45,17739908,,6,0,1,False,Apartment,Apartment / Unit / Flat,Belle Property Carlton | Melbourne | North Melbourne,24322,Helena Eglezos,Built in wardrobes,https://www.domain.com.au/3-90-dover-street-flemington-vic-3031-17739908
17743279,FLEMINGTON,3031,525,2281,"Monday, 13 October 2025",2025-09-02,7,2,1,1.0,Apartment / Unit / Flat,128/200 Smithfield Road,-37.7888,144.92224,2025-09-09 16:24:45,17743279,,8,0,0,False,Apartment,Apartment / Unit / Flat,Jellis Craig Kensington,20419,"Megan Reddy, Willow Stamp","Internal Laundry, Balcony / Deck, Tennis Court, Built in wardrobes",https://www.domain.com.au/128-200-smithfield-road-flemington-vic-3031-17743279
17743470,FLEMINGTON,3031,620,2694,"Wednesday, 01 October 2025",2025-09-02,7,2,1,,House,77 Princes Street,-37.785934,144.93372,2025-09-09 16:24:45,17743470,,10,0,1,False,House,House,Nelson Alexander Flemington,4478,Catherine Maugeri,"Built in wardrobes, Internal Laundry, Heating, Dishwasher",https://www.domain.com.au/77-princes-street-flemington-vic-3031-17743470
17745125,FLEMINGTON,3031,320,1390,"Wednesday, 05 November 2025",2025-09-03,6,1,1,,Apartment / Unit / Flat,10/43 Farnham Street,-37.782143,144.93016,2025-09-09 16:24:45,17745125,,5,0,0,False,Apartment,Apartment / Unit / Flat,Rendina Real Estate,319,"Kiana Minenko, Tina Lepre","Built in wardrobes, Heating",https://www.domain.com.au/10-43-farnham-street-flemington-vic-3031-17745125
17747440,FLEMINGTON,3031,520,2260,"Wednesday, 03 September 2025",2025-09-04,5,2,1,1.0,Apartment / Unit / Flat,17/48 Farnham Street,-37.782528,144.93074,2025-09-09 16:24:45,17747440,,6,0,0,False,Apartment,Apartment / Unit / Flat,Rendina Real Estate,319,"Kiana Minenko, Robin Salh","Built in wardrobes, Internal Laundry, Heating",https://www.domain.com.au/17-48-farnham-street-flemington-vic-3031-17747440
17748156,FLEMINGTON,3031,670,2911,"Tuesday, 16 September 2025",2025-09-04,4,2,1,,House,68 Ascot Vale Road,-37.78432,144.92221,2025-09-09 16:24:45,17748156,,8,0,1,False,House,House,Jellis Craig Kensington,20419,"Justin Jovanov, Vicki Lekanis","Air conditioning, Built in wardrobes, Internal Laundry, Bath, Fireplace(s), Heating",https://www.domain.com.au/68-ascot-vale-road-flemington-vic-3031-17748156
17751807,FLEMINGTON,3031,360,1564,"Monday, 29 September 2025",2025-09-08,1,1,1,1.0,Apartment / Unit / Flat,28/22-28 Canterbury Street,-37.781555,144.92603,2025-09-09 16:24:45,17751807,,5,0,0,False,Apartment,Apartment / Unit / Flat,Nelson Alexander Flemington,4478,Paula Hirmiz,,https://www.domain.com.au/28-22-28-canterbury-street-flemington-vic-3031-17751807
17754268,FLEMINGTON,3031,500,2172,"Wednesday, 15 October 2025",2025-09-09,0,2,1,1.0,Apartment / Unit / Flat,13/48 Farnham Street,-37.782528,144.93074,2025-09-09 16:24:45,17754268,,15,0,1,False,Apartment,Apartment / Unit / Flat,Jellis Craig Kensington,20419,"Justin Jovanov, Vicki Lekanis","Air conditioning, Built in wardrobes",https://www.domain.com.au/13-48-farnham-street-flemington-vic-3031-17754268
15724871,FLEMINGTON,3031,500,2166,"Tuesday, 03 June 2025",2025-05-24,107,1,1,1.0,Apartment / Unit / Flat,1b1b/1 Ascot Vale Road,-37.78678,144.92131,2025-09-09 16:24:50,15724871,EE-1047-EJ,5,1,1,True,Apartment,Apartment / Unit / Flat,BRW Group,34868,"BRW Leasing, Sinclair Mak","Internal Laundry, Balcony / Deck",https://www.domain.com.au/1b1b-1-ascot-vale-road-flemington-vic-3031-15724871
17641623,FLEMINGTON,3031,630,2738,"Monday, 28 July 2025",2025-07-23,48,2,1,,House,55 Shields Street,-37.785267,144.93321,2025-09-09 16:24:50,17641623,,8,0,0,False,House,House,Nelson Alexander Flemington,4478,Paula Hirmiz,"Gas, Heating, Dishwasher",https://www.domain.com.au/55-shields-street-flemington-vic-3031-17641623
17664582,FLEMINGTON,3031,360,1564,"Monday, 14 July 2025",2025-07-11,60,1,1,1.0,Studio,16/22-28 Canterbury Street,-37.781574,144.92598,2025-09-09 16:24:50,17664582,,5,0,0,False,Apartment,Studio,Nelson Alexander Flemington,4478,Catherine Maugeri,Heating,https://www.domain.com.au/16-22-28-canterbury-street-flemington-vic-3031-17664582
17664614,FLEMINGTON,3031,370,1608,"Tuesday, 29 July 2025",2025-07-11,60,1,1,1.0,Apartment / Unit / Flat,10/49 Farnham Street,-37.782177,144.93057,2025-09-09 16:24:50,17664614,,1,0,0,False,Apartment,Apartment / Unit / Flat,Nelson Alexander Flemington,4478,Emelia Attard,Built in wardrobes,https://www.domain.com.au/10-49-farnham-street-flemington-vic-3031-17664614
17686790,FLEMINGTON,3031,520,2260,"Sunday, 17 August 2025",2025-07-25,45,1,1,,Apartment / Unit / Flat,130/1 Ascot Vale Road,-37.786797,144.92131,2025-09-09 16:24:50,17686790,,14,0,0,False,Apartment,Apartment / Unit / Flat,Nelson Alexander Flemington,4478,Brittany Findlay,"Built in wardrobes, Internal Laundry, Swimming Pool, Furnished, Heating, Balcony / Deck",https://www.domain.com.au/130-1-ascot-vale-road-flemington-vic-3031-17686790
17695597,FLEMINGTON,3031,900,3911,"Monday, 25 August 2025",2025-08-01,39,4,1,1.0,House,11 Brixton Street,-37.78149,144.92859,2025-09-09 16:24:50,17695597,,9,0,0,False,House,House,Nelson Alexander Flemington,4478,Brittany Findlay,"Built in wardrobes, Secure Parking, Heating, Dishwasher",https://www.domain.com.au/11-brixton-street-flemington-vic-3031-17695597
17698108,FLEMINGTON,3031,700,3042,"Wednesday, 03 September 2025",2025-08-04,36,3,1,1.0,Townhouse,125D Victoria Street,-37.78512,144.93538,2025-09-09 16:24:50,17698108,,7,0,0,False,Townhouse/Villa,Townhouse,Barry Plant Manningham,7015,"Tayla Opitz, Lachlan Wilson","Built in wardrobes, Heating, Balcony / Deck, Dishwasher, Bathtub",https://www.domain.com.au/125d-victoria-street-flemington-vic-3031-17698108
17702625,FLEMINGTON,3031,480,2086,"Friday, 08 August 2025",2025-08-06,34,1,1,1.0,Apartment / Unit / Flat,40/600 Epsom Road,-37.788315,144.92198,2025-09-09 16:24:50,17702625,,10,0,0,False,Apartment,Apartment / Unit / Flat,LITTLE Real Estate Victoria,24974,"Cooper Modica, Thomas Molea","Gas, Heating, Kitchen: Open Plan, Laundry: yes, Pool/Spa Count: 0",https://www.domain.com.au/40-600-epsom-road-flemington-vic-3031-17702625
17709631,FLEMINGTON,3031,390,1521,"Friday, 05 September 2025",2025-08-11,29,1,1,1.0,Apartment / Unit / Flat,9/7-9 Waltham Street,-37.78348,144.92865,2025-09-09 16:24:50,17709631,,8,0,0,False,Apartment,Apartment / Unit / Flat,Nelson Alexander Northcote,4721,Kylie Conning,"Air conditioning, Built in wardrobes, Heating",https://www.domain.com.au/9-7-9-waltham-street-flemington-vic-3031-17709631
17712393,FLEMINGTON,3031,420,1825,"Tuesday, 02 September 2025",2025-08-12,27,1,1,1.0,Apartment / Unit / Flat,17/57 Dover Street,-37.78314,144.92415,2025-09-09 16:24:50,17712393,,6,0,0,False,Apartment,Apartment / Unit / Flat,Nelson Alexander Flemington,4478,Paula Hirmiz,"Intercom, Bath",https://www.domain.com.au/17-57-dover-street-flemington-vic-3031-17712393
17728215,FLEMINGTON,3031,750,3259,"Tuesday, 26 August 2025",2025-08-22,18,3,1,1.0,House,150 Ascot Vale Road,-37.780846,144.92287,2025-09-09 16:24:50,17728215,,11,0,0,False,House,House,Nelson Alexander Flemington,4478,"Gradi Masudi, Cheryl Garton","Gas, Heating, Dishwasher",https://www.domain.com.au/150-ascot-vale-road-flemington-vic-3031-17728215
17729592,FLEMINGTON,3031,390,1695,"Friday, 05 September 2025",2025-08-25,15,1,1,,Apartment / Unit / Flat,4/12 Farnham Court,-37.781696,144.93024,2025-09-09 16:24:50,17729592,,10,0,0,False,Apartment,Apartment / Unit / Flat,Landmark Real Estate,18654,Emily Leow,,https://www.domain.com.au/4-12-farnham-court-flemington-vic-3031-17729592
