listing_id,suburb,postcode,weekly_rent,bond,available_date,date_listed,days_listed,bedrooms,bathrooms,carspaces,property_type,address,lat,lon,scraped_date,domain_page_id,property_id,photo_count,video_count,floorplans_count,virtual_tour,primary_type,secondary_type,agency,agency_id,agent_names,structured_features,url
15289916,GLEN WAVERLEY,3150,680.0,2954.0,"Thursday, 09 October 2025",2025-09-08,1,2,1,1.0,Apartment / Unit / Flat,604/52 Osullivan Road,-37.878693,145.16496,2025-09-09 16:54:55,15289916,PB-9699-OD,12,1,1,True,Apartment,Apartment / Unit / Flat,Austrump Glen Pty Ltd,31049,"Angel Fang, Mary Navarro","Internal Laundry, Heating, Intercom, Built in wardrobes, Balcony, Secure Parking",https://www.domain.com.au/604-52-osullivan-road-glen-waverley-vic-3150-15289916
15518122,GLEN WAVERLEY,3150,945.0,4106.0,"Monday, 06 October 2025",2025-09-09,0,4,3,2.0,House,2 Windella Crescent,-37.895496,145.1574,2025-09-09 16:54:55,15518122,WR-2583-KV,15,0,0,False,House,House,Biggin Scott Glen Waverley,24636,"Leasing Team, Davis  Fung","Internal Laundry, Secure Parking, Heating",https://www.domain.com.au/2-windella-crescent-glen-waverley-vic-3150-15518122
16854959,GLEN WAVERLEY,3150,649.0,,"Friday, 25 July 2025",2025-07-25,46,4,2,2.0,House,26 Glen Tower Drive,-37.88088,145.1808,2025-09-09 16:54:55,16854959,AT-9312-JK,6,0,0,False,House,House,Century 21 Property Group,21959,Con Stefanidis,"Air conditioning, Heating",https://www.domain.com.au/26-glen-tower-drive-glen-waverley-vic-3150-16854959
17083083,GLEN WAVERLEY,3150,795.0,3454.0,"Saturday, 27 September 2025",2025-08-28,12,4,2,2.0,House,11 Range View Court,-37.882256,145.17711,2025-09-09 16:54:55,17083083,JC-0102-OV,14,0,0,False,House,House,Biggin Scott Glen Waverley,24636,"Leasing Team, Eric  Sandjaja","Built in wardrobes, Internal Laundry, Secure Parking, Heating, Shed",https://www.domain.com.au/11-range-view-court-glen-waverley-vic-3150-17083083
17200943,GLEN WAVERLEY,3150,670.0,2911.0,"Tuesday, 23 September 2025",2025-09-09,0,2,2,1.0,Apartment / Unit / Flat,G04/24 Bogong Avenue,-37.881947,145.16147,2025-09-09 16:54:55,17200943,,14,0,0,False,Apartment,Apartment / Unit / Flat,JRW Property International,21901,JRW RENTALS DEPARTMENT 1,"Internal Laundry, Intercom, Balcony / Deck, Air conditioning, Built in wardrobes, Secure Parking",https://www.domain.com.au/g04-24-bogong-avenue-glen-waverley-vic-3150-17200943
17579480,GLEN WAVERLEY,3150,1250.0,,"Saturday, 24 May 2025",2025-05-19,113,4,3,2.0,House,87 Jasmine Circuit,-37.90247,145.15944,2025-09-09 16:54:55,17579480,,12,1,1,False,House,House,Ausky Group,20742,"Ausky Real Estate, Vivi Liana","Air conditioning, Alarm System, Broadband internet access, Garden / Courtyard, Dishwasher",https://www.domain.com.au/87-jasmine-circuit-glen-waverley-vic-3150-17579480
17691153,GLEN WAVERLEY,3150,990.0,5940.0,"Monday, 25 August 2025",2025-07-29,42,4,3,1.0,Townhouse,5/1 Kennedy Street,-37.876625,145.1672,2025-09-09 16:54:55,17691153,,10,0,0,False,Townhouse/Villa,Townhouse,Jellis Craig Mount Waverley ,17805,"Zahra Sharifi, Leighanne Chong","Gas, Internal Laundry, Built in wardrobes, Ducted Cooling, Ducted Heating, Remote Garage, Shed",https://www.domain.com.au/5-1-kennedy-street-glen-waverley-vic-3150-17691153
17707984,GLEN WAVERLEY,3150,1180.0,7080.0,"Friday, 08 August 2025",2025-08-08,32,4,3,2.0,House,21 Stirling Crescent,-37.889652,145.17906,2025-09-09 16:54:55,17707984,,19,0,1,False,House,House,Jellis Craig Mount Waverley ,17805,"Tiffany Pan, Stephanie Petrakis","Fireplace(s), Split System Air Con, Study, Built in wardrobes, Balcony / Deck, Dishwasher, Ducted Cooling, Ducted Heating, Intercom, Remote Garage",https://www.domain.com.au/21-stirling-crescent-glen-waverley-vic-3150-17707984
17708603,GLEN WAVERLEY,3150,850.0,3693.0,"Saturday, 16 August 2025",2025-08-11,29,4,3,2.0,Townhouse,1/35 Folkestone Road,-37.860973,145.15459,2025-09-09 16:54:55,17708603,,15,0,1,False,Townhouse/Villa,Townhouse,CHN Real Estate Group,29444,"Angeline Zhang, Winnie Wen","Heating, Dishwasher, Air conditioning, Remote Garage, Built in wardrobes",https://www.domain.com.au/1-35-folkestone-road-glen-waverley-vic-3150-17708603
17708964,GLEN WAVERLEY,3150,800.0,,"Friday, 22 August 2025",2025-08-11,29,3,2,2.0,Townhouse,2/3 Ranfurlie Drive,-37.89378,145.16432,2025-09-09 16:54:55,17708964,,9,0,0,False,Townhouse/Villa,Townhouse,Ray White (Judd White Group),17402,"Lida Khem, Holly Huo","Gas, Secure Parking, Heating",https://www.domain.com.au/2-3-ranfurlie-drive-glen-waverley-vic-3150-17708964
17711535,GLEN WAVERLEY,3150,780.0,3389.0,"Tuesday, 12 August 2025",2025-08-12,28,2,2,1.0,Apartment / Unit / Flat,718/52-54 O'Sullivan Rd,-37.8787,145.16496,2025-09-09 16:54:55,17711535,,8,0,0,False,Apartment,Apartment / Unit / Flat,Harcourts Vermont South,20439,Harcourts Vermont South,"Built in wardrobes, Gas, Internal Laundry, Intercom, Heating, Dishwasher, Balcony / Deck",https://www.domain.com.au/718-52-54-o-sullivan-rd-glen-waverley-vic-3150-17711535
17722310,GLEN WAVERLEY,3150,1080.0,6480.0,"Friday, 19 September 2025",2025-08-19,21,4,3,2.0,Townhouse,2/63 Capital Avenue,-37.86879,145.17752,2025-09-09 16:54:55,17722310,,6,0,0,False,Townhouse/Villa,Townhouse,Jellis Craig Mount Waverley ,17805,"Stephanie Petrakis, Jane Yuan","Dishwasher, Remote Garage, Ducted Heating, Evaporative Cooling",https://www.domain.com.au/2-63-capital-avenue-glen-waverley-vic-3150-17722310
17722482,GLEN WAVERLEY,3150,1100.0,6600.0,"Thursday, 11 September 2025",2025-08-19,21,4,3,2.0,Townhouse,1/48 Mount Street,-37.883694,145.1676,2025-09-09 16:54:55,17722482,,10,0,1,False,Townhouse/Villa,Townhouse,Jellis Craig Mount Waverley ,17805,"Zahra Sharifi, Andrea How","Gas, Internal Laundry, Dishwasher, Split System Air Con, Split System Heating, Balcony / Deck",https://www.domain.com.au/1-48-mount-street-glen-waverley-vic-3150-17722482
17725483,GLEN WAVERLEY,3150,675.0,2933.0,"Saturday, 20 September 2025",2025-08-21,19,3,1,3.0,House,27 Viggers Parade,-37.897717,145.17123,2025-09-09 16:54:55,17725483,,8,0,0,True,House,House,Jellis Craig Glen Waverley,5378,"Jocelyn  Leong, Tamanna Duggal","Gas, Internal Laundry, Remote Garage, Balcony / Deck, Split System Heating, Split System Air Con, Built in wardrobes",https://www.domain.com.au/27-viggers-parade-glen-waverley-vic-3150-17725483
17728242,GLEN WAVERLEY,3150,750.0,3259.0,"Friday, 22 August 2025",2025-08-22,18,4,2,1.0,House,82 Blackburn Road,-37.86215,145.15059,2025-09-09 16:54:55,17728242,,11,0,0,False,House,House,CHN Real Estate Group,29444,"Suki Chan, Winnie Wen","Heating, Shed",https://www.domain.com.au/82-blackburn-road-glen-waverley-vic-3150-17728242
17746300,GLEN WAVERLEY,3150,640.0,2781.0,"Saturday, 06 September 2025",2025-09-03,5,3,1,2.0,Apartment / Unit / Flat,1/33 Kirstina Rd,-37.890182,145.16801,2025-09-09 16:54:55,17746300,,7,1,1,True,Apartment,Apartment / Unit / Flat,   Gary Peer,26354,Anthony Lee,"Secure Parking, Garden / Courtyard, Fully fenced, Built in wardrobes, Dishwasher, Floorboards, Gas Heating, Internal Laundry",https://www.domain.com.au/1-33-kirstina-rd-glen-waverley-vic-3150-17746300
17746780,GLEN WAVERLEY,3150,910.0,3954.0,"Monday, 29 September 2025",2025-09-04,5,3,2,2.0,House,9 Groom Court,-37.875103,145.17009,2025-09-09 16:54:55,17746780,,10,0,0,False,House,House,Ray White (Judd White Group),17402,Catherine Howard,Secure Parking,https://www.domain.com.au/9-groom-court-glen-waverley-vic-3150-17746780
17749075,GLEN WAVERLEY,3150,630.0,2738.0,"Wednesday, 22 October 2025",2025-09-05,4,4,2,2.0,House,8 Zola Court,-37.861725,145.15681,2025-09-09 16:54:55,17749075,,7,0,0,False,House,House,Ray White (Judd White Group),17402,Lida Khem,"Built in wardrobes, Gas, Internal Laundry, Heating",https://www.domain.com.au/8-zola-court-glen-waverley-vic-3150-17749075
17752530,GLEN WAVERLEY,3150,620.0,2694.0,"Thursday, 25 September 2025",2025-09-08,0,3,1,2.0,House,730 Highbury Road,-37.863068,145.17589,2025-09-09 16:54:55,17752530,,14,0,1,False,House,House,Ray White (Judd White Group),17402,Rick Massarello,"Air conditioning, Shed, Floorboards, Internal Laundry, Pets Allowed, Gas, Heating, Secure Parking",https://www.domain.com.au/730-highbury-road-glen-waverley-vic-3150-17752530
17752570,GLEN WAVERLEY,3150,895.0,3889.0,"Friday, 26 September 2025",2025-09-09,0,2,2,1.0,Apartment / Unit / Flat,903/23 Osullivan Road,-37.876373,145.16418,2025-09-09 16:54:55,17752570,,25,0,1,False,Apartment,Apartment / Unit / Flat,Harcourts Balwyn,33628,Kelvin Xiao,"Air conditioning, Ensuite, Floorboards, Gym, Alarm System, Intercom, Built in wardrobes, Internal Laundry, Cable or Satellite, Gas, Broadband internet access, Heating, Dishwasher, Study, Furnished, Secure Parking, Balcony / Deck, Garden / Courtyard, Swimming Pool, City Views, Double glazed windows, Wall / ceiling insulation, Solar panels",https://www.domain.com.au/903-23-osullivan-road-glen-waverley-vic-3150-17752570
14318882,GLEN WAVERLEY,3150,1150.0,6735.0,"Saturday, 13 September 2025",2025-09-04,5,4,3,2.0,Townhouse,1/16 Hampshire Road,-37.901,145.1446,2025-09-09 16:55:00,14318882,,12,0,0,False,Townhouse/Villa,Townhouse,LongView Real Estate,7797,Georgia Soldatos,"Internal Laundry, Study, Floorboards, Built in wardrobes, Dishwasher, Bathtub, Gas Appliances, Ducted Heating, Air conditioning, Ensuite(s), Deck, Remote Garage, Water Tank",https://www.domain.com.au/1-16-hampshire-road-glen-waverley-vic-3150-14318882
15465726,GLEN WAVERLEY,3150,800.0,3476.0,"Tuesday, 22 July 2025",2025-06-18,83,5,3,2.0,House,25 Caithness Crescent,-37.88909,145.17953,2025-09-09 16:55:00,15465726,ZZ-2031-UP,10,0,0,False,House,House,Biggin Scott Glen Waverley,24636,"Leasing Team, Eric  Sandjaja","Internal Laundry, Secure Parking, Fireplace(s), Heating, Balcony / Deck",https://www.domain.com.au/25-caithness-crescent-glen-waverley-vic-3150-15465726
15641790,GLEN WAVERLEY,3150,820.0,3563.0,"Friday, 08 March 2024",2025-09-03,6,3,2,2.0,Townhouse,1/168 Blackburn Road,-37.86931,145.14922,2025-09-09 16:55:00,15641790,TD-0497-EA,15,0,0,False,Townhouse/Villa,Townhouse,Sahara Real Estate,30767,"Robyn Morgan, Sahara RE Admin","Internal Laundry, Heating, Air conditioning, Floorboards, Built in wardrobes, Separate Dining Room, Secure Parking, Study, Powder Room, Ducted Vacuum, Alarm System, Intercom",https://www.domain.com.au/1-168-blackburn-road-glen-waverley-vic-3150-15641790
15915180,GLEN WAVERLEY,3150,670.0,2911.0,"Friday, 25 July 2025",2025-07-03,68,4,2,2.0,House,24 Dorset Street,-37.900257,145.14651,2025-09-09 16:55:00,15915180,MP-5050-WW,12,0,0,False,House,House,Ray White Ferntree Gully,7876,Ray White Rental Centre,"Gas, Internal Laundry, Bath, Pets Allowed, Heating, Fully fenced",https://www.domain.com.au/24-dorset-street-glen-waverley-vic-3150-15915180
16403833,GLEN WAVERLEY,3150,670.0,2911.0,"Friday, 10 October 2025",2025-09-02,7,3,1,2.0,House,52 Johnson Drive,-37.89476,145.1623,2025-09-09 16:55:00,16403833,FE-0315-GA,8,0,0,False,House,House,Biggin Scott Glen Waverley,24636,"Leasing Team, Eric  Sandjaja","Air conditioning, Built in wardrobes, Heating",https://www.domain.com.au/52-johnson-drive-glen-waverley-vic-3150-16403833
16951989,GLEN WAVERLEY,3150,650.0,2824.0,"Saturday, 06 September 2025",2025-08-26,14,3,1,,House,21 Merrick Cres,-37.896976,145.16142,2025-09-09 16:55:00,16951989,NE-6391-AA,9,1,1,True,House,House,LongView Real Estate,7797,Tanaiya Moussa,"Gas, Fireplace(s), Built in wardrobes, Bathtub, Ducted Heating, Pets Allowed",https://www.domain.com.au/21-merrick-cres-glen-waverley-vic-3150-16951989
17120949,GLEN WAVERLEY,3150,720.0,3129.0,"Friday, 12 September 2025",2025-08-20,20,3,2,2.0,Apartment / Unit / Flat,2/11 Fiander Avenue,-37.87781,145.14882,2025-09-09 16:55:00,17120949,SH-1015-JP,7,0,0,False,Apartment,Apartment / Unit / Flat,Ray White Wantirna,16586,Angelika Bogdanov,"Gas, Internal Laundry, Floorboards, Alarm System, Built in wardrobes, Bath, Heating, Dishwasher, Secure Parking, Balcony / Deck",https://www.domain.com.au/2-11-fiander-avenue-glen-waverley-vic-3150-17120949
17165716,GLEN WAVERLEY,3150,700.0,3042.0,"Friday, 03 October 2025",2025-09-01,8,3,2,1.0,Apartment / Unit / Flat,2/40 Cambridge Drive,-37.89178,145.14989,2025-09-09 16:55:00,17165716,QM-9437-DR,6,0,0,False,Apartment,Apartment / Unit / Flat,Biggin Scott Glen Waverley,24636,"Leasing Team, Elaine Chen","Built in wardrobes, Secure Parking, Heating",https://www.domain.com.au/2-40-cambridge-drive-glen-waverley-vic-3150-17165716
17609167,GLEN WAVERLEY,3150,790.0,3433.0,"Monday, 29 September 2025",2025-08-28,12,3,2,2.0,Townhouse,8/143-149 Coleman Parade,-37.879826,145.16032,2025-09-09 16:55:00,17609167,,9,0,0,False,Townhouse/Villa,Townhouse,Biggin Scott Glen Waverley,24636,"Leasing Team, Thanasi Mallios","Air conditioning, Internal Laundry, Secure Parking, Heating, Dishwasher, Balcony / Deck",https://www.domain.com.au/8-143-149-coleman-parade-glen-waverley-vic-3150-17609167
17624400,GLEN WAVERLEY,3150,750.0,3259.0,"Tuesday, 17 September 2024",2025-08-19,21,4,2,2.0,House,7 Boyanna Road,-37.876575,145.17442,2025-09-09 16:55:00,17624400,,8,0,1,False,House,House,HARCOURTS SETTLE,38050,Steven Guan,Heating,https://www.domain.com.au/7-boyanna-road-glen-waverley-vic-3150-17624400
17646137,GLEN WAVERLEY,3150,575.0,2499.0,"Tuesday, 01 July 2025",2025-07-01,70,3,1,2.0,House,4 Coomleigh Avenue,-37.87002,145.16888,2025-09-09 16:55:00,17646137,,7,0,0,False,House,House,Ray White Ferntree Gully,7876,Ray White Rental Centre,"Built in wardrobes, Internal Laundry",https://www.domain.com.au/4-coomleigh-avenue-glen-waverley-vic-3150-17646137
17699804,GLEN WAVERLEY,3150,1250.0,5432.0,"Friday, 08 August 2025",2025-08-04,35,4,3,2.0,House,18 Glen Road,-37.881145,145.16872,2025-09-09 16:55:00,17699804,,12,0,0,False,House,House,Biggin Scott Glen Waverley,24636,"Leasing Team, Davis  Fung","Internal Laundry, Pets Allowed, Secure Parking, Heating, Balcony / Deck",https://www.domain.com.au/18-glen-road-glen-waverley-vic-3150-17699804
17702981,GLEN WAVERLEY,3150,830.0,3607.0,"Monday, 22 September 2025",2025-08-06,34,4,2,1.0,Townhouse,62C Pepperell Avenue,-37.882256,145.15132,2025-09-09 16:55:00,17702981,,12,0,0,False,Townhouse/Villa,Townhouse,HARCOURTS SETTLE,38050,Steven Guan,"Air conditioning, Built in wardrobes, Internal Laundry, Secure Parking, Heating, Dishwasher, Study, Shed, Balcony / Deck",https://www.domain.com.au/62c-pepperell-avenue-glen-waverley-vic-3150-17702981
17704254,GLEN WAVERLEY,3150,850.0,3693.0,"Wednesday, 06 August 2025",2025-08-06,33,4,2,2.0,House,15 Cambridge Drive,-37.89089,145.14685,2025-09-09 16:55:00,17704254,,13,0,0,False,House,House,YPA Cranbourne,31602,"Hemant Dobriyal, Pulkit Khetarpal",,https://www.domain.com.au/15-cambridge-drive-glen-waverley-vic-3150-17704254
17731804,GLEN WAVERLEY,3150,665.0,2890.0,"Thursday, 18 September 2025",2025-08-26,14,3,2,2.0,Apartment / Unit / Flat,1/25 Panoramic Grove,-37.882294,145.1688,2025-09-09 16:55:00,17731804,,7,0,0,False,Apartment,Apartment / Unit / Flat,Roger Davis Real Estate,6422,Monique Davis,"Gas, Built in wardrobes, Dishwasher, Ducted Cooling, Ducted Heating, Remote Garage, Ensuite",https://www.domain.com.au/1-25-panoramic-grove-glen-waverley-vic-3150-17731804
17732752,GLEN WAVERLEY,3150,795.0,3454.0,"Tuesday, 26 August 2025",2025-08-26,14,3,2,2.0,House,37 Myers Avenue,-37.876858,145.15834,2025-09-09 16:55:00,17732752,,10,0,0,False,House,House,Roger Davis Real Estate,6422,Vincent Zhao,"Secure Parking, Dishwasher, Ducted Heating, Built in wardrobes, Evaporative Cooling, Ensuite",https://www.domain.com.au/37-myers-avenue-glen-waverley-vic-3150-17732752
17733323,GLEN WAVERLEY,3150,690.0,2998.0,"Monday, 15 September 2025",2025-08-27,13,3,2,2.0,Townhouse,2/20 Tulloch Grove,-37.899113,145.1509,2025-09-09 16:55:00,17733323,,8,0,1,True,Townhouse/Villa,Townhouse,Jellis Craig Glen Waverley,5378,"Jocelyn  Leong, Sylvia Budiman","Internal Laundry, Bath, Heating, Remote Garage, Built in wardrobes, Dishwasher, Alarm System",https://www.domain.com.au/2-20-tulloch-grove-glen-waverley-vic-3150-17733323
17735206,GLEN WAVERLEY,3150,650.0,2824.0,"Wednesday, 27 August 2025",2025-08-27,13,2,1,1.0,House,5/6 Edith Street,-37.87367,145.1524,2025-09-09 16:55:00,17735206,,12,0,1,False,House,House,Jellis Craig Glen Waverley,5378,"Kayla Becker, Stephanie Petrakis, Sylvia Budiman","Gas, Internal Laundry, Secure Parking, Split System Air Con, Built in wardrobes, Garden / Courtyard, Dishwasher, Ducted Heating",https://www.domain.com.au/5-6-edith-street-glen-waverley-vic-3150-17735206
17740809,GLEN WAVERLEY,3150,680.0,2955.0,"Monday, 29 September 2025",2025-09-01,8,3,1,1.0,Townhouse,1/47 Panoramic Grove,-37.883972,145.16846,2025-09-09 16:55:00,17740809,,6,0,1,True,Townhouse/Villa,Townhouse,Jellis Craig Glen Waverley,5378,"Jocelyn  Leong, Sylvia Budiman","Gas, Internal Laundry, Bath, Balcony / Deck, Remote Garage, Garden / Courtyard, Split System Heating, Split System Air Con, Built in wardrobes, Ducted Heating",https://www.domain.com.au/1-47-panoramic-grove-glen-waverley-vic-3150-17740809
17748076,GLEN WAVERLEY,3150,700.0,3042.0,"Monday, 15 September 2025",2025-09-04,4,3,2,1.0,House,1 Crosby Dr,-37.884983,145.14934,2025-09-09 16:55:00,17748076,,7,0,0,False,House,House,Levic Group Pty Ltd,32569,Victoria Chen,"Built in wardrobes, Secure Parking, Study",https://www.domain.com.au/1-crosby-dr-glen-waverley-vic-3150-17748076
14874960,GLEN WAVERLEY,3150,610.0,2650.0,"Friday, 24 October 2025",2025-09-01,8,3,1,,House,36 Cappella Ct,-37.89572,145.16745,2025-09-09 16:55:05,14874960,MQ-6888-FC,11,1,0,False,House,House,Cubbi,24478,Cubbi (36258),"Fully fenced, Air conditioning, Split system heating, Pets Allowed",https://www.domain.com.au/36-cappella-ct-glen-waverley-vic-3150-14874960
15458657,GLEN WAVERLEY,3150,880.0,,"Wednesday, 01 October 2025",2025-09-02,7,4,2,2.0,House,39 Crows Lane,-37.86482,145.16353,2025-09-09 16:55:05,15458657,RP-5854-XF,11,0,0,False,House,House,Paragon Real Estate Pty Ltd,17337,Angela Wu,"Secure Parking, Study",https://www.domain.com.au/39-crows-lane-glen-waverley-vic-3150-15458657
15640782,GLEN WAVERLEY,3150,750.0,3259.0,"Tuesday, 30 September 2025",2025-08-22,18,3,2,2.0,Apartment / Unit / Flat,2/14 Eastleigh Drive,-37.88244,145.18391,2025-09-09 16:55:05,15640782,IS-5464-BI,7,0,1,False,Apartment,Apartment / Unit / Flat,Barry Plant (Waverley),18349,Suzanna Boyes 수잔나,"Air conditioning, Gas, Secure Parking, Heating, Dishwasher",https://www.domain.com.au/2-14-eastleigh-drive-glen-waverley-vic-3150-15640782
16037594,GLEN WAVERLEY,3150,650.0,2824.0,"Friday, 26 September 2025",2025-08-29,11,4,1,2.0,House,14 Hampstead Crescent,-37.902676,145.16663,2025-09-09 16:55:05,16037594,EY-6544-HL,11,0,1,False,House,House,Harcourts Vermont South,20439,Harcourts Vermont South,Secure Parking,https://www.domain.com.au/14-hampstead-crescent-glen-waverley-vic-3150-16037594
17693201,GLEN WAVERLEY,3150,750.0,3259.0,"Wednesday, 30 July 2025",2025-07-30,41,3,2,1.0,Apartment / Unit / Flat,3/748-750 Waverley Rd Service Road,-37.889576,145.1667,2025-09-09 16:55:05,17693201,,11,0,0,False,Apartment,Apartment / Unit / Flat,Professionals First & Co,29341,"Jing Chong, William Zhao","Built in wardrobes, Furnished, Heating",https://www.domain.com.au/3-748-750-waverley-rd-service-road-glen-waverley-vic-3150-17693201
17702431,GLEN WAVERLEY,3150,850.0,3693.0,"Wednesday, 06 August 2025",2025-08-06,34,3,1,1.0,House,22 Lincoln Avenue,-37.884266,145.15773,2025-09-09 16:55:05,17702431,,10,0,0,False,House,House,Professionals First & Co,29341,"Jing Chong, William Zhao",,https://www.domain.com.au/22-lincoln-avenue-glen-waverley-vic-3150-17702431
17703142,GLEN WAVERLEY,3150,550.0,2390.0,"Saturday, 16 August 2025",2025-08-06,34,2,1,1.0,Apartment / Unit / Flat,1/45 Willow Ave,-37.86524,145.15974,2025-09-09 16:55:05,17703142,,9,0,0,False,Apartment,Apartment / Unit / Flat,Leaders Real Estate,18070,Daniel Chin,"Fully fenced, Built in wardrobes, Floorboards, Ducted Heating",https://www.domain.com.au/1-45-willow-ave-glen-waverley-vic-3150-17703142
17705660,GLEN WAVERLEY,3150,1500.0,9000.0,"Thursday, 07 August 2025",2025-08-07,33,4,3,2.0,House,99B Watsons Road,-37.900238,145.16815,2025-09-09 16:55:05,17705660,,17,0,0,False,House,House,Diamond Property Management,31578,James Ollaik,"Built in wardrobes, Bath, Heating",https://www.domain.com.au/99b-watsons-road-glen-waverley-vic-3150-17705660
17709920,GLEN WAVERLEY,3150,725.0,3150.0,"Monday, 11 August 2025",2025-08-11,29,4,1,2.0,House,8 Arianne Road,-37.875725,145.1736,2025-09-09 16:55:05,17709920,,11,0,0,False,House,House,Professionals First & Co,29341,"Jing Chong, Robert Nakos",,https://www.domain.com.au/8-arianne-road-glen-waverley-vic-3150-17709920
17711615,GLEN WAVERLEY,3150,650.0,2824.0,"Thursday, 28 August 2025",2025-08-12,28,3,1,2.0,House,21 Roberts Street,-37.890816,145.16678,2025-09-09 16:55:05,17711615,,9,0,0,False,House,House,Nexus Real Estate,24300,Nexus Property Management,"Air conditioning, Gas, Internal Laundry, Heating",https://www.domain.com.au/21-roberts-street-glen-waverley-vic-3150-17711615
17712921,GLEN WAVERLEY,3150,850.0,3693.0,"Wednesday, 20 August 2025",2025-08-13,27,4,2,2.0,House,4 Glenview Court,-37.882076,145.17458,2025-09-09 16:55:05,17712921,,8,0,2,False,House,House,Jellis Craig Mount Waverley ,17805,"John Jin, Jayden Hong, Lisa Yang","Solar panels, Split System Air Con, Built in wardrobes, Balcony / Deck, Dishwasher, Rumpus Room",https://www.domain.com.au/4-glenview-court-glen-waverley-vic-3150-17712921
17717863,GLEN WAVERLEY,3150,860.0,3737.0,"Friday, 15 August 2025",2025-08-15,25,4,2,2.0,House,113 Coleman Parade,-37.878616,145.15723,2025-09-09 16:55:05,17717863,,9,0,0,False,House,House,Jellis Craig Mount Waverley ,17805,"Tiffany Pan, Zahra Sharifi, Leighanne Chong","Gas, Split System Air Con, Ducted Heating",https://www.domain.com.au/113-coleman-parade-glen-waverley-vic-3150-17717863
17720586,GLEN WAVERLEY,3150,1050.0,4562.0,"Wednesday, 17 September 2025",2025-08-18,22,4,3,2.0,House,24 Kurrajong Avenue,-37.892677,145.15764,2025-09-09 16:55:05,17720586,,11,0,0,False,House,House,Ray White (Judd White Group),17402,Karen Zhang,"Gas, Secure Parking, Heating, Dishwasher, Study",https://www.domain.com.au/24-kurrajong-avenue-glen-waverley-vic-3150-17720586
17728713,GLEN WAVERLEY,3150,650.0,2824.0,"Monday, 22 September 2025",2025-08-22,17,3,1,1.0,Townhouse,4/143-149 Coleman Parade,-37.879757,145.16081,2025-09-09 16:55:05,17728713,,8,0,0,False,Townhouse/Villa,Townhouse,Areal Property - Hawthorn,12104,Amanda Zhou,,https://www.domain.com.au/4-143-149-coleman-parade-glen-waverley-vic-3150-17728713
17736468,GLEN WAVERLEY,3150,890.0,,"Friday, 19 September 2025",2025-08-28,12,4,2,2.0,House,4 Wilkinson Place,-37.89621,145.15236,2025-09-09 16:55:05,17736468,,8,0,0,False,House,House,Haim Real Estate,26100,"Joy Wang, Haim Real Estate Rentals Department","Gas, Internal Laundry, Secure Parking",https://www.domain.com.au/4-wilkinson-place-glen-waverley-vic-3150-17736468
17736617,GLEN WAVERLEY,3150,650.0,,"Tuesday, 16 September 2025",2025-08-28,12,3,2,1.0,House,683 Ferntree Gully Road Road,-37.903954,145.16866,2025-09-09 16:55:05,17736617,,10,0,0,False,House,House,Haim Real Estate,26100,"Joy Wang, Haim Real Estate Rentals Department",,https://www.domain.com.au/683-ferntree-gully-road-road-glen-waverley-vic-3150-17736617
17738008,GLEN WAVERLEY,3150,1200.0,5214.0,"Wednesday, 01 October 2025",2025-08-29,11,4,3,2.0,House,2 Kwinana St,-37.87074,145.15341,2025-09-09 16:55:05,17738008,,15,0,0,False,House,House,Ray White (Box Hill),34590,"Mark Lu, Catherine Jiang","Secure Parking, Intercom, Heating, Balcony / Deck",https://www.domain.com.au/2-kwinana-st-glen-waverley-vic-3150-17738008
17738493,GLEN WAVERLEY,3150,820.0,3563.0,"Friday, 05 September 2025",2025-08-29,11,4,2,2.0,House,39 Leicester Avenue,-37.88776,145.14832,2025-09-09 16:55:05,17738493,,14,0,1,False,House,House,KR Peters Wantirna South,12643,Rebecca Nicolls,"Dishwasher, Built in wardrobes, Floorboards, Broadband, Air-Conditioner, Ducted Heating, Remote Garage",https://www.domain.com.au/39-leicester-avenue-glen-waverley-vic-3150-17738493
17740593,GLEN WAVERLEY,3150,580.0,2520.0,"Friday, 05 September 2025",2025-09-01,8,2,1,1.0,Apartment / Unit / Flat,3/2 Salisbury Court,-37.897476,145.14558,2025-09-09 16:55:05,17740593,,9,0,0,False,Apartment,Apartment / Unit / Flat,Ray White (Judd White Group),17402,"Angela Li, Lida Khem","Built in wardrobes, Gas, Internal Laundry, Secure Parking, Heating, Dishwasher, Shed, Balcony / Deck",https://www.domain.com.au/3-2-salisbury-court-glen-waverley-vic-3150-17740593
17740706,GLEN WAVERLEY,3150,590.0,2564.0,"Monday, 01 September 2025",2025-09-01,8,3,1,,House,66 Lincoln Avenue,-37.884953,145.16377,2025-09-09 16:55:05,17740706,,6,0,0,False,House,House,LITTLE Real Estate Victoria,24974,Anthony Karpathakis,"Internal Laundry, Heating, Pool/Spa Count: 0",https://www.domain.com.au/66-lincoln-avenue-glen-waverley-vic-3150-17740706
15936306,GLEN WAVERLEY,3150,750.0,3259.0,"Thursday, 03 October 2024",2024-09-20,354,2,2,1.0,Apartment / Unit / Flat,2B2B/2 Snedden Drive,-37.87736,145.16457,2025-09-09 16:55:10,15936306,,12,1,0,False,Apartment,Apartment / Unit / Flat,BRW Group,34868,Support Team,"Built in wardrobes, Gas, Internal Laundry, Intercom, Heating, Dishwasher, Balcony / Deck",https://www.domain.com.au/2b2b-2-snedden-drive-glen-waverley-vic-3150-15936306
16124719,GLEN WAVERLEY,3150,,3900.0,,2022-10-07,1067,4,3,2.0,Townhouse,31 Botanic Drive,-37.89264,145.16652,2025-09-09 16:55:10,16124719,XB-8463-OC,1,0,0,False,Townhouse/Villa,Townhouse,BRW Group,34868,,,https://www.domain.com.au/31-botanic-drive-glen-waverley-vic-3150-16124719
16129776,GLEN WAVERLEY,3150,1230.0,5345.0,"Tuesday, 24 December 2024",2022-10-11,1063,3,2,2.0,Apartment / Unit / Flat,1711A/25 O'Sullivan Road,-37.87855,145.16553,2025-09-09 16:55:10,16129776,,19,1,0,True,Apartment,Apartment / Unit / Flat,BRW Group,34868,Janever Lee,"Secure Parking, Balcony / Deck",https://www.domain.com.au/1711a-25-o-sullivan-road-glen-waverley-vic-3150-16129776
16994967,GLEN WAVERLEY,3150,1000.0,4345.0,"Thursday, 02 May 2024",2024-05-02,495,4,3,2.0,House,1/17 THE BOULEVARD,-37.86861,145.16695,2025-09-09 16:55:10,16994967,PX-8283-ZR,21,0,0,False,House,House,LANDNEST REAL ESTATE,30082,"Clayton Leasing team, Landnest Clayton Manager","Air conditioning, Internal Laundry, Study, Vacuum System, Built in wardrobes, Dishwasher, Bathtub, Gas Appliances, Remote Garage, Fully fenced, Solar panels, Furnished",https://www.domain.com.au/1-17-the-boulevard-glen-waverley-vic-3150-16994967
17055798,GLEN WAVERLEY,3150,,3037.0,"Tuesday, 11 June 2024",2024-06-11,455,3,2,1.0,Apartment / Unit / Flat,1/13 Panoramic Grove,-37.881336,145.16898,2025-09-09 16:55:10,17055798,MK-6884-GV,11,0,0,False,Apartment,Apartment / Unit / Flat,Goldbank Real Estate - Pakenham,31480,"Mona Kaur, Husena Bastawala","Built in wardrobes, Internal Laundry, Heating",https://www.domain.com.au/1-13-panoramic-grove-glen-waverley-vic-3150-17055798
17099560,GLEN WAVERLEY,3150,650.0,2824.0,"Monday, 08 July 2024",2024-07-05,430,3,1,2.0,House,24 Mulgrave Street,-37.87046,145.16113,2025-09-09 16:55:10,17099560,MR-5916-FL,23,0,0,False,House,House,LANDNEST REAL ESTATE,30082,Clayton Leasing team,,https://www.domain.com.au/24-mulgrave-street-glen-waverley-vic-3150-17099560
17401741,GLEN WAVERLEY,3150,,3867.0,,2025-01-21,231,4,3,2.0,Townhouse,1/5 Folkestone Road,-37.86067,145.1516,2025-09-09 16:55:10,17401741,JY-4047-EJ,12,0,0,False,Townhouse/Villa,Townhouse,First National Burwood,36821,,"Gas, Bath, Study, Built in wardrobes, Dishwasher, Ducted Heating, Split System Air Conditioning, Remote Garage, Secure Parking",https://www.domain.com.au/1-5-folkestone-road-glen-waverley-vic-3150-17401741
17428044,GLEN WAVERLEY,3150,950.0,4128.0,"Thursday, 06 February 2025",2025-02-06,215,4,3,2.0,House,10/583 Ferntree Gully Road,-37.902283,145.1589,2025-09-09 16:55:10,17428044,,8,0,0,True,House,House,Jellis Craig Glen Waverley,5378,Kayla Becker,"Secure Parking, Heating, Study, Balcony / Deck",https://www.domain.com.au/10-583-ferntree-gully-road-glen-waverley-vic-3150-17428044
17647359,GLEN WAVERLEY,3150,1250.0,7500.0,"Tuesday, 01 July 2025",2025-07-01,70,4,2,2.0,House,85 Jasmine Circuit,-37.902332,145.15967,2025-09-09 16:55:10,17647359,,20,1,1,False,House,House,VICPROP Manningham,29196,Kaan Arel,Internal Laundry,https://www.domain.com.au/85-jasmine-circuit-glen-waverley-vic-3150-17647359
17655508,GLEN WAVERLEY,3150,880.0,3824.0,"Saturday, 09 August 2025",2025-07-07,64,5,3,2.0,House,46 Wilson Road,-37.886322,145.17332,2025-09-09 16:55:10,17655508,,9,0,0,False,House,House,Professionals First & Co,29341,"Jing Chong, Cristina Richmond",,https://www.domain.com.au/46-wilson-road-glen-waverley-vic-3150-17655508
17686247,GLEN WAVERLEY,3150,620.0,2694.0,"Tuesday, 26 August 2025",2025-07-25,46,2,1,1.0,Apartment / Unit / Flat,3/7 Carramar Avenue,-37.87985,145.1577,2025-09-09 16:55:10,17686247,,9,0,1,False,Apartment,Apartment / Unit / Flat,D - Australia Real Estate,34332,Ding Qi,"Heating, Secure Parking, Air conditioning, Built in wardrobes, Garden / Courtyard",https://www.domain.com.au/3-7-carramar-avenue-glen-waverley-vic-3150-17686247
17701622,GLEN WAVERLEY,3150,700.0,3042.0,"Saturday, 30 August 2025",2025-08-05,35,3,2,1.0,Apartment / Unit / Flat,2/3 Owens Avenue,-37.88955,145.15924,2025-09-09 16:55:10,17701622,,5,0,0,False,Apartment,Apartment / Unit / Flat,Professionals Wantirna Knox,18311,Professionals Wantirna Knox,"Secure Parking, Heating",https://www.domain.com.au/2-3-owens-avenue-glen-waverley-vic-3150-17701622
