listing_id,suburb,postcode,weekly_rent,bond,available_date,date_listed,days_listed,bedrooms,bathrooms,carspaces,property_type,address,lat,lon,scraped_date,domain_page_id,property_id,photo_count,video_count,floorplans_count,virtual_tour,primary_type,secondary_type,agency,agency_id,agent_names,structured_features,url
14024048,IVANHOE,3079,600,2607.0,"Friday, 10 October 2025",2025-09-08,1,2,2,1.0,Townhouse,1/54 Liberty Parade,-37.75718,145.03426,2025-09-09 16:33:34,14024048,GE-9748-NH,8,0,1,True,Townhouse/Villa,Townhouse,LITTLE Real Estate Victoria,24974,Sarah Charmand,"Car Accom: Single Garage, Heating: Reverse Cycle Air Conditioning, Cooling: Reverse Cycle Air Conditioning, Cooking: Gas Hotplates and Electric Oven, Furnished",https://www.domain.com.au/1-54-liberty-parade-ivanhoe-vic-3079-14024048
16770257,IVANHOE,3079,500,2173.0,"Friday, 07 November 2025",2025-09-09,0,1,1,1.0,Apartment / Unit / Flat,502/58 Myrtle Street,-37.754364,145.05338,2025-09-09 16:33:34,16770257,,7,1,0,False,Apartment,Apartment / Unit / Flat,Motion Property,8551,Mark Reading,"Gym, Intercom, Floorboards, Built in wardrobes, Remote Garage",https://www.domain.com.au/502-58-myrtle-street-ivanhoe-vic-3079-16770257
16990633,IVANHOE,3079,750,3259.0,"Monday, 25 August 2025",2025-07-30,40,3,2,2.0,Apartment / Unit / Flat,806/125 Bell Street,-37.75353,145.05179,2025-09-09 16:33:34,16990633,SA-2257-VN,21,0,1,False,Apartment,Apartment / Unit / Flat,Samma Real Estate,15424,Ismaeel Hussain,"Dishwasher, Bathtub, Pets Allowed",https://www.domain.com.au/806-125-bell-street-ivanhoe-vic-3079-16990633
17649973,IVANHOE,3079,550,2390.0,"Friday, 08 August 2025",2025-07-02,69,1,1,1.0,Apartment / Unit / Flat,G05/45 Linden Avenue,-37.754837,145.05443,2025-09-09 16:33:34,17649973,,18,0,1,False,Apartment,Apartment / Unit / Flat,Motion Property,8551,Mark Reading,"Gym, Intercom, Study, Floorboards, Built in wardrobes, Dishwasher, Gas Appliances, Split System Heating, Split System Air Conditioning, Balcony, Remote Garage, Energy Eff. Rating: 5",https://www.domain.com.au/g05-45-linden-avenue-ivanhoe-vic-3079-17649973
17675634,IVANHOE,3079,475,2063.0,"Friday, 15 August 2025",2025-07-18,53,1,1,,Apartment / Unit / Flat,204/443 Upper Heidelberg Road,-37.75501,145.0558,2025-09-09 16:33:34,17675634,,10,0,0,False,Apartment,Apartment / Unit / Flat,Jellis Craig Ivanhoe,30455,"Maria Psarras, Michelle De Luca","Internal Laundry, Heating, Intercom, Swimming Pool, Balcony / Deck, Built in wardrobes, Dishwasher, Floorboards, Gym",https://www.domain.com.au/204-443-upper-heidelberg-road-ivanhoe-vic-3079-17675634
17679270,IVANHOE,3079,615,2672.0,"Friday, 25 July 2025",2025-07-22,49,3,1,1.0,Apartment / Unit / Flat,5/96 Locksley Road,-37.767754,145.05058,2025-09-09 16:33:34,17679270,,7,0,0,False,Apartment,Apartment / Unit / Flat,Miles Real Estate Ivanhoe,6011,Gemma Ferola,"Heating, Dishwasher, Balcony / Deck, Secure Parking, Air conditioning, Garden / Courtyard, Built in wardrobes",https://www.domain.com.au/5-96-locksley-road-ivanhoe-vic-3079-17679270
17702735,IVANHOE,3079,820,3563.0,"Friday, 12 September 2025",2025-09-08,1,3,1,3.0,House,14 Robbins Street,-37.761032,145.04288,2025-09-09 16:33:34,17702735,,7,0,0,False,House,House,Miles Real Estate Ivanhoe,6011,Maggie Rough,"Heating, Air conditioning, Built in wardrobes, Floorboards",https://www.domain.com.au/14-robbins-street-ivanhoe-vic-3079-17702735
17703053,IVANHOE,3079,460,1999.0,"Wednesday, 13 August 2025",2025-08-06,34,2,1,1.0,Apartment / Unit / Flat,1/14 Athelstane Grove,-37.763443,145.04095,2025-09-09 16:33:34,17703053,,8,0,0,False,Apartment,Apartment / Unit / Flat,Miles Real Estate Ivanhoe,6011,Lucy Scott,"Heating, Air conditioning, Garden / Courtyard, Built in wardrobes, Floorboards",https://www.domain.com.au/1-14-athelstane-grove-ivanhoe-vic-3079-17703053
17711629,IVANHOE,3079,1100,4779.0,"Tuesday, 19 August 2025",2025-08-12,28,4,3,1.0,Townhouse,70A Hawker Street,-37.75954,145.03665,2025-09-09 16:33:34,17711629,,12,0,0,False,Townhouse/Villa,Townhouse,Jellis Craig Ivanhoe,30455,Sabrina Rechichi,"Built in wardrobes, Secure Parking",https://www.domain.com.au/70a-hawker-street-ivanhoe-vic-3079-17711629
17723504,IVANHOE,3079,500,2173.0,"Friday, 05 September 2025",2025-08-20,20,1,1,1.0,Apartment / Unit / Flat,412/443 Upper Heidelberg Road,-37.75501,145.0558,2025-09-09 16:33:34,17723504,,12,0,0,False,Apartment,Apartment / Unit / Flat,Buxton Stonnington,122,Cameron  Gibson,"Air conditioning, Split System Air Con, Balcony / Deck, Split System Heating, Built in wardrobes, Floorboards, Intercom, Swimming Pool, Secure Parking, Gym",https://www.domain.com.au/412-443-upper-heidelberg-road-ivanhoe-vic-3079-17723504
17725035,IVANHOE,3079,710,3086.0,"Monday, 01 September 2025",2025-08-20,19,2,2,1.0,Townhouse,15/1007 Heidelberg Road,-37.775978,145.03839,2025-09-09 16:33:34,17725035,,15,0,1,False,Townhouse/Villa,Townhouse,Marvelli Town & Associates,3530,Charles Marvelli,"Pets Allowed, Furnished, Floorboards, Indoor Spa, Gym, Alarm System, Intercom, Built in wardrobes, Cable or Satellite, Broadband internet access, Dishwasher, Study, Ensuite, Bath, Air conditioning, Gas, Fireplace(s), Heating, Secure Parking, Shed, Fully fenced, Balcony / Deck, Garden / Courtyard, Swimming Pool, Outdoor Spa, Greywater system, Rainwater storage tank, Solar hot water, Solar panels",https://www.domain.com.au/15-1007-heidelberg-road-ivanhoe-vic-3079-17725035
17725767,IVANHOE,3079,620,2694.0,"Saturday, 30 August 2025",2025-08-21,19,2,2,1.0,Apartment / Unit / Flat,405/1031 Heidelberg Road,-37.775284,145.03888,2025-09-09 16:33:34,17725767,,6,0,0,False,Apartment,Apartment / Unit / Flat,Miles Real Estate Ivanhoe,6011,Estelle Riley,"Gas, Internal Laundry, Secure Parking, Air conditioning, Intercom, Balcony / Deck, Built in wardrobes, Dishwasher, Floorboards, Study",https://www.domain.com.au/405-1031-heidelberg-road-ivanhoe-vic-3079-17725767
17730198,IVANHOE,3079,590,2564.0,"Saturday, 13 September 2025",2025-08-25,15,2,2,1.0,Apartment / Unit / Flat,108/1045-1059 Heidelberg Road,-37.774788,145.03918,2025-09-09 16:33:34,17730198,,5,0,1,False,Apartment,Apartment / Unit / Flat,Miles Real Estate Ivanhoe,6011,Jessica Bryceson,"Internal Laundry, Secure Parking, Air conditioning, Intercom, Balcony / Deck, Built in wardrobes, Dishwasher, Floorboards",https://www.domain.com.au/108-1045-1059-heidelberg-road-ivanhoe-vic-3079-17730198
17736789,IVANHOE,3079,500,2173.0,"Friday, 26 September 2025",2025-08-28,12,1,1,1.0,Apartment / Unit / Flat,603/125 Bell Street,-37.75353,145.05179,2025-09-09 16:33:34,17736789,,9,0,1,False,Apartment,Apartment / Unit / Flat,Gotham Property,32563,Michelle Chiu,,https://www.domain.com.au/603-125-bell-street-ivanhoe-vic-3079-17736789
17736873,IVANHOE,3079,650,2824.0,"Saturday, 06 September 2025",2025-08-28,12,2,1,1.0,Apartment / Unit / Flat,4/35 Myrtle Street,-37.755302,145.05081,2025-09-09 16:33:34,17736873,,10,0,1,False,Apartment,Apartment / Unit / Flat,Miles Real Estate Ivanhoe,6011,Claudia Hartin,"Secure Parking, Air conditioning, Balcony / Deck, Garden / Courtyard, Outdoor Entertainment Area, Fully fenced, Built in wardrobes, Dishwasher, Floorboards, Gas",https://www.domain.com.au/4-35-myrtle-street-ivanhoe-vic-3079-17736873
17740297,IVANHOE,3079,660,2868.0,"Saturday, 18 October 2025",2025-09-01,8,2,1,1.0,Townhouse,6/5 Edward Court,-37.767765,145.03238,2025-09-09 16:33:34,17740297,,9,0,0,False,Townhouse/Villa,Townhouse, Woodards Manningham ,21971,"Virginia Sier, Manningham Rentals","Internal Laundry, Split System Air Con, Split System Heating, Built in wardrobes, Garden / Courtyard, Dishwasher, Floorboards, Fully fenced, Outdoor Entertainment Area, Pets Allowed, Remote Garage, Secure Parking, Balcony / Deck",https://www.domain.com.au/6-5-edward-court-ivanhoe-vic-3079-17740297
17748383,IVANHOE,3079,850,3693.0,"Tuesday, 30 September 2025",2025-09-05,4,4,2,2.0,House,116 Bond Street,-37.761524,145.03204,2025-09-09 16:33:34,17748383,,10,0,1,False,House,House,Jellis Craig Ivanhoe,30455,"Kiana Arriagada, Edward Wordsworth","Air conditioning, Internal Laundry, Secure Parking",https://www.domain.com.au/116-bond-street-ivanhoe-vic-3079-17748383
17748729,IVANHOE,3079,320,1390.0,"Wednesday, 17 September 2025",2025-09-05,4,1,1,1.0,Apartment / Unit / Flat,12/14-16 Merton Street,-37.77527,145.04189,2025-09-09 16:33:34,17748729,,5,0,0,False,Apartment,Apartment / Unit / Flat,Miles Real Estate Ivanhoe,6011,Ming Kok,"Built in wardrobes, Internal Laundry, Bath, Balcony / Deck",https://www.domain.com.au/12-14-16-merton-street-ivanhoe-vic-3079-17748729
17749167,IVANHOE,3079,625,2716.0,"Wednesday, 17 September 2025",2025-09-05,4,2,2,1.0,Apartment / Unit / Flat,1401/45 Linden Avenue,-37.754433,145.05385,2025-09-09 16:33:34,17749167,,22,1,1,False,Apartment,Apartment / Unit / Flat,Motion Property,8551,Mark Reading,Pets Allowed,https://www.domain.com.au/1401-45-linden-avenue-ivanhoe-vic-3079-17749167
17752733,IVANHOE,3079,725,3150.0,"Tuesday, 07 October 2025",2025-09-09,0,3,2,1.0,Townhouse,6/20 Myrtle Street,-37.75699,145.05092,2025-09-09 16:33:34,17752733,,8,0,1,False,Townhouse/Villa,Townhouse,Jellis Craig Ivanhoe,30455,Maria Psarras,"Internal Laundry, Secure Parking, Heating, Air conditioning, Balcony / Deck, Garden / Courtyard, Outdoor Entertainment Area, Shed, Built in wardrobes, Dishwasher, Floorboards",https://www.domain.com.au/6-20-myrtle-street-ivanhoe-vic-3079-17752733
14434769,IVANHOE,3079,470,2042.0,"Thursday, 18 September 2025",2025-09-01,8,1,1,1.0,Apartment / Unit / Flat,514/443 Upper Heidelberg Road,-37.75501,145.0558,2025-09-09 16:33:40,14434769,,12,0,0,False,Apartment,Apartment / Unit / Flat,LITTLE Real Estate Victoria,24974,Cooper Modica,"Car Accom: Basement Carspace, Pool/Spa Count: 0",https://www.domain.com.au/514-443-upper-heidelberg-road-ivanhoe-vic-3079-14434769
16325157,IVANHOE,3079,590,2563.0,"Friday, 26 September 2025",2025-08-26,14,2,2,1.0,House,206B/56-58 Myrtle Street,-37.754555,145.0532,2025-09-09 16:33:40,16325157,,7,0,1,False,House,House,LITTLE Real Estate Victoria,24974,Cooper Modica,"Pets Allowed, Secure Parking, Intercom, Dishwasher, Balcony / Deck, Heating: Reverse Cycle Air Conditioning, Cooling: Reverse Cycle Air Conditioning, Kitchen: Open Plan, Cooking: Gas Hotplates and Electric Oven, Laundry: Euro, Storage: 206, Pool/Spa Count: 0, Pool/Spa: Inground Spa",https://www.domain.com.au/206b-56-58-myrtle-street-ivanhoe-vic-3079-16325157
17108833,IVANHOE,3079,620,2695.0,"Friday, 19 September 2025",2025-08-29,10,2,2,1.0,Apartment / Unit / Flat,204/125 Bell Street,-37.75353,145.05179,2025-09-09 16:33:40,17108833,CV-4810-ZU,8,0,0,False,Apartment,Apartment / Unit / Flat,Samma Real Estate,15424,Ismaeel Hussain,Pets Allowed,https://www.domain.com.au/204-125-bell-street-ivanhoe-vic-3079-17108833
17152554,IVANHOE,3079,650,2824.0,"Friday, 03 October 2025",2025-09-02,7,2,2,1.0,Apartment / Unit / Flat,301/45 Linden Avenue,-37.754433,145.05385,2025-09-09 16:33:40,17152554,,20,1,1,False,Apartment,Apartment / Unit / Flat,Motion Property,8551,Mark Reading,,https://www.domain.com.au/301-45-linden-avenue-ivanhoe-vic-3079-17152554
17575963,IVANHOE,3079,550,2390.0,"Thursday, 24 July 2025",2025-05-15,116,2,1,1.0,Apartment / Unit / Flat,1/12 Oriel Road,-37.76597,145.03545,2025-09-09 16:33:40,17575963,PX-8133-RG,6,0,0,False,Apartment,Apartment / Unit / Flat,Miles Real Estate Ivanhoe,6011,Emily Micallef,"Gas, Secure Parking, Bath, Heating, Air conditioning, Built in wardrobes",https://www.domain.com.au/1-12-oriel-road-ivanhoe-vic-3079-17575963
17659357,IVANHOE,3079,830,3607.0,"Saturday, 26 July 2025",2025-07-08,62,3,1,2.0,House,313 Upper Heidelberg Road,-37.762997,145.04793,2025-09-09 16:33:40,17659357,,7,0,0,False,House,House,Miles Real Estate Ivanhoe,6011,Estelle Riley,"Secure Parking, Bath, Study, Air conditioning, Garden / Courtyard, Outdoor Entertainment Area, Fully fenced, Dishwasher, Floorboards, Gas",https://www.domain.com.au/313-upper-heidelberg-road-ivanhoe-vic-3079-17659357
17679128,IVANHOE,3079,840,3650.0,"Wednesday, 23 July 2025",2025-07-22,49,3,2,2.0,Townhouse,3/93 Livingstone Street,-37.766647,145.03285,2025-09-09 16:33:40,17679128,,7,0,0,False,Townhouse/Villa,Townhouse,Miles Real Estate Ivanhoe,6011,Linh Truong,"Internal Laundry, Study, Secure Parking, Alarm System, Balcony / Deck, Garden / Courtyard, Outdoor Entertainment Area, Fully fenced, Built in wardrobes, Dishwasher, Gas, Pets Allowed",https://www.domain.com.au/3-93-livingstone-street-ivanhoe-vic-3079-17679128
17710557,IVANHOE,3079,640,2781.0,"Tuesday, 12 August 2025",2025-08-11,28,2,2,1.0,Apartment / Unit / Flat,413C/45 Linden Avenue,-37.754837,145.05443,2025-09-09 16:33:40,17710557,,30,0,0,False,Apartment,Apartment / Unit / Flat,Leader Estate Agents,29930,Dahlia Ahmed,"Internal Laundry, Gym, Heating, Built in wardrobes, Balcony, Outdoor entertaining area",https://www.domain.com.au/413c-45-linden-avenue-ivanhoe-vic-3079-17710557
17730776,IVANHOE,3079,630,2737.0,"Thursday, 18 September 2025",2025-08-25,14,2,2,1.0,Apartment / Unit / Flat,709/125 Bell St,-37.75353,145.05179,2025-09-09 16:33:40,17730776,,10,0,0,False,Apartment,Apartment / Unit / Flat,Samma Real Estate,15424,Ismaeel Hussain,Pets Allowed,https://www.domain.com.au/709-125-bell-st-ivanhoe-vic-3079-17730776
17731453,IVANHOE,3079,630,2738.0,"Tuesday, 26 August 2025",2025-08-26,14,3,1,2.0,Villa,3/17 Jellicoe Street,-37.75894,145.0421,2025-09-09 16:33:40,17731453,,10,0,0,False,Townhouse/Villa,Villa,Love & Co Reservoir,7121,Sydney Guerin,"Air conditioning, Gas, Secure Parking, Bath, Heating, Close to transport, Close to shops, Close to schools",https://www.domain.com.au/3-17-jellicoe-street-ivanhoe-vic-3079-17731453
17733661,IVANHOE,3079,605,2629.0,"Wednesday, 27 August 2025",2025-08-27,13,2,2,1.0,Apartment / Unit / Flat,311/125 Bell St,-37.75353,145.05179,2025-09-09 16:33:40,17733661,,12,0,0,False,Apartment,Apartment / Unit / Flat,Samma Real Estate,15424,Ismaeel Hussain,"Intercom, Floorboards, Built in wardrobes, Dishwasher, Gas Appliances, Split System Heating, Air conditioning, Outdoor Entertainment Area, Balcony, Remote Garage, Secure Parking, City Views, Pets Allowed, Furnished",https://www.domain.com.au/311-125-bell-st-ivanhoe-vic-3079-17733661
17735761,IVANHOE,3079,470,2042.0,"Saturday, 13 September 2025",2025-08-28,12,2,1,1.0,Apartment / Unit / Flat,4/14 Athelstane Grove,-37.76341,145.04071,2025-09-09 16:33:40,17735761,,5,0,0,False,Apartment,Apartment / Unit / Flat,Miles Real Estate Ivanhoe,6011,Lucy Scott,"Heating, Air conditioning, Built in wardrobes",https://www.domain.com.au/4-14-athelstane-grove-ivanhoe-vic-3079-17735761
17738687,IVANHOE,3079,430,1868.0,"Friday, 12 September 2025",2025-08-29,11,1,1,,Apartment / Unit / Flat,104/443 Upper Heidelberg Road,-37.75501,145.0558,2025-09-09 16:33:40,17738687,,17,0,0,False,Apartment,Apartment / Unit / Flat,Buxton Stonnington,122,Cameron  Gibson,"Split System Air Con, Split System Heating, Balcony / Deck, Intercom, Built in wardrobes, Swimming Pool, Floorboards",https://www.domain.com.au/104-443-upper-heidelberg-road-ivanhoe-vic-3079-17738687
17739883,IVANHOE,3079,595,2585.0,"Monday, 01 September 2025",2025-09-01,8,2,1,1.0,Apartment / Unit / Flat,10/1 Kenilworth Parade,-37.769432,145.04095,2025-09-09 16:33:40,17739883,,7,0,2,False,Apartment,Apartment / Unit / Flat,Hudson Bond,15409,Hudson Bond Rentals,"Gas, Internal Laundry, Dishwasher, Air conditioning, Heating, Built in wardrobes, Close to transport, Close to shops, Close to schools, Security Access, Car Parking - Basement, Openable Windows, Window Treatments",https://www.domain.com.au/10-1-kenilworth-parade-ivanhoe-vic-3079-17739883
17740865,IVANHOE,3079,520,2260.0,"Wednesday, 10 September 2025",2025-09-01,8,1,1,1.0,Apartment / Unit / Flat,703/443 Upper Heidelberg Road,-37.75501,145.0558,2025-09-09 16:33:40,17740865,,9,0,0,False,Apartment,Apartment / Unit / Flat,BLACK & WHITE ESTATE AGENTS (VIC) PTY LTD,12640,Kurt  Rimes,"Internal Laundry, Balcony / Deck, Built in wardrobes, Dishwasher, Secure Parking, Air conditioning, Heating",https://www.domain.com.au/703-443-upper-heidelberg-road-ivanhoe-vic-3079-17740865
17740978,IVANHOE,3079,525,2285.0,"Friday, 05 September 2025",2025-09-01,8,1,1,1.0,Apartment / Unit / Flat,608/45 Linden Avenue,-37.754433,145.05385,2025-09-09 16:33:40,17740978,,21,0,1,False,Apartment,Apartment / Unit / Flat,Pennisi Real Estate,7307,Pennisi Leasing Team,"Pets Allowed, Secure Parking, Heating, Intercom, Balcony / Deck, Built in wardrobes, Dishwasher, Floorboards, Internal Laundry",https://www.domain.com.au/608-45-linden-avenue-ivanhoe-vic-3079-17740978
17743325,IVANHOE,3079,630,2737.0,"Monday, 15 September 2025",2025-09-02,7,2,1,1.0,Apartment / Unit / Flat,G03/15 Ivanhoe Parade,-37.767685,145.04509,2025-09-09 16:33:40,17743325,,8,0,0,False,Apartment,Apartment / Unit / Flat,Haughton Stotts Real Estate,11284,Roula Fotinatos,"Internal Laundry, Secure Parking, Intercom",https://www.domain.com.au/g03-15-ivanhoe-parade-ivanhoe-vic-3079-17743325
17743505,IVANHOE,3079,660,2867.0,"Thursday, 18 September 2025",2025-09-02,7,3,2,2.0,Apartment / Unit / Flat,3/14 Forster Street,-37.755817,145.05429,2025-09-09 16:33:40,17743505,,8,0,0,False,Apartment,Apartment / Unit / Flat,Haughton Stotts Real Estate,11284,Roula Fotinatos,"Air conditioning, Secure Parking, Heating",https://www.domain.com.au/3-14-forster-street-ivanhoe-vic-3079-17743505
17745740,IVANHOE,3079,620,2694.0,"Saturday, 20 September 2025",2025-09-03,6,3,1,2.0,Townhouse,3/8-10 Bailey Grove,-37.76939,145.05386,2025-09-09 16:33:40,17745740,,7,0,1,False,Townhouse/Villa,Townhouse,Miles Real Estate Ivanhoe,6011,Geoff Fox,"Gas, Heating, Balcony / Deck, Garden / Courtyard, Fully fenced, Built in wardrobes, Dishwasher",https://www.domain.com.au/3-8-10-bailey-grove-ivanhoe-vic-3079-17745740
17745750,IVANHOE,3079,610,,"Thursday, 04 September 2025",2025-09-03,6,2,1,1.0,Apartment / Unit / Flat,1005C/45 Linden Avenue,-37.754837,145.05443,2025-09-09 16:33:40,17745750,,14,0,0,False,Apartment,Apartment / Unit / Flat,Investate International,33705,"Novine Zhang, Samantha Young","Internal Laundry, Balcony / Deck, Air conditioning, Area Views, Built in wardrobes, Close to transport, Close to shops, Intercom, Close to schools, Ensuite, Security Access, Carpeted, Exhaust, Dishwasher, Floorboards, Gym",https://www.domain.com.au/1005c-45-linden-avenue-ivanhoe-vic-3079-17745750
14733658,IVANHOE,3079,490,2129.0,"Wednesday, 25 June 2025",2025-05-26,106,1,1,1.0,Apartment / Unit / Flat,G14/1 Westley Avenue,-37.76845,145.04433,2025-09-09 16:33:45,14733658,GZ-7921-PF,11,0,1,False,Apartment,Apartment / Unit / Flat,Samma Real Estate,15424,Allen Iverson,"Intercom, Study, Built in wardrobes, Dishwasher, Gas Appliances, Split System Heating, Split System Air Conditioning, Outdoor Entertainment Area, Balcony",https://www.domain.com.au/g14-1-westley-avenue-ivanhoe-vic-3079-14733658
17616308,IVANHOE,3079,600,2608.0,"Saturday, 12 July 2025",2025-06-11,90,2,1,1.0,Apartment / Unit / Flat,203/69 Marshall Street,-37.77159,145.04662,2025-09-09 16:33:45,17616308,,10,1,0,False,Apartment,Apartment / Unit / Flat,MRE,20795,Jivaan Carlyon,"Built in wardrobes, Heating, Balcony / Deck, Car Accom: Carport, Pool/Spa Count: 0",https://www.domain.com.au/203-69-marshall-street-ivanhoe-vic-3079-17616308
17682937,IVANHOE,3079,495,2145.0,"Wednesday, 23 July 2025",2025-07-23,47,2,1,2.0,Apartment / Unit / Flat,2/75 Ivanhoe Parade,-37.76282,145.04535,2025-09-09 16:33:45,17682937,,7,0,0,False,Apartment,Apartment / Unit / Flat,Biggin & Scott Burwood,29878,Jason Cai,"Built in wardrobes, Internal Laundry, Secure Parking, Balcony / Deck",https://www.domain.com.au/2-75-ivanhoe-parade-ivanhoe-vic-3079-17682937
17693976,IVANHOE,3079,750,3258.0,"Thursday, 31 July 2025",2025-07-31,40,3,1,2.0,House,49 Beatty Street,-37.759346,145.0394,2025-09-09 16:33:45,17693976,,10,0,0,False,House,House,Haughton Stotts Real Estate,11284,Joseph El-Fahkri,"Built in wardrobes, Internal Laundry, Bath, Heating",https://www.domain.com.au/49-beatty-street-ivanhoe-vic-3079-17693976
17696117,IVANHOE,3079,450,1955.0,"Saturday, 23 August 2025",2025-08-01,39,2,1,1.0,Apartment / Unit / Flat,7/82 Marshall Street,-37.77049,145.04713,2025-09-09 16:33:45,17696117,,1,0,0,False,Apartment,Apartment / Unit / Flat,Love & Co Reservoir,7121,Rebecca Imbrosciano,"Built in wardrobes, Gas, Internal Laundry, Heating",https://www.domain.com.au/7-82-marshall-street-ivanhoe-vic-3079-17696117
17702976,IVANHOE,3079,920,5500.0,"Wednesday, 06 August 2025",2025-08-06,34,3,2,2.0,Townhouse,12 Huntingfield Pl,-37.753937,145.0512,2025-09-09 16:33:45,17702976,,17,0,2,False,Townhouse/Villa,Townhouse,Samma Real Estate,15424,Allen Iverson,"Floorboards, Built in wardrobes, Dishwasher, Bathtub, Ducted Heating, Ducted Air Conditioning, Ensuite(s), Balcony, Remote Garage, Fully fenced, Pets Allowed",https://www.domain.com.au/12-huntingfield-pl-ivanhoe-vic-3079-17702976
17705109,IVANHOE,3079,800,3000.0,"Thursday, 29 August 2024",2025-08-18,22,4,2,1.0,Townhouse,7 Glossop Lane,-37.757183,145.03949,2025-09-09 16:33:45,17705109,,12,0,0,False,Townhouse/Villa,Townhouse,RentBetter,27499,,"Gas, Bath, Air conditioning, Alarm System, Balcony / Deck, Built in wardrobes, Dishwasher, Heating, Secure Parking",https://www.domain.com.au/7-glossop-lane-ivanhoe-vic-3079-17705109
17707598,IVANHOE,3079,780,3389.0,"Wednesday, 03 September 2025",2025-08-08,32,3,2,3.0,House,2/9 Linton Street,-37.770782,145.0463,2025-09-09 16:33:45,17707598,,12,0,0,False,House,House,Haughton Stotts Real Estate,11284,Roula Fotinatos,"Gas, Internal Laundry, Heating, Dishwasher, Balcony / Deck",https://www.domain.com.au/2-9-linton-street-ivanhoe-vic-3079-17707598
17709578,IVANHOE,3079,495,2173.0,"Wednesday, 27 August 2025",2025-08-11,29,1,1,1.0,Apartment / Unit / Flat,LG 202/45 Linden Avenue,-37.754433,145.05385,2025-09-09 16:33:45,17709578,,17,0,0,True,Apartment,Apartment / Unit / Flat,BLACK & WHITE ESTATE AGENTS (VIC) PTY LTD,12640,"Jake Peters, Kurt  Rimes","Air conditioning, Balcony / Deck, Built in wardrobes, Dishwasher, Intercom, Outdoor Entertaining, Secure Parking",https://www.domain.com.au/lg-202-45-linden-avenue-ivanhoe-vic-3079-17709578
17710388,IVANHOE,3079,1150,6900.0,"Friday, 15 August 2025",2025-08-11,28,4,3,2.0,Townhouse,2/169 Banksia Street,-37.75791,145.04979,2025-09-09 16:33:45,17710388,,7,0,0,False,Townhouse/Villa,Townhouse,Nelson Alexander Ivanhoe,15501,Bec Quanchi,"Internal Laundry, Secure Parking, Fireplace(s), Heating, Dishwasher",https://www.domain.com.au/2-169-banksia-street-ivanhoe-vic-3079-17710388
17711237,IVANHOE,3079,575,2499.0,"Monday, 08 September 2025",2025-08-12,28,2,1,1.0,Apartment / Unit / Flat,314A/125 Bell Street,-37.75353,145.05179,2025-09-09 16:33:45,17711237,,10,1,1,True,Apartment,Apartment / Unit / Flat,Richardson & Wrench Projects Victoria,31321,Daniel Aldieri,"Dishwasher, Split System Heating, Split System Air Conditioning",https://www.domain.com.au/314a-125-bell-street-ivanhoe-vic-3079-17711237
17711300,IVANHOE,3079,620,2694.0,"Monday, 08 September 2025",2025-08-12,28,2,2,1.0,Apartment / Unit / Flat,506/125 Bell St,-37.75353,145.05179,2025-09-09 16:33:45,17711300,,8,0,0,False,Apartment,Apartment / Unit / Flat,Samma Real Estate,15424,Ismaeel Hussain,Pets Allowed,https://www.domain.com.au/506-125-bell-st-ivanhoe-vic-3079-17711300
17717341,IVANHOE,3079,1050,6300.0,"Monday, 18 August 2025",2025-08-15,25,3,2,3.0,Apartment / Unit / Flat,1101/109 Bell Street,-37.75357,145.05173,2025-09-09 16:33:45,17717341,,16,1,0,False,Apartment,Apartment / Unit / Flat,VICPROP Melbourne,22748,"Kang Xia, Lilian Kwan","Built in wardrobes, Gas, Internal Laundry, Secure Parking, Intercom, Heating, Dishwasher, Balcony / Deck",https://www.domain.com.au/1101-109-bell-street-ivanhoe-vic-3079-17717341
17717347,IVANHOE,3079,950,5700.0,"Monday, 18 August 2025",2025-08-15,25,3,2,2.0,Apartment / Unit / Flat,507/109 Bell Street,-37.75357,145.05173,2025-09-09 16:33:45,17717347,,13,1,1,False,Apartment,Apartment / Unit / Flat,VICPROP Melbourne,22748,"Kang Xia, Lilian Kwan","Built in wardrobes, Gas, Internal Laundry, Secure Parking, Heating, Dishwasher",https://www.domain.com.au/507-109-bell-street-ivanhoe-vic-3079-17717347
17719490,IVANHOE,3079,650,2824.0,"Monday, 25 August 2025",2025-08-18,22,2,2,1.0,Apartment / Unit / Flat,303/1023 Heidelberg Road,-37.77551,145.03883,2025-09-09 16:33:45,17719490,,9,0,1,False,Apartment,Apartment / Unit / Flat,Morrison Kleeman Estate Agents,4241,Nicole Wiseman,Heating,https://www.domain.com.au/303-1023-heidelberg-road-ivanhoe-vic-3079-17719490
17720605,IVANHOE,3079,900,5400.0,"Thursday, 07 August 2025",2025-08-18,21,3,2,2.0,Townhouse,50 Forster St,-37.754414,145.05055,2025-09-09 16:33:45,17720605,,17,0,0,False,Townhouse/Villa,Townhouse,Samma Real Estate,15424,Allen Iverson,"Study, Floorboards, Built in wardrobes, Dishwasher, Bathtub, Ducted Heating, Air conditioning, Remote Garage, Secure Parking, Fully fenced, Pets Allowed",https://www.domain.com.au/50-forster-st-ivanhoe-vic-3079-17720605
