listing_id,suburb,postcode,weekly_rent,bond,available_date,date_listed,days_listed,bedrooms,bathrooms,carspaces,property_type,address,lat,lon,scraped_date,domain_page_id,property_id,photo_count,video_count,floorplans_count,virtual_tour,primary_type,secondary_type,agency,agency_id,agent_names,structured_features,url
14616716,KALKALLO,3064,485,2101.0,"Friday, 18 July 2025",2025-07-18,53,4,2,2,House,55 Cooney Circuit,-37.529465,144.96263,2025-09-09 16:19:30,14616716,LA-9851-LP,9,1,0,False,House,House,Bombay Real Estate Pty Ltd,29247,Samantha Ashley,"Heating, Floorboards, Built in wardrobes, Secure Parking",https://www.domain.com.au/55-cooney-circuit-kalkallo-vic-3064-14616716
14784690,KALKALLO,3064,470,2042.0,"Friday, 15 August 2025",2025-07-18,53,3,2,1,House,91 Antares Parade,-37.521236,144.95424,2025-09-09 16:19:30,14784690,IB-5619-JS,13,0,0,False,House,House,Bombay Real Estate Pty Ltd,29247,Samantha Ashley,"Built in wardrobes, Internal Laundry, Heating",https://www.domain.com.au/91-antares-parade-kalkallo-vic-3064-14784690
15190662,KALKALLO,3064,530,2303.0,"Friday, 15 August 2025",2025-08-01,39,4,2,2,House,12 Roscoe Avenue,-37.526047,144.95992,2025-09-09 16:19:30,15190662,PS-3260-LJ,17,0,0,True,House,House,Stockdale & Leggo Craigieburn/Mickleham,31877,"Ebony Montebello, Lauren Vicary","Air conditioning, Ensuite, Floorboards, Built in wardrobes, Bath, Heating, Dishwasher, Secure Parking",https://www.domain.com.au/12-roscoe-avenue-kalkallo-vic-3064-15190662
16630187,KALKALLO,3064,500,2173.0,"Friday, 03 October 2025",2025-08-27,13,4,2,2,House,20 Cilantro Street,-37.52253,144.95929,2025-09-09 16:19:30,16630187,TK-8654-WJ,12,0,0,False,House,House,Bombay Real Estate Pty Ltd,29247,"Eminda Ruwin, Julie Easterbrook","Secure Parking, Built in wardrobes, Bath, Solar panels",https://www.domain.com.au/20-cilantro-street-kalkallo-vic-3064-16630187
17105161,KALKALLO,3064,440,1912.0,"Monday, 22 September 2025",2025-07-30,41,3,2,2,House,33 Times Street,-37.51855,144.96297,2025-09-09 16:19:30,17105161,KS-7461-EM,12,0,0,False,House,House,Stockdale & Leggo Craigieburn/Mickleham,31877,"Daniel Morlacci-Fortuna, Lauren Vicary","Secure Parking, Air conditioning, Ensuite, Built in wardrobes, Internal Laundry, Bath, Heating, Dishwasher",https://www.domain.com.au/33-times-street-kalkallo-vic-3064-17105161
17126636,KALKALLO,3064,440,1906.0,"Thursday, 04 September 2025",2025-08-04,35,3,2,1,House,11 Cilantro Street,-37.5221,144.9584,2025-09-09 16:19:30,17126636,DT-4716-RY,13,0,0,False,House,House,Bombay Real Estate Pty Ltd,29247,Eminda Ruwin,"Internal Laundry, Secure Parking, Heating",https://www.domain.com.au/11-cilantro-street-kalkallo-vic-3064-17126636
17318686,KALKALLO,3064,460,1999.0,"Friday, 12 September 2025",2025-09-04,5,4,2,2,House,28 Fenska Street,-37.520565,144.9521,2025-09-09 16:19:30,17318686,CX-3793-BF,10,0,0,False,House,House,Bombay Real Estate Pty Ltd,29247,Samantha Ashley,"Air conditioning, Built in wardrobes, Dishwasher, Garden / Courtyard",https://www.domain.com.au/28-fenska-street-kalkallo-vic-3064-17318686
17427139,KALKALLO,3064,500,2173.0,"Tuesday, 12 August 2025",2025-08-11,29,4,2,2,House,11 Knockturn Road,-37.51655,144.96039,2025-09-09 16:19:30,17427139,TA-4291-LV,12,0,0,False,House,House,Bombay Real Estate Pty Ltd,29247,Samantha Ashley,,https://www.domain.com.au/11-knockturn-road-kalkallo-vic-3064-17427139
17647980,KALKALLO,3064,500,2173.0,"Saturday, 06 September 2025",2025-07-01,69,4,2,2,House,6 Magnesium Road,-37.51654,144.9565,2025-09-09 16:19:30,17647980,,10,0,0,False,House,House,Stockdale & Leggo Craigieburn/Mickleham,31877,"Lauren Vicary, Daniel Morlacci-Fortuna","Ensuite, Floorboards, Built in wardrobes, Internal Laundry, Bath, Heating, Dishwasher, Secure Parking, Energy Eff. Rating: 7",https://www.domain.com.au/6-magnesium-road-kalkallo-vic-3064-17647980
17654144,KALKALLO,3064,425,1847.0,"Saturday, 05 July 2025",2025-07-04,67,3,2,2,House,24 Oxygen Street,-37.518303,144.95096,2025-09-09 16:19:30,17654144,,10,0,0,False,House,House,Stockdale & Leggo Craigieburn/Mickleham,31877,"Daniel Morlacci-Fortuna, Lauren Vicary","Air conditioning, Gas, Broadband internet access, Ensuite, Floorboards, Built in wardrobes, Heating, Dishwasher, Secure Parking",https://www.domain.com.au/24-oxygen-street-kalkallo-vic-3064-17654144
17681165,KALKALLO,3064,510,2216.0,"Monday, 18 August 2025",2025-07-23,48,4,2,2,House,47 Railway Parade,-37.516815,144.9561,2025-09-09 16:19:30,17681165,,13,0,0,False,House,House,Bombay Real Estate Pty Ltd,29247,Eminda Ruwin,"Secure Parking, Floorboards, Built in wardrobes, Bath, Heating",https://www.domain.com.au/47-railway-parade-kalkallo-vic-3064-17681165
17696140,KALKALLO,3064,460,1999.0,"Wednesday, 06 August 2025",2025-08-01,39,3,2,2,Townhouse,143 Railway Parade,-37.51753,144.96289,2025-09-09 16:19:30,17696140,,13,0,1,False,Townhouse/Villa,Townhouse,Bombay Real Estate Pty Ltd,29247,Samantha Ashley,"Secure Parking, Internal Laundry",https://www.domain.com.au/143-railway-parade-kalkallo-vic-3064-17696140
17703017,KALKALLO,3064,485,2107.0,"Friday, 08 August 2025",2025-08-06,34,4,2,2,Townhouse,18 Quill Circuit,-37.535603,144.96455,2025-09-09 16:19:30,17703017,,14,0,0,False,Townhouse/Villa,Townhouse,Bombay Real Estate Pty Ltd,29247,Samantha Ashley,"Pets Allowed, Heating",https://www.domain.com.au/18-quill-circuit-kalkallo-vic-3064-17703017
17714736,KALKALLO,3064,460,1999.0,"Friday, 22 August 2025",2025-08-14,26,3,2,1,Townhouse,4 Camellia Walk,-37.520634,144.96165,2025-09-09 16:19:30,17714736,,1,0,0,False,Townhouse/Villa,Townhouse,Bombay Real Estate Pty Ltd,29247,Eminda Ruwin,"Built in wardrobes, Gas, Internal Laundry, Heating, Balcony / Deck",https://www.domain.com.au/4-camellia-walk-kalkallo-vic-3064-17714736
17717418,KALKALLO,3064,550,2383.0,"Friday, 22 August 2025",2025-08-15,25,4,2,2,House,10 Goodman Avenue,-37.529728,144.96245,2025-09-09 16:19:30,17717418,,16,0,1,False,House,House,Bombay Real Estate Pty Ltd,29247,Eminda Ruwin,"Secure Parking, Heating",https://www.domain.com.au/10-goodman-avenue-kalkallo-vic-3064-17717418
17719501,KALKALLO,3064,510,2216.0,"Friday, 05 September 2025",2025-08-18,22,4,2,2,House,29 Danzig Street,-37.52524,144.96233,2025-09-09 16:19:30,17719501,,21,0,0,False,House,House,Bombay Real Estate Pty Ltd,29247,"Eminda Ruwin, Samantha Ashley","Internal Laundry, Secure Parking, Heating",https://www.domain.com.au/29-danzig-street-kalkallo-vic-3064-17719501
17742501,KALKALLO,3064,550,2390.0,"Saturday, 13 September 2025",2025-09-02,7,4,2,2,House,5 Bookham Circuit,-37.52673,144.96242,2025-09-09 16:19:30,17742501,,10,0,0,False,House,House,Ray White Mill Park,12621,"Emmanuela Kanavos, Mill Park Office","Built in wardrobes, Secure Parking, Heating, Study",https://www.domain.com.au/5-bookham-circuit-kalkallo-vic-3064-17742501
17748631,KALKALLO,3064,460,1998.0,"Friday, 05 September 2025",2025-09-05,4,3,2,1,House,10 Camellia Walk,-37.520473,144.96167,2025-09-09 16:19:30,17748631,,13,0,0,True,House,House,COMPASS REAL ESTATE (VIC) PTY LTD,38477,Sonita Dawood,"Study, Floorboards, Built in wardrobes, Dishwasher, Split System Heating, Split System Air Conditioning, Balcony, Remote Garage",https://www.domain.com.au/10-camellia-walk-kalkallo-vic-3064-17748631
17750665,KALKALLO,3064,500,2173.0,"Monday, 28 July 2025",2025-09-08,1,4,2,2,House,28 Stilt Street,-37.515457,144.9575,2025-09-09 16:19:30,17750665,,10,0,0,False,House,House,Brik Realty,39353,"Gaurika Kohli, Tarwinder Kullar","Secure Parking, Heating, Ensuite",https://www.domain.com.au/28-stilt-street-kalkallo-vic-3064-17750665
17752340,KALKALLO,3064,520,2260.0,"Monday, 15 September 2025",2025-09-08,0,4,2,2,House,43 Danzig Street,-37.526394,144.96222,2025-09-09 16:19:30,17752340,,14,0,0,False,House,House,V Group Real Estate,37013,Rental Department,"Secure Parking, Intercom, Bath, Heating, Dishwasher",https://www.domain.com.au/43-danzig-street-kalkallo-vic-3064-17752340
15131009,KALKALLO,3064,520,2260.0,"Monday, 01 September 2025",2025-08-07,33,4,2,2,House,43 Bunting Crescent,-37.52814,144.96434,2025-09-09 16:19:36,15131009,PY-7733-DL,14,1,0,False,House,House,Ray White Craigieburn,4110,Ray White Craigieburn,"Internal Laundry, Bath, Dishwasher, Built in wardrobes, Heating, Secure Parking",https://www.domain.com.au/43-bunting-crescent-kalkallo-vic-3064-15131009
16563191,KALKALLO,3064,540,2347.0,"Wednesday, 17 September 2025",2025-08-22,18,4,2,2,House,61 Railway Parade,-37.51703,144.95757,2025-09-09 16:19:36,16563191,MQ-7076-WG,10,0,0,False,House,House,Stockdale & Leggo Craigieburn/Mickleham,31877,"Ebony Montebello, Lauren Vicary","Ensuite, Floorboards, Built in wardrobes, Internal Laundry, Bath, Heating, Dishwasher, Secure Parking",https://www.domain.com.au/61-railway-parade-kalkallo-vic-3064-16563191
16693537,KALKALLO,3064,1738,2173.0,"Wednesday, 03 September 2025",2025-08-14,26,3,2,2,House,65 Roscoe Avenue,-37.525097,144.96164,2025-09-09 16:19:36,16693537,GQ-9852-SB,12,0,0,False,House,House,Harcourts Hume,22388,Lexie Steele,"Secure Parking, Bath, Heating, Dishwasher, Balcony / Deck",https://www.domain.com.au/65-roscoe-avenue-kalkallo-vic-3064-16693537
16775432,KALKALLO,3064,530,2303.0,"Monday, 15 September 2025",2025-08-28,12,4,2,2,House,8 Maryland Road,-37.51944,144.96033,2025-09-09 16:19:36,16775432,RE-9951-PG,11,0,0,False,House,House,Capital & Co. Real Estate,32201,Jess Grewal,"Internal Laundry, Heating, Dishwasher, Study, Ensuite",https://www.domain.com.au/8-maryland-road-kalkallo-vic-3064-16775432
16971785,KALKALLO,3064,510,2216.0,"Friday, 05 September 2025",2025-08-12,28,4,2,2,House,44 Dwyer Street,-37.536877,144.95596,2025-09-09 16:19:36,16971785,LX-4483-MO,16,0,1,False,House,House,Csquare Craigieburn Group Pty Ltd,34921,"Preet Bhamra, Rental Management","Secure Parking, Dishwasher",https://www.domain.com.au/44-dwyer-street-kalkallo-vic-3064-16971785
17159613,KALKALLO,3064,530,2303.0,"Friday, 05 September 2025",2025-09-03,6,4,2,2,House,46 Tucholsky Dr,-37.519127,144.95874,2025-09-09 16:19:36,17159613,WP-5134-JA,11,0,0,False,House,House,Capital & Co. Real Estate,32201,Jess Grewal,"Secure Parking, Ensuite",https://www.domain.com.au/46-tucholsky-dr-kalkallo-vic-3064-17159613
17622450,KALKALLO,3064,450,1950.0,"Monday, 16 June 2025",2025-06-16,85,3,2,1,House,15 Jaffa Street,-37.532936,144.9656,2025-09-09 16:19:36,17622450,,13,0,0,False,House,House,YPA Hume City,12708,Gonul Yesilkaya,"Built in wardrobes, Dishwasher, Heating, Air conditioning, Floorboards, Remote Garage",https://www.domain.com.au/15-jaffa-street-kalkallo-vic-3064-17622450
17642881,KALKALLO,3064,470,2037.0,"Friday, 27 June 2025",2025-06-27,74,4,2,2,House,22 Yorkville Road,-37.519005,144.96257,2025-09-09 16:19:36,17642881,,19,0,0,False,House,House,YPA Craigieburn,21927,Ypa Craigieburn,Secure Parking,https://www.domain.com.au/22-yorkville-road-kalkallo-vic-3064-17642881
17672676,KALKALLO,3064,410,1781.0,"Thursday, 17 July 2025",2025-07-17,54,3,2,1,House,19 Cassette Street,-37.535183,144.96075,2025-09-09 16:19:36,17672676,,14,0,1,False,House,House,Ray White West Realty,28524,"Enza Rossitto, Chantae Jones","Secure Parking, Heating, Balcony / Deck",https://www.domain.com.au/19-cassette-street-kalkallo-vic-3064-17672676
17677202,KALKALLO,3064,580,2521.0,"Friday, 25 July 2025",2025-07-21,50,4,2,2,House,10 Margot Circuit,-37.5254,144.96785,2025-09-09 16:19:36,17677202,,6,0,0,False,House,House,Ray White Sunbury Pty Ltd,12373,Ruby Conte-Scott,"Air conditioning, Built in wardrobes, Secure Parking, Fully fenced, Pets Allowed",https://www.domain.com.au/10-margot-circuit-kalkallo-vic-3064-17677202
17707982,KALKALLO,3064,490,2129.0,"Monday, 01 September 2025",2025-08-08,31,4,2,2,House,13 Tungsten Drive,-37.516026,144.95366,2025-09-09 16:19:36,17707982,,13,0,0,False,House,House,Harcourts Rata & Co,30123,"George Stavrakis, Natasha Buhagiar","Secure Parking, Air conditioning, Heating, Built in wardrobes, Close to schools, Ensuite, Openable Windows, Split System Cooling",https://www.domain.com.au/13-tungsten-drive-kalkallo-vic-3064-17707982
17716479,KALKALLO,3064,450,1955.0,"Saturday, 16 August 2025",2025-08-14,25,3,2,1,Townhouse,23 Cilantro Street,-37.522144,144.95888,2025-09-09 16:19:36,17716479,,13,0,0,False,Townhouse/Villa,Townhouse,Vision & Co Real Estate,38689,Simar Kaur,Ensuite,https://www.domain.com.au/23-cilantro-street-kalkallo-vic-3064-17716479
17719548,KALKALLO,3064,480,2086.0,"Monday, 18 August 2025",2025-08-18,22,3,2,2,Townhouse,141 Railway Parade,-37.517525,144.96281,2025-09-09 16:19:36,17719548,,12,0,0,False,Townhouse/Villa,Townhouse,THE LANCORE WEST AND NORTH,35534,"Jot  Dhaliwal, HK  Dhindsa",,https://www.domain.com.au/141-railway-parade-kalkallo-vic-3064-17719548
17720187,KALKALLO,3064,560,2433.0,"Wednesday, 27 August 2025",2025-08-18,22,4,2,2,House,8 Mckane Street,-37.530014,144.96425,2025-09-09 16:19:36,17720187,,13,0,0,False,House,House,Empyrean Property Group,37197,"Kylie Sanders, Rhys Gargano","Internal Laundry, Secure Parking, Heating, Study",https://www.domain.com.au/8-mckane-street-kalkallo-vic-3064-17720187
17736540,KALKALLO,3064,480,2086.0,"Monday, 25 August 2025",2025-08-28,12,4,2,2,House,7 Magnesium Road,-37.516457,144.95615,2025-09-09 16:19:36,17736540,,8,0,0,False,House,House,Grit Real Estate,39036,Inshira Koralagama,Ensuite,https://www.domain.com.au/7-magnesium-road-kalkallo-vic-3064-17736540
17738334,KALKALLO,3064,395,1717.0,"Friday, 05 September 2025",2025-08-29,11,3,2,1,House,17 Cassette Street,-37.535175,144.96068,2025-09-09 16:19:36,17738334,,13,0,0,False,House,House,Prestige Group Real Estate,21719,Sam Sofia,"Courtyard, Fully fenced, Remote Garage, Dishwasher, Air conditioning, Split-System Air Conditioning, Split-System Heating",https://www.domain.com.au/17-cassette-street-kalkallo-vic-3064-17738334
17743364,KALKALLO,3064,550,2390.0,"Monday, 29 September 2025",2025-09-02,7,4,2,4,House,15 Fenska Street,-37.521027,144.95297,2025-09-09 16:19:36,17743364,,12,0,0,False,House,House,Harcourts Rata & Co,30123,Sune Geldenhuys,"Gas, Secure Parking, Dishwasher, Air conditioning, Heating, Area Views, Built in wardrobes, Close to shops, Close to schools, Openable Windows",https://www.domain.com.au/15-fenska-street-kalkallo-vic-3064-17743364
17746476,KALKALLO,3064,620,2694.0,"Wednesday, 03 September 2025",2025-09-04,5,4,2,2,House,20 Queensborough Road,-37.52458,144.96623,2025-09-09 16:19:36,17746476,,16,0,0,False,House,House,Nest & Co Real Estate Pty Ltd,37597,"Nisha Saini, AJ Pramod Moga","Internal Laundry, Secure Parking, Heating, Ensuite",https://www.domain.com.au/20-queensborough-road-kalkallo-vic-3064-17746476
17747903,KALKALLO,3064,520,2260.0,"Friday, 05 September 2025",2025-09-04,5,4,2,2,House,70 Quill Circuit,-37.535534,144.9632,2025-09-09 16:19:36,17747903,,10,0,0,False,House,House,Capital & Co. Real Estate,32201,Nayyab Fatima,"Secure Parking, Ensuite",https://www.domain.com.au/70-quill-circuit-kalkallo-vic-3064-17747903
17748857,KALKALLO,3064,540,2346.0,"Monday, 08 September 2025",2025-09-05,4,4,2,2,House,58 Cromarty Crescent,-37.52917,144.96643,2025-09-09 16:19:36,17748857,,12,0,0,False,House,House,Barry Plant Craigieburn,15326,Christie Borchers,"Secure Parking, Heating",https://www.domain.com.au/58-cromarty-crescent-kalkallo-vic-3064-17748857
17449597,KALKALLO,3064,510,2216.0,"Friday, 12 September 2025",2025-08-18,22,4,2,2,House,16 Punchbowl Road,-37.516537,144.96222,2025-09-09 16:19:41,17449597,TQ-0118-QO,12,0,0,False,House,House,V Group Real Estate,37013,Rental Department,"Heating, Air conditioning, Floorboards, Intercom, Dishwasher, Secure Parking, Fully fenced",https://www.domain.com.au/16-punchbowl-road-kalkallo-vic-3064-17449597
17655515,KALKALLO,3064,550,2390.0,"Monday, 14 July 2025",2025-07-07,64,4,3,2,House,11 Punchbowl Road,-37.516678,144.96182,2025-09-09 16:19:41,17655515,,14,0,1,False,House,House,Csquare Craigieburn Group Pty Ltd,34921,Rental Management,"Intercom, Heating",https://www.domain.com.au/11-punchbowl-road-kalkallo-vic-3064-17655515
17656249,KALKALLO,3064,510,2216.0,"Saturday, 19 July 2025",2025-07-07,64,4,2,2,House,28 Gundagai Circuit,-37.52581,144.95833,2025-09-09 16:19:41,17656249,,15,0,0,False,House,House,THE LANCORE WEST AND NORTH,35534,"Jot  Dhaliwal, HK  Dhindsa",Ensuite,https://www.domain.com.au/28-gundagai-circuit-kalkallo-vic-3064-17656249
17677894,KALKALLO,3064,550,2390.0,"Friday, 18 July 2025",2025-07-21,50,4,2,1,House,35 Pittsburgh Road,-37.520184,144.96165,2025-09-09 16:19:41,17677894,,21,0,0,False,House,House,Grit Real Estate,39036,Inshira Koralagama,"Fully fenced, Remote Garage, Secure Parking, Built in wardrobes, Dishwasher, Air conditioning, Ducted Heating, Ensuite",https://www.domain.com.au/35-pittsburgh-road-kalkallo-vic-3064-17677894
17687691,KALKALLO,3064,490,2129.0,"Tuesday, 29 July 2025",2025-07-28,43,4,2,4,House,16 Sahlia Avenue,-37.523304,144.9522,2025-09-09 16:19:41,17687691,,12,0,0,False,House,House,Harcourts Rata & Co,30123,Sune Geldenhuys,"Heating, Area Views, Close to transport, Close to shops, Close to schools, City Views, Carpeted, Openable Windows, Cooling, Dishwasher",https://www.domain.com.au/16-sahlia-avenue-kalkallo-vic-3064-17687691
17689906,KALKALLO,3064,530,2303.0,"Friday, 05 September 2025",2025-07-29,42,4,2,2,House,38 Tucholsky Drive,-37.518932,144.95818,2025-09-09 16:19:41,17689906,,14,0,0,False,House,House,Reliance Real Estate Point Cook,26805,"Zelda Van Rensburg, Deolinda Moreira, Yash Shaw","Air conditioning, Heating, Built in wardrobes, Carpeted",https://www.domain.com.au/38-tucholsky-drive-kalkallo-vic-3064-17689906
17700631,KALKALLO,3064,510,2210.0,"Tuesday, 05 August 2025",2025-08-05,35,4,2,2,House,61 Roscoe Ave,-37.52506,144.96135,2025-09-09 16:19:41,17700631,,14,0,0,False,House,House,RentBetter,27499,,"Built in wardrobes, Dishwasher, Fully fenced, Heating, Secure Parking",https://www.domain.com.au/61-roscoe-ave-kalkallo-vic-3064-17700631
17703988,KALKALLO,3064,500,2173.0,"Tuesday, 12 August 2025",2025-08-06,33,4,2,2,House,6 Nasturium Street,-37.516937,144.96144,2025-09-09 16:19:41,17703988,,14,0,0,False,House,House,One Group Realty,32679,"Rouche Kour, Chantell Hawzi","Air conditioning, Gas, Bath, Dishwasher, Ducted Heating, Remote Garage, Fully fenced",https://www.domain.com.au/6-nasturium-street-kalkallo-vic-3064-17703988
17704061,KALKALLO,3064,560,2433.0,"Wednesday, 06 August 2025",2025-08-06,33,4,2,2,House,15 Mudrooroo Drive,-37.525963,144.96474,2025-09-09 16:19:41,17704061,,13,0,0,False,House,House,Hockingstuart Epping,26544,Jass Kaur,"Internal Laundry, Heating, Dishwasher",https://www.domain.com.au/15-mudrooroo-drive-kalkallo-vic-3064-17704061
17708995,KALKALLO,3064,440,1912.0,"Monday, 01 September 2025",2025-08-11,29,3,2,1,Townhouse,30 Quill Circuit,-37.535835,144.96419,2025-09-09 16:19:41,17708995,,11,0,0,False,Townhouse/Villa,Townhouse, Love & Co  ,7123,Joe Gorkies,"Internal Laundry, Dishwasher, Heating, Built in wardrobes, Ensuite",https://www.domain.com.au/30-quill-circuit-kalkallo-vic-3064-17708995
17709808,KALKALLO,3064,460,1999.0,"Friday, 05 September 2025",2025-08-11,29,3,2,1,House,48 Quill Circuit,-37.5363,144.96329,2025-09-09 16:19:41,17709808,,17,0,0,False,House,House,Barry Plant Epping,17119,"Bethany Dontsios, Hala Nassar","Internal Laundry, Secure Parking, Dishwasher, Air conditioning, Heating, Built in wardrobes, Close to transport, Close to shops, Close to schools, Ensuite, Toilet Facilities",https://www.domain.com.au/48-quill-circuit-kalkallo-vic-3064-17709808
17710036,KALKALLO,3064,460,1999.0,"Friday, 05 September 2025",2025-08-11,29,3,2,1,House,46 Quill Circuit,-37.536316,144.96342,2025-09-09 16:19:41,17710036,,12,0,0,False,House,House,Barry Plant Epping,17119,"Bethany Dontsios, Hala Nassar","Internal Laundry, Secure Parking, Air conditioning, Heating, Built in wardrobes, Close to transport, Close to shops, Close to schools, Ensuite, Toilet Facilities",https://www.domain.com.au/46-quill-circuit-kalkallo-vic-3064-17710036
17710240,KALKALLO,3064,425,1847.0,"Wednesday, 03 September 2025",2025-08-11,28,3,2,2,Townhouse,87 Klandy Drive,-37.53741,144.96214,2025-09-09 16:19:41,17710240,,17,0,1,False,Townhouse/Villa,Townhouse,Barry Plant Craigieburn,15326,Rebecca Robertson,"Air conditioning, Secure Parking, Heating, Dishwasher",https://www.domain.com.au/87-klandy-drive-kalkallo-vic-3064-17710240
17711250,KALKALLO,3064,480,2086.0,"Wednesday, 03 September 2025",2025-08-12,28,3,2,2,House,18 Morningside Road,-37.521996,144.95918,2025-09-09 16:19:41,17711250,,6,0,0,False,House,House,Areal Property - South Morang,35521,"Demi Georga, Ayda Badri","Gas, Internal Laundry, Secure Parking, Bath, Heating, Balcony / Deck",https://www.domain.com.au/18-morningside-road-kalkallo-vic-3064-17711250
17714196,KALKALLO,3064,550,2390.0,"Wednesday, 13 August 2025",2025-08-13,27,4,2,2,House,98 Lumin Boulevard,-37.515404,144.96413,2025-09-09 16:19:41,17714196,,16,0,0,False,House,House,Harcourts Rata & Co,30123,"George Stavrakis, Charlotte Delaney","Gas, Secure Parking, Solar panels, Air conditioning, Heating, Built in wardrobes, Ensuite, Prestige Homes, Openable Windows, Cooling, Dishwasher, Study",https://www.domain.com.au/98-lumin-boulevard-kalkallo-vic-3064-17714196
17720450,KALKALLO,3064,500,2173.0,"Friday, 05 September 2025",2025-08-18,22,4,2,2,House,57 Moxham Drive,-37.530876,144.97112,2025-09-09 16:19:41,17720450,,14,0,0,False,House,House,Ray White Wollert,38147,Bassam Mansour,"Secure Parking, Heating, Dishwasher",https://www.domain.com.au/57-moxham-drive-kalkallo-vic-3064-17720450
17720901,KALKALLO,3064,530,2303.0,"Monday, 25 August 2025",2025-08-18,21,4,2,2,House,3 Flame Road,-37.51854,144.95583,2025-09-09 16:19:41,17720901,,15,0,0,False,House,House,Krish Real Estate,38890,"Chirag Yadav, ROHAN RANA","Fully fenced, Outdoor Entertainment Area, Remote Garage, Secure Parking, Built in wardrobes, Dishwasher, Floorboards, Ducted Heating, Ensuite",https://www.domain.com.au/3-flame-road-kalkallo-vic-3064-17720901
17722982,KALKALLO,3064,530,2296.0,"Saturday, 23 August 2025",2025-08-19,20,4,2,2,House,18 Whistler Circuit,-37.524364,144.9633,2025-09-09 16:19:41,17722982,,11,0,0,False,House,House,Vision & Co Real Estate,38689,"Simar Kaur, Many Singh",Ensuite,https://www.domain.com.au/18-whistler-circuit-kalkallo-vic-3064-17722982
17725314,KALKALLO,3064,510,2216.0,"Friday, 19 September 2025",2025-08-21,19,4,2,2,House,9 Bunting Crescent,-37.528908,144.96562,2025-09-09 16:19:41,17725314,,11,0,0,False,House,House,Harcourts Rata & Co,30123,Melissa Di Blasio,"Gas, Secure Parking, Solar panels, Air conditioning, Heating, Built in wardrobes, Close to schools, Ensuite, Openable Windows, Cooling, Dishwasher",https://www.domain.com.au/9-bunting-crescent-kalkallo-vic-3064-17725314
17726028,KALKALLO,3064,480,2086.0,"Monday, 01 September 2025",2025-08-21,19,3,2,2,House,8 Morningside Road,-37.521935,144.95853,2025-09-09 16:19:41,17726028,,15,0,0,False,House,House,One Group Realty,32679,"Chantell Hawzi, Kalley Singh","Secure Parking, Heating, Balcony / Deck, Ensuite",https://www.domain.com.au/8-morningside-road-kalkallo-vic-3064-17726028
16635159,KALKALLO,3064,440,1912.0,"Monday, 18 August 2025",2025-07-17,54,2,2,1,House,106 Antares Parade,-37.52032,144.95454,2025-09-09 16:19:46,16635159,NH-6544-IV,8,0,0,False,House,House,Harcourts Hume,22388,Lexie Steele,"Secure Parking, Floorboards, Built in wardrobes, Bath, Heating, Dishwasher, Balcony / Deck",https://www.domain.com.au/106-antares-parade-kalkallo-vic-3064-16635159
17363937,KALKALLO,3064,510,2217.0,"Wednesday, 11 June 2025",2025-05-27,105,4,2,3,House,14 Yorkville Road,-37.51945,144.9625,2025-09-09 16:19:46,17363937,DI-3463-OU,13,0,0,False,House,House,Nest & Co Real Estate Pty Ltd,37597,"AJ Pramod Moga, Nisha Saini",,https://www.domain.com.au/14-yorkville-road-kalkallo-vic-3064-17363937
17453216,KALKALLO,3064,650,,"Friday, 21 March 2025",2025-02-23,198,4,2,2,House,,-37.529438,144.95955,2025-09-09 16:19:46,17453216,,6,1,1,False,House,House,First Step Homes 4U,24633,Kerry Smith,"Secure Parking, Air conditioning, Built in wardrobes, Courtyard, Dishwasher, Fully fenced",https://www.domain.com.au/kalkallo-vic-3064-17453216
17494566,KALKALLO,3064,500,,"Friday, 21 March 2025",2025-03-21,172,4,2,2,House,27 Mulholland Street,-37.515953,144.96336,2025-09-09 16:19:46,17494566,VK-4212-VX,1,0,0,False,House,House,Areal Property - South Morang,35521,"Demi Georga, Ayda Badri","Close to transport, Close to shops, Close to schools",https://www.domain.com.au/27-mulholland-street-kalkallo-vic-3064-17494566
17539784,KALKALLO,3064,500,2173.0,"Monday, 28 April 2025",2025-04-23,139,4,2,2,House,15 Yorkville Road,-37.519356,144.96214,2025-09-09 16:19:46,17539784,NJ-0704-CY,13,0,0,False,House,House,Nest & Co Real Estate Pty Ltd,37597,"AJ Pramod Moga, Nisha Saini","Secure Parking, Heating, Ensuite",https://www.domain.com.au/15-yorkville-road-kalkallo-vic-3064-17539784
17565832,KALKALLO,3064,480,2080.0,"Friday, 09 May 2025",2025-05-09,123,4,2,2,House,49 Tucholsky Drive,-37.518833,144.9588,2025-09-09 16:19:46,17565832,GI-9690-KG,13,0,0,False,House,House,Nest & Co Real Estate Pty Ltd,37597,"AJ Pramod Moga, Nisha Saini","Secure Parking, Heating, Ensuite",https://www.domain.com.au/49-tucholsky-drive-kalkallo-vic-3064-17565832
17587549,KALKALLO,3064,475,2064.0,"Thursday, 22 May 2025",2025-05-23,109,3,2,2,House,16 Tungsten Drive,-37.515984,144.95403,2025-09-09 16:19:46,17587549,MX-4462-EY,17,0,0,False,House,House,Grit Real Estate,39036,Inshira Koralagama,"Fully fenced, Remote Garage, Secure Parking, Built in wardrobes, Ducted Heating, Split-System Air Conditioning, Ensuite",https://www.domain.com.au/16-tungsten-drive-kalkallo-vic-3064-17587549
17587552,KALKALLO,3064,2253,2253.0,"Monday, 26 May 2025",2025-05-23,109,4,2,2,House,129 Antares Parade,-37.519066,144.954,2025-09-09 16:19:46,17587552,LI-7746-EG,13,0,0,False,House,House,YPA Craigieburn,21927,Ypa Craigieburn,"Secure Parking, Heating, Study",https://www.domain.com.au/129-antares-parade-kalkallo-vic-3064-17587552
17587679,KALKALLO,3064,440,1912.0,"Thursday, 22 May 2025",2025-05-23,109,3,2,1,House,16 Magnesium Road,-37.515972,144.95659,2025-09-09 16:19:46,17587679,KO-6850-ZQ,15,0,0,False,House,House,Grit Real Estate,39036,Inshira Koralagama,"Fully fenced, Remote Garage, Secure Parking, Built in wardrobes, Dishwasher, Ducted Heating, Split-System Air Conditioning, Ensuite",https://www.domain.com.au/16-magnesium-road-kalkallo-vic-3064-17587679
17587685,KALKALLO,3064,440,1912.0,"Thursday, 22 May 2025",2025-05-23,109,3,2,1,House,20 Magnesium Road,-37.51582,144.9566,2025-09-09 16:19:46,17587685,QH-5708-KX,1,0,0,False,House,House,Grit Real Estate,39036,Inshira Koralagama,"Fully fenced, Remote Garage, Secure Parking, Built in wardrobes, Dishwasher, Ducted Heating, Split-System Air Conditioning, Ensuite",https://www.domain.com.au/20-magnesium-road-kalkallo-vic-3064-17587685
17672909,KALKALLO,3064,470,2042.0,"Friday, 12 September 2025",2025-07-17,54,4,2,2,House,1 Yasuda Way,-37.52266,144.95216,2025-09-09 16:19:46,17672909,,10,0,0,False,House,House,Harcourts Rata & Co,30123,"Travis Whelan, Taylah Lowe","Internal Laundry, Secure Parking, Heating, Built in wardrobes, Close to shops, Close to schools, Carpeted, Openable Windows",https://www.domain.com.au/1-yasuda-way-kalkallo-vic-3064-17672909
