listing_id,suburb,postcode,weekly_rent,bond,available_date,date_listed,days_listed,bedrooms,bathrooms,carspaces,property_type,address,lat,lon,scraped_date,domain_page_id,property_id,photo_count,video_count,floorplans_count,virtual_tour,primary_type,secondary_type,agency,agency_id,agent_names,structured_features,url
16633187,KEW,3101,530,,"Friday, 19 September 2025",2025-09-02,7,2,1,,Apartment / Unit / Flat,3/27 Peel St,-37.803726,145.03304,2025-09-09 16:23:34,16633187,YG-5637-CB,5,0,0,True,Apartment,Apartment / Unit / Flat,Colin Knight Real Estate,383,Justyn Knight,"Built in wardrobes, Internal Laundry, Heating, Balcony / Deck, Dishwasher",https://www.domain.com.au/3-27-peel-st-kew-vic-3101-16633187
17682922,KEW,3101,1330,8645.0,"Saturday, 16 August 2025",2025-07-23,47,4,2,2.0,Apartment / Unit / Flat,111/140 Cotham Road,-37.80798,145.03917,2025-09-09 16:23:34,17682922,,9,0,2,False,Apartment,Apartment / Unit / Flat,RT Edgar Boroondara,3714,Nicole Woods,"Balcony / Deck, Built in wardrobes, Dishwasher, Ducted Cooling, Ducted Heating, Floorboards, Furnished, Intercom, Secure Parking",https://www.domain.com.au/111-140-cotham-road-kew-vic-3101-17682922
17684476,KEW,3101,550,2390.0,"Tuesday, 05 August 2025",2025-07-24,47,2,1,1.0,Apartment / Unit / Flat,21 Gladstone Street,-37.802,145.04031,2025-09-09 16:23:34,17684476,,26,0,0,True,Apartment,Apartment / Unit / Flat,iCare Property Pty Ltd,36127,"Anji Tao, Bobby Sung","Heating, Floorboards, Built in wardrobes, Bathtub, Balcony",https://www.domain.com.au/21-gladstone-street-kew-vic-3101-17684476
17684477,KEW,3101,550,2390.0,"Tuesday, 05 August 2025",2025-07-24,47,2,1,1.0,Apartment / Unit / Flat,21 Gladstone Street,-37.802,145.04031,2025-09-09 16:23:34,17684477,,26,0,0,True,Apartment,Apartment / Unit / Flat,ICARE Real Estate,37850,"Anji Tao, Bobby Sung","Heating, Floorboards, Built in wardrobes, Bathtub, Balcony",https://www.domain.com.au/21-gladstone-street-kew-vic-3101-17684477
17690762,KEW,3101,1400,7000.0,"Sunday, 24 August 2025",2025-07-29,42,4,2,2.0,Townhouse,6/68 Walpole Street,-37.801216,145.03262,2025-09-09 16:23:34,17690762,,16,0,0,False,Townhouse/Villa,Townhouse,Area Specialist Dynamic,38901,Radin Shojaei,"Built in wardrobes, Internal Laundry, Secure Parking, Bath, Fireplace(s), Heating, Dishwasher, Study, Balcony / Deck",https://www.domain.com.au/6-68-walpole-street-kew-vic-3101-17690762
17715377,KEW,3101,1295,7770.0,"Wednesday, 13 August 2025",2025-08-14,26,3,2,2.0,Apartment / Unit / Flat,3/103 Brougham Street,-37.801178,145.03104,2025-09-09 16:23:34,17715377,,12,0,0,False,Apartment,Apartment / Unit / Flat,Jellis Craig Ivanhoe,30455,Brodie Aston,,https://www.domain.com.au/3-103-brougham-street-kew-vic-3101-17715377
17716329,KEW,3101,550,2390.0,"Thursday, 14 August 2025",2025-08-14,25,2,1,1.0,Apartment / Unit / Flat,2/55 Brougham Street,-37.80453,145.03036,2025-09-09 16:23:34,17716329,,7,0,1,False,Apartment,Apartment / Unit / Flat, Jellis Craig & Company Pty Ltd,6525,Thea Toogood,"Air conditioning, Intercom",https://www.domain.com.au/2-55-brougham-street-kew-vic-3101-17716329
17731144,KEW,3101,750,3259.0,"Tuesday, 02 September 2025",2025-08-26,14,3,2,2.0,Apartment / Unit / Flat,8/278 Cotham Road,-37.80927,145.05016,2025-09-09 16:23:34,17731144,,17,0,1,False,Apartment,Apartment / Unit / Flat, Jellis Craig & Company Pty Ltd,6525,Leo Zuo,Garden / Courtyard,https://www.domain.com.au/8-278-cotham-road-kew-vic-3101-17731144
17732152,KEW,3101,630,2738.0,"Wednesday, 17 September 2025",2025-08-26,14,2,2,2.0,Apartment / Unit / Flat,13/152 Princess Street,-37.796482,145.031,2025-09-09 16:23:34,17732152,,6,0,1,False,Apartment,Apartment / Unit / Flat, Jellis Craig & Company Pty Ltd,6525,Lachie Hollamby,"Air conditioning, Intercom, Built in wardrobes, Dishwasher, Study",https://www.domain.com.au/13-152-princess-street-kew-vic-3101-17732152
17732222,KEW,3101,1300,8473.0,"Saturday, 30 August 2025",2025-08-26,14,4,2,2.0,Townhouse,2/4 Edward Street,-37.81278,145.05602,2025-09-09 16:23:34,17732222,,12,0,1,True,Townhouse/Villa,Townhouse, Jellis Craig & Company Pty Ltd,6525,Thea Toogood,"Built in wardrobes, Study",https://www.domain.com.au/2-4-edward-street-kew-vic-3101-17732222
17735265,KEW,3101,590,2564.0,"Monday, 06 October 2025",2025-08-27,13,1,1,1.0,Apartment / Unit / Flat,G11/307 Barkers Road,-37.81545,145.04495,2025-09-09 16:23:34,17735265,,12,0,0,False,Apartment,Apartment / Unit / Flat,Ray White Balwyn,28157,Baron Zhao,"Built in wardrobes, Heating, Furnished",https://www.domain.com.au/g11-307-barkers-road-kew-vic-3101-17735265
17739003,KEW,3101,800,3476.0,"Friday, 05 September 2025",2025-08-29,10,3,2,1.0,Apartment / Unit / Flat,9/40-44 Edgevale Rd,-37.813686,145.04279,2025-09-09 16:23:34,17739003,,9,0,0,False,Apartment,Apartment / Unit / Flat,Marshall White Balwyn,31019,"Sue Scott, Angel Yuan","Built in wardrobes, Internal Laundry, Heating",https://www.domain.com.au/9-40-44-edgevale-rd-kew-vic-3101-17739003
17744573,KEW,3101,1100,7170.0,"Wednesday, 03 September 2025",2025-09-03,6,4,2,2.0,House,145 Eglinton Street,-37.80074,145.0436,2025-09-09 16:23:34,17744573,,8,0,1,True,House,House, Jellis Craig & Company Pty Ltd,6525,Heather Kirk,Built in wardrobes,https://www.domain.com.au/145-eglinton-street-kew-vic-3101-17744573
17744954,KEW,3101,1600,6900.0,"Wednesday, 03 September 2025",2025-09-03,6,3,2,2.0,House,30 Stirling Street,-37.80956,145.0425,2025-09-09 16:23:34,17744954,,8,0,1,False,House,House,Kay & Burton Stonnington,88,Debbie Davut,"Dishwasher, Ducted Heating, Furnished, Split System AirCon",https://www.domain.com.au/30-stirling-street-kew-vic-3101-17744954
17744999,KEW,3101,660,2868.0,"Monday, 20 October 2025",2025-09-03,6,2,1,1.0,Apartment / Unit / Flat,2/37 Atkins Street,-37.80934,145.04459,2025-09-09 16:23:34,17744999,,5,0,1,False,Apartment,Apartment / Unit / Flat,Jellis Craig Mount Waverley ,17805,"Stephanie Petrakis, Lisa Yang","Heating, Balcony / Deck",https://www.domain.com.au/2-37-atkins-street-kew-vic-3101-17744999
17745866,KEW,3101,500,2173.0,"Friday, 05 September 2025",2025-09-03,6,2,1,1.0,Apartment / Unit / Flat,4/20 Pakington Street,-37.80403,145.03473,2025-09-09 16:23:34,17745866,,7,0,0,False,Apartment,Apartment / Unit / Flat,Nelson Alexander Kew,3909,Fiona Hedderwick,"Built in wardrobes, Internal Laundry, Secure Parking, Heating, Balcony / Deck",https://www.domain.com.au/4-20-pakington-street-kew-vic-3101-17745866
17746757,KEW,3101,1600,9600.0,"Thursday, 04 September 2025",2025-09-04,5,4,2,2.0,House,8 Wills Street,-37.798916,145.02888,2025-09-09 16:23:34,17746757,,13,0,1,False,House,House,Marshall White Boroondara,18210,"Larissa Rael, Nadia Blyth",,https://www.domain.com.au/8-wills-street-kew-vic-3101-17746757
17749870,KEW,3101,1500,7500.0,"Monday, 08 September 2025",2025-09-05,3,5,3,2.0,House,5/6 Denmark Street,-37.81302,145.02826,2025-09-09 16:23:34,17749870,,17,0,0,False,House,House,Areal Property - Melbourne,35843,Jason Low,"Intercom, Heating, Study",https://www.domain.com.au/5-6-denmark-street-kew-vic-3101-17749870
17750498,KEW,3101,1400,9125.0,"Monday, 08 September 2025",2025-09-08,1,5,2,2.0,House,74 Peel Street,-37.800648,145.03413,2025-09-09 16:23:34,17750498,,15,0,1,False,House,House, Jellis Craig & Company Pty Ltd,6525,Heather Kirk,"Air conditioning, Garden / Courtyard, Dishwasher",https://www.domain.com.au/74-peel-street-kew-vic-3101-17750498
17751658,KEW,3101,540,2346.0,"Friday, 26 September 2025",2025-09-08,1,2,1,1.0,Apartment / Unit / Flat,2/13 Studley Avenue,-37.8055,145.02423,2025-09-09 16:23:34,17751658,,5,0,0,False,Apartment,Apartment / Unit / Flat,Nelson Alexander Kew,3909,Fiona Hedderwick,"Built in wardrobes, Gas, Internal Laundry, Dishwasher",https://www.domain.com.au/2-13-studley-avenue-kew-vic-3101-17751658
11833919,KEW,3101,520,2260.0,"Friday, 05 September 2025",2025-08-06,34,2,1,1.0,Apartment / Unit / Flat,4/39 Derby Street,-37.80231,145.03712,2025-09-09 16:23:39,11833919,GZ-8686-PW,6,0,1,False,Apartment,Apartment / Unit / Flat,LITTLE Real Estate Victoria,24974,Chaya Varsani,"Air conditioning, Built in wardrobes, Internal Laundry, Bath, Dishwasher, Balcony / Deck, Car Accom: Single Off-Street Parking, Heating: Electric, Pool/Spa Count: 0",https://www.domain.com.au/4-39-derby-street-kew-vic-3101-11833919
14185784,KEW,3101,700,,"Friday, 29 August 2025",2025-08-29,10,2,2,2.0,Apartment / Unit / Flat,108/1375 Burke Road,-37.806866,145.06136,2025-09-09 16:23:39,14185784,,8,0,0,False,Apartment,Apartment / Unit / Flat,First National Real Estate Janssen & Co,31107,"Iswor Phuyal, Claire Nguyen","Dishwasher, Balcony / Deck, Air conditioning, Heating, Area Views, Built in wardrobes, Close to transport, Close to shops, Intercom, Pets Allowed, Close to schools, Ensuite, Security Access, Car Parking - Basement, Carpeted",https://www.domain.com.au/108-1375-burke-road-kew-vic-3101-14185784
15621607,KEW,3101,1580,6500.0,"Wednesday, 01 October 2025",2025-08-29,10,4,4,3.0,House,70 Main Drive,-37.79544,145.02733,2025-09-09 16:23:39,15621607,KV-2745-YU,14,0,0,False,House,House,Seascape RE,22931,The Manager,"Balcony / Deck, Built in wardrobes, Dishwasher, Electric Hot Water Service, Heating, Gas Hot Water Service, Intercom, Fireplace(s), Outdoor Entertaining, Remote Garage, Secure Parking, Study, Ensuite, Furnished",https://www.domain.com.au/70-main-drive-kew-vic-3101-15621607
16091192,KEW,3101,650,,"Monday, 03 November 2025",2022-12-12,1002,2,2,1.0,Apartment / Unit / Flat,Apartments/1277 Burke Rd,-37.807083,145.06097,2025-09-09 16:23:39,16091192,,6,0,0,False,Apartment,Apartment / Unit / Flat,Paragon Real Estate Pty Ltd,17337,David Wu,"Built in wardrobes, Balcony / Deck, Secure Parking",https://www.domain.com.au/apartments-1277-burke-rd-kew-vic-3101-16091192
17120361,KEW,3101,920,3998.0,"Wednesday, 03 September 2025",2025-08-18,22,3,2,2.0,Townhouse,11/7 Cecil Street,-37.80842,145.05168,2025-09-09 16:23:39,17120361,HU-6722-YA,16,0,0,False,Townhouse/Villa,Townhouse,Weare Partners Property Group Pty Ltd,34290,"Dixon Lim, Sophia Wu","Ensuite(s), Secure Parking, Air conditioning, Ensuite, Floorboards, Alarm System, Intercom, Built in wardrobes, Gas, Bath, Heating, Dishwasher, Garden / Courtyard",https://www.domain.com.au/11-7-cecil-street-kew-vic-3101-17120361
17682852,KEW,3101,1195,5193.0,"Friday, 01 August 2025",2025-07-23,47,4,2,2.0,Townhouse,2/20 Park Crescent,-37.798862,145.03934,2025-09-09 16:23:39,17682852,,6,0,1,False,Townhouse/Villa,Townhouse,Nelson Alexander Kew,3909,Chris Sacco,"Gas, Internal Laundry, Secure Parking, Bath, Heating, Dishwasher",https://www.domain.com.au/2-20-park-crescent-kew-vic-3101-17682852
17685979,KEW,3101,850,3867.0,"Friday, 25 July 2025",2025-07-25,46,3,2,2.0,Townhouse,20/37-51 Foley Street,-37.81048,145.0272,2025-09-09 16:23:39,17685979,,20,0,0,False,Townhouse/Villa,Townhouse,Woodards Northcote-Thornbury,5639,Madeleine Liberale,"Internal Laundry, Heating, Built in wardrobes, Garden / Courtyard, Balcony / Deck, Swimming Pool, Floorboards, Fully fenced, Ensuite",https://www.domain.com.au/20-37-51-foley-street-kew-vic-3101-17685979
17699732,KEW,3101,750,3259.0,"Tuesday, 09 September 2025",2025-08-04,35,3,2,2.0,House,5/61 Princess Street,-37.80326,145.02931,2025-09-09 16:23:39,17699732,,12,0,0,False,House,House,First National Avant,26689,Leasing Team,Balcony / Deck,https://www.domain.com.au/5-61-princess-street-kew-vic-3101-17699732
17706918,KEW,3101,1100,4780.0,"Friday, 08 August 2025",2025-08-08,32,3,2,2.0,Apartment / Unit / Flat,1/4 Hyton Crescent,-37.806534,145.01637,2025-09-09 16:23:39,17706918,,6,0,0,False,Apartment,Apartment / Unit / Flat,Nelson Alexander Kew,3909,"Celia McGregor, Madeleine Shiels","Internal Laundry, Intercom",https://www.domain.com.au/1-4-hyton-crescent-kew-vic-3101-17706918
17711192,KEW,3101,1200,7200.0,"Tuesday, 12 August 2025",2025-08-12,28,5,3,2.0,House,17 Yarravale Road,-37.802216,145.0236,2025-09-09 16:23:39,17711192,,10,0,0,False,House,House,Kay & Burton Boroondara,18650,Dylan Archer,"Built in wardrobes, Ensuite, Outdoor Ent., Reverse Cycle AirCon, Rumpus Room, Secure Parking",https://www.domain.com.au/17-yarravale-road-kew-vic-3101-17711192
17712538,KEW,3101,700,3042.0,"Friday, 12 September 2025",2025-08-12,27,3,2,1.0,House,235 Wiltshire Drive,-37.794136,145.02382,2025-09-09 16:23:39,17712538,,15,0,0,False,House,House,BLACK & WHITE ESTATE AGENTS (VIC) PTY LTD,12640,"Jake Peters, Kurt  Rimes","Built in wardrobes, Dishwasher, Heating",https://www.domain.com.au/235-wiltshire-drive-kew-vic-3101-17712538
17715021,KEW,3101,620,2694.0,"Friday, 15 August 2025",2025-08-14,26,3,1,1.0,Apartment / Unit / Flat,2/11 Dean Street,-37.815582,145.05821,2025-09-09 16:23:39,17715021,,9,0,0,False,Apartment,Apartment / Unit / Flat,Biggin & Scott Box Hill,35681,"Susan Wang, Biggin Scott Box Hill Leasing Team","Secure Parking, Heating",https://www.domain.com.au/2-11-dean-street-kew-vic-3101-17715021
17716979,KEW,3101,470,2042.0,"Saturday, 16 August 2025",2025-08-15,25,1,1,1.0,Apartment / Unit / Flat,14/48 Derby Street,-37.80176,145.03761,2025-09-09 16:23:39,17716979,,5,0,0,False,Apartment,Apartment / Unit / Flat,Naison Real Estate,13688,Ivor Nakic,"Ensuite(s), Air conditioning, Ensuite, Built in wardrobes, Internal Laundry, Pets Allowed, Broadband internet access, Bath, Heating, Water efficient appliances",https://www.domain.com.au/14-48-derby-street-kew-vic-3101-17716979
17718015,KEW,3101,1800,7821.0,"Saturday, 23 August 2025",2025-08-15,25,5,3,2.0,House,45 Walpole Street,-37.80321,145.03171,2025-09-09 16:23:39,17718015,,18,0,0,False,House,House,Nelson Alexander Kew,3909,"Matty Marinakis, Eliza Bonnett",Secure Parking,https://www.domain.com.au/45-walpole-street-kew-vic-3101-17718015
17726606,KEW,3101,600,2607.0,"Thursday, 11 September 2025",2025-08-21,19,2,2,1.0,Apartment / Unit / Flat,G02/77 High Street,-37.808716,145.02739,2025-09-09 16:23:39,17726606,,8,0,0,False,Apartment,Apartment / Unit / Flat,Nelson Alexander Keilor East,15596,"Kassandra Talajic, Silvia Cavallin","Secure Parking, Intercom, Air conditioning, Reverse Cycle Air Con",https://www.domain.com.au/g02-77-high-street-kew-vic-3101-17726606
17733655,KEW,3101,820,3563.0,"Friday, 19 September 2025",2025-08-27,13,2,1,1.0,House,11 Younger Court,-37.808773,145.02026,2025-09-09 16:23:39,17733655,,7,0,0,False,House,House,Nelson Alexander Kew,3909,Fiona Hedderwick,"Built in wardrobes, Gas, Internal Laundry, Dishwasher, Study, Air conditioning, Reverse Cycle Air Con",https://www.domain.com.au/11-younger-court-kew-vic-3101-17733655
17739988,KEW,3101,700,3042.0,"Monday, 22 September 2025",2025-09-01,8,3,1,2.0,Apartment / Unit / Flat,73 Wiltshire Drive,-37.79423,145.02293,2025-09-09 16:23:39,17739988,,16,0,1,False,Apartment,Apartment / Unit / Flat,RT Edgar Boroondara,3714,Kelly Nicholas,,https://www.domain.com.au/73-wiltshire-drive-kew-vic-3101-17739988
17740037,KEW,3101,580,2520.0,"Tuesday, 23 September 2025",2025-09-01,8,2,1,1.0,Apartment / Unit / Flat,3/64 Harp Road,-37.799973,145.0547,2025-09-09 16:23:39,17740037,,10,0,0,False,Apartment,Apartment / Unit / Flat,Besser & Co. Estate Agents,16456,Carl Carrubba,,https://www.domain.com.au/3-64-harp-road-kew-vic-3101-17740037
17742517,KEW,3101,750,3259.0,"Wednesday, 17 September 2025",2025-09-02,7,3,2,1.0,Apartment / Unit / Flat,1/1349 Burke Rd,-37.801216,145.06209,2025-09-09 16:23:39,17742517,,6,0,0,False,Apartment,Apartment / Unit / Flat,BigginScott Richmond,3355,"Liam Mulligan, Sandy Kanaksabee",,https://www.domain.com.au/1-1349-burke-rd-kew-vic-3101-17742517
17743711,KEW,3101,535,2325.0,"Friday, 05 September 2025",2025-09-02,7,2,1,1.0,Apartment / Unit / Flat,4/20 Mary Street,-37.80644,145.03815,2025-09-09 16:23:39,17743711,,8,0,0,False,Apartment,Apartment / Unit / Flat,Walsh Cairnes & Co P/L,15332,Rebecca Toop,"Built in wardrobes, Internal Laundry, Balcony / Deck",https://www.domain.com.au/4-20-mary-street-kew-vic-3101-17743711
15271908,KEW,3101,850,3693.0,"Monday, 21 October 2024",2024-09-24,350,3,2,2.0,House,44a Childers Street,-37.79898,145.04318,2025-09-09 16:23:43,15271908,ZJ-1223-UM,13,1,1,False,House,House,Samma Real Estate,15424,Ismaeel Hussain,"Intercom, Alarm System, Vacuum System, Built in wardrobes, Dishwasher, Bathtub, Ducted Heating, Air conditioning, Outdoor Entertainment Area, Courtyard, Fully fenced",https://www.domain.com.au/44a-childers-street-kew-vic-3101-15271908
15766536,KEW,3101,860,3680.0,"Monday, 18 August 2025",2025-06-27,74,5,2,1.0,House,35 Tennyson Street,-37.798347,145.03658,2025-09-09 16:23:43,15766536,NR-5413-MT,20,0,0,False,House,House,For Sale By Owner,20095,For Rent (VIC),"Built in wardrobes, Air conditioning, Balcony/Patio/Terrace, Bath, Fireplace(s), Formal Lounge, Heating, Modern Bathroom, Modern Kitchen, Floorboards, Renovated, Renovated Bathroom, Renovated Kitchen, Entertainment Area, Garden, Level Lawn, Close to Parklands, Close to schools, Close to shops, Close to transport, Quiet Location, Gas Enabled, Internal Laundry, Broadband, Courtyard, Living Area, Deck, Fully fenced",https://www.domain.com.au/35-tennyson-street-kew-vic-3101-15766536
17046722,KEW,3101,750,3259.0,"Tuesday, 04 June 2024",2025-02-24,197,1,1,1.0,Apartment / Unit / Flat,19 Walpole Street,-37.805523,145.0313,2025-09-09 16:23:43,17046722,,10,0,0,False,Apartment,Apartment / Unit / Flat, Jellis Craig & Company Pty Ltd,6525,Heather Kirk,Furnished,https://www.domain.com.au/19-walpole-street-kew-vic-3101-17046722
17068618,KEW,3101,800,800.0,"Thursday, 24 July 2025",2024-06-18,448,1,1,,Studio,3 Studley Park Rd,-37.807602,145.02794,2025-09-09 16:23:43,17068618,,9,0,0,False,Apartment,Studio,Cubbi,24478,Cubbi (64428),"Air conditioning, Alarm System, Study, Split system heating, Split system air conditioning, Broadband, Built in wardrobes",https://www.domain.com.au/3-studley-park-rd-kew-vic-3101-17068618
17393703,KEW,3101,1400,,"Thursday, 16 January 2025",2025-01-16,236,6,4,2.0,House,27 Fellows Street,-37.80011,145.02603,2025-09-09 16:23:43,17393703,LQ-8582-SE,2,0,0,False,House,House,Diamond Property Management,31578,"James Ollaik, Tristan Wang","Internal Laundry, Study",https://www.domain.com.au/27-fellows-street-kew-vic-3101-17393703
17640602,KEW,3101,750,,"Monday, 28 July 2025",2025-06-26,75,1,1,1.0,Apartment / Unit / Flat,19 Walpole St,-37.805523,145.0313,2025-09-09 16:23:43,17640602,,13,0,0,False,Apartment,Apartment / Unit / Flat,Diamond Property Management,31578,James Ollaik,"Air conditioning, Built in wardrobes, Internal Laundry, Furnished, Broadband internet access, Dishwasher, Study, Secure Parking",https://www.domain.com.au/19-walpole-st-kew-vic-3101-17640602
17659891,KEW,3101,1195,5193.0,"Friday, 11 July 2025",2025-07-09,62,5,3,2.0,House,66 Molesworth Street,-37.800247,145.02234,2025-09-09 16:23:43,17659891,,10,0,0,False,House,House,Nelson Alexander Kew,3909,Madeleine Shiels,"Air conditioning, Secure Parking, Fireplace(s), Heating",https://www.domain.com.au/66-molesworth-street-kew-vic-3101-17659891
17666626,KEW,3101,680,2955.0,"Monday, 14 July 2025",2025-07-14,57,3,1,2.0,Townhouse,2/87 Earl Street,-37.793945,145.03302,2025-09-09 16:23:43,17666626,,15,0,0,False,Townhouse/Villa,Townhouse,Nelson Alexander Kew,3909,Celia McGregor,"Internal Laundry, Secure Parking, Bath, Heating, Balcony / Deck",https://www.domain.com.au/2-87-earl-street-kew-vic-3101-17666626
17674483,KEW,3101,1250,5432.0,"Saturday, 19 July 2025",2025-07-17,53,4,2,2.0,House,2/85 Normanby Road,-37.803368,145.05423,2025-09-09 16:23:43,17674483,,8,0,0,False,House,House,Nic Power,38963,"Craig Nichol, Danny Lam","Air conditioning, Close to transport, Close to shops, Close to schools, Ensuite, Carpeted, Dishwasher, Floorboards, Fully fenced",https://www.domain.com.au/2-85-normanby-road-kew-vic-3101-17674483
17675525,KEW,3101,650,,"Friday, 18 July 2025",2025-07-18,53,2,2,1.0,Apartment / Unit / Flat,203/1277 Burke Rd,-37.807034,145.06104,2025-09-09 16:23:43,17675525,,7,0,0,False,Apartment,Apartment / Unit / Flat,Paragon Real Estate Pty Ltd,17337,David Wu,"Built in wardrobes, Balcony / Deck, Secure Parking",https://www.domain.com.au/203-1277-burke-rd-kew-vic-3101-17675525
17695798,KEW,3101,520,2260.0,"Monday, 25 August 2025",2025-08-01,39,2,1,1.0,Apartment / Unit / Flat,106/48 Pakington Street,-37.801678,145.03535,2025-09-09 16:23:43,17695798,,7,0,0,True,Apartment,Apartment / Unit / Flat,Xynergy Realty Oakleigh,26633,Rental Oakleigh,"Intercom, Floorboards, Built in wardrobes, Dishwasher, Bathtub, Gas Appliances, Split System Heating, Split System Air Conditioning, Balcony, Secure Parking",https://www.domain.com.au/106-48-pakington-street-kew-vic-3101-17695798
