listing_id,suburb,postcode,weekly_rent,bond,available_date,date_listed,days_listed,bedrooms,bathrooms,carspaces,property_type,address,lat,lon,scraped_date,domain_page_id,property_id,photo_count,video_count,floorplans_count,virtual_tour,primary_type,secondary_type,agency,agency_id,agent_names,structured_features,url
16138984,KILMORE,3764,390,1690,"Wednesday, 01 October 2025",2025-09-05,4,2,1,3.0,Apartment / Unit / Flat,1/45 White Street,-37.301033,144.95248,2025-09-09 16:44:24,16138984,QW-6494-FU,9,0,0,False,Apartment,Apartment / Unit / Flat,LJ HOOKER BROADFORD | KILMORE,26960,Carla Balfe,"Built in wardrobes, Internal Laundry, Bath, Balcony / Deck, Split System AC, Outdoor Entertaining, Shed, Remote Garage, Secure Parking",https://www.domain.com.au/1-45-white-street-kilmore-vic-3764-16138984
17260106,KILMORE,3764,375,1738,"Tuesday, 16 September 2025",2025-08-15,25,3,1,,House,25 White Street,-37.298756,144.95232,2025-09-09 16:44:24,17260106,HP-4523-FN,12,0,0,False,House,House,Wilson Partners Real Estate,11748,Property Management,"Heating, Shed",https://www.domain.com.au/25-white-street-kilmore-vic-3764-17260106
17561797,KILMORE,3764,500,2000,"Monday, 30 June 2025",2025-05-07,125,3,3,2.0,Townhouse,10/33 Allan Street,-37.288486,144.95674,2025-09-09 16:44:24,17561797,LJ-4543-DO,10,0,1,False,Townhouse/Villa,Townhouse,Property Now,10282,Property Now,"Gas, Intercom, Remote Control Garage, Fully fenced, Ducted Cooling, Courtyard, Alarm, Ducted Heating, Study, Dishwasher, Built in wardrobes, Secure Parking, Floorboards, Broadband Connection, Energy Eff. Rating: 5",https://www.domain.com.au/10-33-allan-street-kilmore-vic-3764-17561797
17710474,KILMORE,3764,570,2470,"Wednesday, 27 August 2025",2025-08-27,13,4,2,4.0,House,33 Northview Road,-37.287716,144.92993,2025-09-09 16:44:24,17710474,,16,0,0,False,House,House,LJ HOOKER BROADFORD | KILMORE,26960,Carla Balfe,"Ensuite, Study, Garden, Dishwasher, Ducted Heating, Fully fenced, Remote Garage, Built in wardrobes, Secure Parking, Reverse Cycle AC, Rumpus Room",https://www.domain.com.au/33-northview-road-kilmore-vic-3764-17710474
17743883,KILMORE,3764,530,2303,"Tuesday, 02 September 2025",2025-09-02,7,5,2,2.0,House,14 Foal Way,-37.319572,144.95534,2025-09-09 16:44:24,17743883,,15,0,0,False,House,House,Hockingstuart Epping,26544,Jass Kaur,"Internal Laundry, Heating, Dishwasher, Study",https://www.domain.com.au/14-foal-way-kilmore-vic-3764-17743883
