listing_id,suburb,postcode,weekly_rent,bond,available_date,date_listed,days_listed,bedrooms,bathrooms,carspaces,property_type,address,lat,lon,scraped_date,domain_page_id,property_id,photo_count,video_count,floorplans_count,virtual_tour,primary_type,secondary_type,agency,agency_id,agent_names,structured_features,url
15892827,LARA,3212,500.0,2172.0,"Monday, 15 September 2025",2025-08-28,12,3.0,2.0,1.0,House,18 Bella Julia Place,-38.033894,144.40079,2025-09-09 16:44:04,15892827,QG-7335-UT,13,1,0,False,House,House,Ray White Lara,16363,Nicole Acciarito,"Heating, Air conditioning, Built in wardrobes, Secure Parking",https://www.domain.com.au/18-bella-julia-place-lara-vic-3212-15892827
17694371,LARA,3212,850.0,3693.0,"Thursday, 21 August 2025",2025-07-31,40,4.0,2.0,2.0,Acreage / Semi-Rural,25 Kiddle Drive,-38.018196,144.43735,2025-09-09 16:44:04,17694371,,19,0,0,False,Any,Acreage / Semi-Rural,Lara Real Estate,36528,Rental Department,"Fully fenced, Outdoor Entertainment Area, Remote Garage, Secure Parking, Shed, Built in wardrobes, Dishwasher, Rumpus Room, Workshop, Air conditioning, Open Fireplace, Split-System Air Conditioning, Split-System Heating, Water Tank",https://www.domain.com.au/25-kiddle-drive-lara-vic-3212-17694371
17716938,LARA,3212,595.0,2586.0,"Friday, 22 August 2025",2025-08-15,25,4.0,2.0,2.0,House,111 Wattlebird Drive,-38.010044,144.37129,2025-09-09 16:44:04,17716938,,7,0,0,False,House,House,Ray White Lara,16363,"Lachlan McCraw, Nicole Acciarito",Built in wardrobes,https://www.domain.com.au/111-wattlebird-drive-lara-vic-3212-17716938
17734306,LARA,3212,560.0,2433.0,"Friday, 26 September 2025",2025-08-27,13,3.0,2.0,2.0,House,1 Beverley Crescent,-38.02251,144.40051,2025-09-09 16:44:04,17734306,,9,0,0,False,House,House,Debonair Property Management,26232,Skye Bartlett,"Gas, Bath, Heating, Study, Air conditioning, Built in wardrobes, Dishwasher, Floorboards",https://www.domain.com.au/1-beverley-crescent-lara-vic-3212-17734306
17735906,LARA,3212,430.0,1868.0,"Monday, 06 October 2025",2025-08-28,12,3.0,1.0,1.0,House,26 Lake Road,-38.030178,144.39662,2025-09-09 16:44:04,17735906,,16,0,1,False,House,House,Ray White Lara,16363,Katherine Owen,"Gas, Internal Laundry, Dishwasher, Shed, Air conditioning, Built in wardrobes, Secure Parking",https://www.domain.com.au/26-lake-road-lara-vic-3212-17735906
17741726,LARA,3212,570.0,2476.0,"Monday, 06 October 2025",2025-09-01,8,3.0,2.0,2.0,House,2/14 Boydell Court,-38.018185,144.39069,2025-09-09 16:44:04,17741726,,16,0,0,False,House,House,Buxton Geelong North Pty Ltd,31040,"Meghan Kattwinkel, Sophie Kennedy-Rush","Gas, Built in wardrobes, Garden / Courtyard, Dishwasher, Ducted Cooling, Ducted Heating, Floorboards, Fully fenced, Remote Garage, Secure Parking, Ensuite",https://www.domain.com.au/2-14-boydell-court-lara-vic-3212-17741726
17743958,LARA,3212,670.0,2903.0,"Tuesday, 14 October 2025",2025-09-02,7,4.0,2.0,2.0,House,8 Brisbane Street,-38.016945,144.37785,2025-09-09 16:44:04,17743958,,12,1,1,False,House,House,Ray White Lara,16363,"Lachlan McCraw, Nicole Acciarito","Internal Laundry, Secure Parking, Balcony / Deck, Floorboards, Built in wardrobes, Heating, Dishwasher",https://www.domain.com.au/8-brisbane-street-lara-vic-3212-17743958
17743981,LARA,3212,600.0,2600.0,"Thursday, 04 September 2025",2025-09-02,7,4.0,2.0,2.0,House,9 Rubena Crescent,-38.027424,144.39735,2025-09-09 16:44:04,17743981,,17,1,1,False,House,House,Ray White Lara,16363,"Lachlan McCraw, Pamela Carter","Study, Air conditioning, Alarm System, Built in wardrobes, Separate Dining Room, Secure Parking",https://www.domain.com.au/9-rubena-crescent-lara-vic-3212-17743981
17744532,LARA,3212,460.0,1999.0,"Monday, 07 July 2025",2025-09-03,6,3.0,1.0,1.0,House,1/16 Plover Street,-38.03609,144.41469,2025-09-09 16:44:04,17744532,,10,0,0,False,House,House,Ray White Lara,16363,Pamela Carter,"Heating, Air conditioning, Built in wardrobes, Dishwasher, Secure Parking",https://www.domain.com.au/1-16-plover-street-lara-vic-3212-17744532
17745570,LARA,3212,450.0,,"Monday, 06 October 2025",2025-09-03,6,3.0,2.0,,Apartment / Unit / Flat,2/50 Patullos Road,-38.022846,144.39229,2025-09-09 16:44:04,17745570,,6,0,0,False,Apartment,Apartment / Unit / Flat,Buxton Newtown,14503,"Mia Griffiths, Newtown Leasing","Secure Parking, Dishwasher",https://www.domain.com.au/2-50-patullos-road-lara-vic-3212-17745570
17746513,LARA,3212,580.0,2520.0,"Thursday, 06 November 2025",2025-09-04,5,3.0,2.0,2.0,House,52 Benetti Drive,-38.03185,144.40335,2025-09-09 16:44:04,17746513,,18,0,0,False,House,House,Lara Real Estate,36528,Rental Department,"Balcony, Deck, Fully fenced, Outdoor Entertainment Area, Remote Garage, Secure Parking, Built in wardrobes, Dishwasher, Rumpus Room, Study, Air conditioning, Ducted Heating",https://www.domain.com.au/52-benetti-drive-lara-vic-3212-17746513
17746626,LARA,3212,480.0,2080.0,"Tuesday, 23 September 2025",2025-09-04,5,4.0,1.0,2.0,House,42 Patullos Road,-38.02284,144.39317,2025-09-09 16:44:04,17746626,,10,0,0,False,House,House,Lara Branch Realty,32808,"Adrian McEvoy, Karen Branch","Secure Parking, Heating",https://www.domain.com.au/42-patullos-road-lara-vic-3212-17746626
17748162,LARA,3212,600.0,2607.0,"Friday, 12 September 2025",2025-09-04,4,4.0,2.0,3.0,House,44 Ponds Drive,-38.018154,144.39827,2025-09-09 16:44:04,17748162,,7,0,0,False,House,House,McGrath Geelong | Newtown,5797,Rajesh Chaubay,"Internal Laundry, Fireplace(s), Dishwasher, Balcony / Deck, Air conditioning, Heating, Built in wardrobes, Close to transport, Close to shops, Close to schools, Ensuite, Car Parking - Surface, Carpeted",https://www.domain.com.au/44-ponds-drive-lara-vic-3212-17748162
17748245,LARA,3212,630.0,2738.0,"Saturday, 06 September 2025",2025-09-04,4,4.0,2.0,2.0,House,15 Brisbane Street,-38.016438,144.37744,2025-09-09 16:44:04,17748245,,17,0,0,False,House,House,OSKO Real Estate Agency,37723,Osko Rentals,"Air conditioning, Built in wardrobes, Close to transport, Close to shops, Close to schools, Ensuite, Dishwasher",https://www.domain.com.au/15-brisbane-street-lara-vic-3212-17748245
17750009,LARA,3212,550.0,2390.0,"Friday, 05 September 2025",2025-09-05,3,4.0,2.0,1.0,House,3 Buloke Way,-38.011604,144.35298,2025-09-09 16:44:04,17750009,,11,0,0,False,House,House,Ray White Werribee,29214,"Marc Tanti, Maya Hunak","Air conditioning, Secure Parking, Heating, Dishwasher",https://www.domain.com.au/3-buloke-way-lara-vic-3212-17750009
17750019,LARA,3212,550.0,2390.0,"Friday, 05 September 2025",2025-09-05,3,4.0,2.0,1.0,House,5 Buloke Way,-38.01151,144.353,2025-09-09 16:44:04,17750019,,11,0,0,False,House,House,Ray White Werribee,29214,"Marc Tanti, Maya Hunak","Air conditioning, Secure Parking, Heating, Dishwasher",https://www.domain.com.au/5-buloke-way-lara-vic-3212-17750019
17751365,LARA,3212,580.0,2520.0,"Thursday, 25 September 2025",2025-09-08,1,4.0,2.0,2.0,House,48 Sunlight Circuit,-38.014965,144.37361,2025-09-09 16:44:04,17751365,,7,1,0,False,House,House,Ray White Lara,16363,Katherine Owen,"Secure Parking, Heating, Dishwasher, Ensuite",https://www.domain.com.au/48-sunlight-circuit-lara-vic-3212-17751365
17751492,LARA,3212,650.0,2824.0,"Saturday, 06 September 2025",2025-09-08,1,4.0,2.0,2.0,House,10 Skipton Street,-38.015186,144.35437,2025-09-09 16:44:04,17751492,,17,0,0,False,House,House,OSKO Real Estate Agency,37723,Osko Rentals,"Internal Laundry, Pets Allowed, Secure Parking, Bath, Heating, Study",https://www.domain.com.au/10-skipton-street-lara-vic-3212-17751492
17753533,LARA,3212,500.0,2173.0,"Tuesday, 09 September 2025",2025-09-09,0,3.0,2.0,2.0,Townhouse,8/46 Botanical Drive,-38.01285,144.38077,2025-09-09 16:44:04,17753533,,8,0,0,False,Townhouse/Villa,Townhouse,LJ Hooker Property Point,22180,"Nathan Long, Dema Haddad","Built in wardrobes, Heating, Dishwasher",https://www.domain.com.au/8-46-botanical-drive-lara-vic-3212-17753533
17754366,LARA,3212,610.0,2440.0,"Monday, 06 October 2025",2025-09-09,0,4.0,2.0,2.0,House,19 Koolah Drive,-38.008175,144.3782,2025-09-09 16:44:04,17754366,,9,0,0,False,House,House,Maxwell Collins Real Estate,12185,Jodie Ferguson,"Air conditioning, Heating, Built in wardrobes, Ensuite, Car Parking - Surface",https://www.domain.com.au/19-koolah-drive-lara-vic-3212-17754366
17466768,LARA,3212,210.0,840.0,"Tuesday, 04 March 2025",2025-03-04,189,1.0,1.0,,House,Room 4/39A Mcclelland Avenue,-38.0246,144.41603,2025-09-09 16:44:10,17466768,,5,0,0,False,House,House,Barry Plant Geelong Sales,5005,Geelong Leasing,"Air conditioning, Broadband internet access, Heating, Dishwasher",https://www.domain.com.au/room-4-39a-mcclelland-avenue-lara-vic-3212-17466768
17610804,LARA,3212,890.0,3868.0,"Friday, 06 June 2025",2025-06-06,94,3.0,2.0,14.0,House,50 Tillys Road,-38.057304,144.34862,2025-09-09 16:44:10,17610804,,15,0,0,False,House,House,PANACHE REALTY,35885,Anil Sethi,"Heating, Fully fenced, Solar panels",https://www.domain.com.au/50-tillys-road-lara-vic-3212-17610804
17629959,LARA,3212,590.0,2564.0,"Thursday, 26 June 2025",2025-06-19,81,3.0,3.0,2.0,House,61 Abingdon Boulevard,-38.013485,144.35468,2025-09-09 16:44:10,17629959,,18,0,0,False,House,House,Lara Real Estate,36528,Rental Department,"Study, Fully fenced, Outdoor Entertainment Area, Remote Garage, Secure Parking, Alarm System, Built in wardrobes, Dishwasher, Floorboards, Intercom, Rumpus Room, Split-System Air Conditioning, Split-System Heating",https://www.domain.com.au/61-abingdon-boulevard-lara-vic-3212-17629959
17658030,LARA,3212,550.0,2390.0,"Monday, 07 July 2025",2025-07-08,63,3.0,2.0,2.0,Townhouse,50 Station Lake Road,-38.023727,144.40195,2025-09-09 16:44:10,17658030,,14,0,0,False,Townhouse/Villa,Townhouse,Lara Real Estate,36528,Rental Department,"Bath, Balcony, Courtyard, Fully fenced, Remote Garage, Secure Parking, Built in wardrobes, Dishwasher, Floorboards, Air conditioning, Split-System Air Conditioning, Split-System Heating",https://www.domain.com.au/50-station-lake-road-lara-vic-3212-17658030
17658724,LARA,3212,550.0,2390.0,"Friday, 11 July 2025",2025-07-08,63,3.0,2.0,2.0,Townhouse,56 Station Lake Road,-38.02375,144.40216,2025-09-09 16:44:10,17658724,,12,0,0,False,Townhouse/Villa,Townhouse,Lara Real Estate,36528,Rental Department,"Bath, Balcony / Deck, Courtyard, Fully fenced, Remote Garage, Secure Parking, Built in wardrobes, Dishwasher, Floorboards, Split-System Air Conditioning, Split-System Heating",https://www.domain.com.au/56-station-lake-road-lara-vic-3212-17658724
17701975,LARA,3212,540.0,,"Saturday, 09 August 2025",2025-08-05,35,3.0,2.0,2.0,House,11 Majestic Way,-38.029816,144.38972,2025-09-09 16:44:10,17701975,,7,1,0,False,House,House,Jellis Craig Geelong,18039,Tim Callander,"Internal Laundry, Bath, Heating, Remote Garage, Outdoor Entertainment Area, Fully fenced, Gas, Split System Air Con, Built in wardrobes, Dishwasher, Rumpus Room, Air conditioning",https://www.domain.com.au/11-majestic-way-lara-vic-3212-17701975
17705331,LARA,3212,580.0,,"Monday, 18 August 2025",2025-08-07,33,4.0,2.0,2.0,House,19 Penstone Crescent,-38.013165,144.35643,2025-09-09 16:44:10,17705331,,6,0,0,True,House,House,Harcourts North Geelong,26155,"Tiffany Thomas, Harcourts Leasing",Heating,https://www.domain.com.au/19-penstone-crescent-lara-vic-3212-17705331
17717976,LARA,3212,630.0,2738.0,"Friday, 15 August 2025",2025-08-15,25,4.0,2.0,2.0,House,5 Penstone Street,-38.02292,144.39642,2025-09-09 16:44:10,17717976,,16,0,1,False,House,House,Lara Real Estate,36528,Taylah Bank,"Bath, Fully fenced, Outdoor Entertainment Area, Remote Garage, Secure Parking, Alarm System, Built in wardrobes, Dishwasher, Floorboards, Intercom, Rumpus Room, Study, Ducted Heating, Evaporative Cooling",https://www.domain.com.au/5-penstone-street-lara-vic-3212-17717976
17720355,LARA,3212,575.0,2499.0,"Friday, 26 September 2025",2025-08-18,22,4.0,2.0,2.0,House,13 Windsor Court,-38.02765,144.39336,2025-09-09 16:44:10,17720355,,8,0,0,False,House,House,Hayeswinckle Geelong,33394,Dejana Bailey,"Gas, Dishwasher",https://www.domain.com.au/13-windsor-court-lara-vic-3212-17720355
17720660,LARA,3212,470.0,2036.0,"Monday, 25 August 2025",2025-08-18,21,3.0,1.0,1.0,House,83 Smeaton Close,-38.02675,144.41852,2025-09-09 16:44:10,17720660,,8,0,1,False,House,House,Ray White Lara,16363,"Lachlan McCraw, Nicole Acciarito","Gas, Pets Allowed, Heating, Dishwasher, Air conditioning, Built in wardrobes",https://www.domain.com.au/83-smeaton-close-lara-vic-3212-17720660
17729998,LARA,3212,530.0,2303.0,"Friday, 26 September 2025",2025-08-25,15,3.0,1.0,2.0,House,118 McClelland Avenue,-38.026478,144.42587,2025-09-09 16:44:10,17729998,,13,0,1,False,House,House,Lara Real Estate,36528,Rental Department,"Heating, Fully fenced, Outdoor Entertainment Area, Secure Parking, Shed, Built in wardrobes, Air conditioning, Reverse Cycle Air Conditioning, Solar panels, Water Tank",https://www.domain.com.au/118-mcclelland-avenue-lara-vic-3212-17729998
17731796,LARA,3212,550.0,2383.0,"Thursday, 18 September 2025",2025-08-26,14,3.0,2.0,1.0,House,9 Mark Street,-38.019714,144.39145,2025-09-09 16:44:10,17731796,,8,0,0,False,House,House,Ray White Lara,16363,"Lachlan McCraw, Pamela Carter","Air conditioning, Gas, Balcony / Deck, Floorboards, Built in wardrobes, Heating, Dishwasher, Secure Parking, Shed",https://www.domain.com.au/9-mark-street-lara-vic-3212-17731796
17732677,LARA,3212,250.0,1000.0,"Monday, 15 September 2025",2025-08-26,14,1.0,1.0,,House,Room 3/39A McClelland Avenue,-38.0246,144.41603,2025-09-09 16:44:10,17732677,,8,0,0,False,House,House,Barry Plant Geelong Sales,5005,Geelong Leasing,"Air conditioning, Broadband internet access, Heating, Dishwasher",https://www.domain.com.au/room-3-39a-mcclelland-avenue-lara-vic-3212-17732677
17734921,LARA,3212,500.0,2173.0,"Tuesday, 30 September 2025",2025-08-27,13,3.0,1.0,2.0,House,9 Blackbird Circuit,-38.03526,144.40125,2025-09-09 16:44:10,17734921,,6,0,0,False,House,House,Lara Real Estate,36528,Taylah Bank,"Fully fenced, Remote Garage, Secure Parking, Built in wardrobes, Dishwasher, Rumpus Room, Split-System Air Conditioning, Split-System Heating",https://www.domain.com.au/9-blackbird-circuit-lara-vic-3212-17734921
17736568,LARA,3212,620.0,2686.0,"Wednesday, 01 October 2025",2025-08-28,12,4.0,2.0,3.0,House,109 Homestead Drive,-38.01337,144.37004,2025-09-09 16:44:10,17736568,,9,1,0,False,House,House,Ray White Lara,16363,"Lachlan McCraw, Pamela Carter",Heating,https://www.domain.com.au/109-homestead-drive-lara-vic-3212-17736568
17737944,LARA,3212,650.0,2824.0,"Friday, 29 August 2025",2025-08-29,11,4.0,2.0,2.0,House,46 Wetherby Circuit,-38.015568,144.35313,2025-09-09 16:44:10,17737944,,18,0,0,False,House,House,Lara Real Estate,36528,Taylah Bank,"Bath, Fully fenced, Outdoor Entertainment Area, Secure Parking, Built in wardrobes, Dishwasher, Floorboards, Rumpus Room, Study, Ducted Heating, Evaporative Cooling",https://www.domain.com.au/46-wetherby-circuit-lara-vic-3212-17737944
17738393,LARA,3212,725.0,3150.0,"Friday, 05 September 2025",2025-08-29,11,4.0,2.0,2.0,House,8 Red Gum Court,-38.01114,144.37848,2025-09-09 16:44:10,17738393,,18,0,1,False,House,House,Lara Real Estate,36528,Taylah Bank,"Gas, Internal Laundry, Intercom, Balcony, Fully fenced, Outdoor Entertainment Area, Remote Garage, Secure Parking, Alarm System, Built in wardrobes, Dishwasher, Floorboards, Rumpus Room, Air conditioning, Ducted Heating",https://www.domain.com.au/8-red-gum-court-lara-vic-3212-17738393
17738955,LARA,3212,540.0,2346.0,"Friday, 26 September 2025",2025-08-29,11,4.0,2.0,2.0,House,6 Neville Street,-38.02046,144.39851,2025-09-09 16:44:10,17738955,,6,0,0,False,House,House,Lara Real Estate,36528,"Taylah Bank, Rental Department","Bath, Fully fenced, Remote Garage, Secure Parking, Shed, Built in wardrobes, Dishwasher, Rumpus Room, Study, Workshop, Split-System Air Conditioning, Split-System Heating",https://www.domain.com.au/6-neville-street-lara-vic-3212-17738955
17741854,LARA,3212,540.0,2346.0,"Friday, 05 September 2025",2025-09-01,7,4.0,2.0,2.0,House,24 Skipper Avenue,-38.02292,144.39642,2025-09-09 16:44:10,17741854,,15,0,0,False,House,House,Buxton Newtown,14503,"Mia Griffiths, Sophie Kennedy-Rush","Split System Air Con, Split System Heating, Built in wardrobes, Garden / Courtyard, Dishwasher, Fully fenced, Remote Garage, Secure Parking, Ensuite",https://www.domain.com.au/24-skipper-avenue-lara-vic-3212-17741854
17743699,LARA,3212,670.0,2911.0,"Tuesday, 02 September 2025",2025-09-02,7,4.0,2.0,2.0,House,15 Pickering Crescent,-38.014668,144.35292,2025-09-09 16:44:10,17743699,,16,0,1,False,House,House,Lara Real Estate,36528,"Taylah Bank, Rental Department","Pets Allowed, Bath, Fully fenced, Outdoor Entertainment Area, Remote Garage, Secure Parking, Built in wardrobes, Dishwasher, Rumpus Room, Air conditioning, Ducted Heating, Solar panels",https://www.domain.com.au/15-pickering-crescent-lara-vic-3212-17743699
16834828,LARA,3212,,870.0,"Tuesday, 16 January 2024",2024-01-16,601,,,,Acreage / Semi-Rural,83 Curletts Road,-38.013474,144.40155,2025-09-09 16:44:15,16834828,QI-4416-WE,2,0,0,False,Any,Acreage / Semi-Rural,Westside Real Estate,12961,,,https://www.domain.com.au/83-curletts-road-lara-vic-3212-16834828
16957604,LARA,3212,,3726.0,,2024-04-08,519,4.0,3.0,7.0,House,130 Hicks Street,-38.013363,144.42667,2025-09-09 16:44:15,16957604,NH-7064-IS,10,0,0,False,House,House,Bal Real Estate ,34023,,Fully fenced,https://www.domain.com.au/130-hicks-street-lara-vic-3212-16957604
17263242,LARA,3212,520.0,2260.0,"Thursday, 24 October 2024",2024-10-23,321,3.0,2.0,1.0,House,7 Colmar Street,-38.01552,144.37727,2025-09-09 16:44:15,17263242,XG-8754-KC,13,0,0,False,House,House,Hayeswinckle Lara,32069,Matthew Ward,Bath,https://www.domain.com.au/7-colmar-street-lara-vic-3212-17263242
17644614,LARA,3212,570.0,2477.0,"Tuesday, 08 July 2025",2025-06-30,71,3.0,2.0,2.0,House,341 Homestead Drive,-38.011265,144.35254,2025-09-09 16:44:15,17644614,,11,0,0,False,House,House,OSKO Real Estate Agency,37723,Osko Rentals,Secure Parking,https://www.domain.com.au/341-homestead-drive-lara-vic-3212-17644614
17652127,LARA,3212,620.0,2695.0,"Friday, 04 July 2025",2025-07-03,68,4.0,2.0,2.0,House,11 Derwent St,-38.01759,144.3578,2025-09-09 16:44:15,17652127,,18,0,1,True,House,House,Geelong Property Managers,32238,Fiona Noonan,"Internal Laundry, Bath, Air conditioning, Secure Parking, Built in wardrobes, Dishwasher, Gas Heating, Study, Rumpus Room",https://www.domain.com.au/11-derwent-st-lara-vic-3212-17652127
17655869,LARA,3212,440.0,1955.0,"Monday, 30 June 2025",2025-07-07,64,3.0,1.0,2.0,House,101 McClelland Ave,-38.025284,144.4225,2025-09-09 16:44:15,17655869,,9,0,1,False,House,House,Hayeswinckle Lara,32069,Shanae Plater,"Pets Allowed, Heating",https://www.domain.com.au/101-mcclelland-ave-lara-vic-3212-17655869
