listing_id,suburb,postcode,weekly_rent,bond,available_date,date_listed,days_listed,bedrooms,bathrooms,carspaces,property_type,address,lat,lon,scraped_date,domain_page_id,property_id,photo_count,video_count,floorplans_count,virtual_tour,primary_type,secondary_type,agency,agency_id,agent_names,structured_features,url
15481263,MALVERN,3144,795,3454.0,"Friday, 12 September 2025",2025-09-02,7,3,1,1.0,Apartment / Unit / Flat,7/15 Wheatland Road,-37.865376,145.03441,2025-09-09 16:17:51,15481263,GN-2421-YO,6,0,0,False,Apartment,Apartment / Unit / Flat,Thomson ,176,Xavier George,,https://www.domain.com.au/7-15-wheatland-road-malvern-vic-3144-15481263
17084495,MALVERN,3144,580,2520.0,"Monday, 22 September 2025",2025-09-03,6,2,1,1.0,Apartment / Unit / Flat,3/51-53 Victoria Road North,-37.869156,145.03767,2025-09-09 16:17:51,17084495,UK-6442-HX,8,0,0,False,Apartment,Apartment / Unit / Flat,The Agency Victoria,29954,Harshil Vora,"Bathtub, Split System Heating, Split System Air Conditioning",https://www.domain.com.au/3-51-53-victoria-road-north-malvern-vic-3144-17084495
17644429,MALVERN,3144,1995,11970.0,"Monday, 30 June 2025",2025-06-30,71,4,3,2.0,House,18 Hornsby Street,-37.84909,145.03958,2025-09-09 16:17:51,17644429,,15,0,1,False,House,House,Marshall White Stonnington,4450,"Renee Hewstone, Grace Morley, Kate Humphreys","Air conditioning, Alarm System, Built in wardrobes, Balcony / Deck, Dishwasher, Ducted Cooling, Ducted Heating, Floorboards, Fully fenced, Intercom, Fireplace(s), Outdoor Entertainment Area, Remote Garage, Rumpus Room, Secure Parking, Study",https://www.domain.com.au/18-hornsby-street-malvern-vic-3144-17644429
17710410,MALVERN,3144,495,2155.0,"Wednesday, 10 September 2025",2025-08-11,28,2,1,1.0,Apartment / Unit / Flat,2/19 Horace Street,-37.862545,145.03911,2025-09-09 16:17:51,17710410,,7,0,0,False,Apartment,Apartment / Unit / Flat,Woodards Camberwell,3601,Lindsay Mai,"Built in wardrobes, Internal Laundry",https://www.domain.com.au/2-19-horace-street-malvern-vic-3144-17710410
17719008,MALVERN,3144,875,3802.0,"Thursday, 18 September 2025",2025-08-18,22,2,2,2.0,Apartment / Unit / Flat,104/250-252 Wattletree Road,-37.863953,145.0385,2025-09-09 16:17:51,17719008,,7,0,1,False,Apartment,Apartment / Unit / Flat,Marshall White Stonnington,4450,"Anna Pylkkanen, Tina Jin",,https://www.domain.com.au/104-250-252-wattletree-road-malvern-vic-3144-17719008
17733572,MALVERN,3144,585,2542.0,"Saturday, 30 August 2025",2025-08-27,13,2,1,1.0,Apartment / Unit / Flat,6/6 Finlayson Street,-37.868317,145.03581,2025-09-09 16:17:51,17733572,,8,0,0,False,Apartment,Apartment / Unit / Flat, Jellis Craig & Company Pty Ltd,6525,Lachie Hollamby,"Balcony / Deck, Built in wardrobes",https://www.domain.com.au/6-6-finlayson-street-malvern-vic-3144-17733572
17740837,MALVERN,3144,480,2085.0,"Monday, 08 September 2025",2025-09-01,8,1,1,1.0,Apartment / Unit / Flat,8/27 Ewart Street,-37.869778,145.03664,2025-09-09 16:17:51,17740837,,6,0,0,False,Apartment,Apartment / Unit / Flat,The Agency Victoria,29954,Harshil Vora,"Dishwasher, Pets Allowed",https://www.domain.com.au/8-27-ewart-street-malvern-vic-3144-17740837
17741361,MALVERN,3144,1400,8000.0,"Wednesday, 01 October 2025",2025-09-01,8,3,2,2.0,House,9 Plant St,-37.85108,145.03242,2025-09-09 16:17:51,17741361,,13,0,1,False,House,House,RentBetter,27499,,"Internal Laundry, Air conditioning, Alarm System, Balcony / Deck, Built in wardrobes, Dishwasher, Fireplace(s), Fully fenced, Furnished, Garden / Courtyard, Heating, Intercom, Secure Parking, Shed",https://www.domain.com.au/9-plant-st-malvern-vic-3144-17741361
17742849,MALVERN,3144,480,1955.0,"Friday, 26 September 2025",2025-09-02,7,1,1,1.0,Apartment / Unit / Flat,3/9 Warner Street,-37.851448,145.0372,2025-09-09 16:17:51,17742849,,6,0,0,False,Apartment,Apartment / Unit / Flat,Chisholm & Gamon Elwood,308,"Trudy Kelder, Leasing Team",,https://www.domain.com.au/3-9-warner-street-malvern-vic-3144-17742849
17742942,MALVERN,3144,700,3042.0,"Friday, 12 September 2025",2025-09-02,7,1,1,1.0,Apartment / Unit / Flat,706/645 Dandenong Road,-37.86603,145.02797,2025-09-09 16:17:51,17742942,,7,0,0,False,Apartment,Apartment / Unit / Flat,McGrath,19308,"Daniel Hamilton, Shaun Broadbent","Air conditioning, Heating, Area Views, Built in wardrobes, Close to transport, Close to shops, Swimming Pool, Close to schools, Security Access, Lift Installed, Car Parking - Basement, Carpeted, Exhaust, Kitchenette, Openable Windows, Window Treatments",https://www.domain.com.au/706-645-dandenong-road-malvern-vic-3144-17742942
17745632,MALVERN,3144,680,2955.0,"Saturday, 06 September 2025",2025-09-03,6,3,1,1.0,Apartment / Unit / Flat,2/168 Wattletree Road,-37.86281,145.02994,2025-09-09 16:17:51,17745632,,9,1,0,False,Apartment,Apartment / Unit / Flat,  Gary Peer,26351,Leasing Concierge,,https://www.domain.com.au/2-168-wattletree-road-malvern-vic-3144-17745632
17746648,MALVERN,3144,950,6192.0,"Thursday, 04 September 2025",2025-09-04,5,2,1,1.0,Apartment / Unit / Flat,3/1228 Malvern Road,-37.852486,145.03532,2025-09-09 16:17:51,17746648,,11,1,1,False,Apartment,Apartment / Unit / Flat, Jellis Craig & Company Pty Ltd,6525,Heather Kirk,"Balcony / Deck, Garden / Courtyard, Built in wardrobes, Study",https://www.domain.com.au/3-1228-malvern-road-malvern-vic-3144-17746648
17747974,MALVERN,3144,710,3085.0,"Thursday, 04 September 2025",2025-09-04,4,1,1,1.0,Apartment / Unit / Flat,M416/645 Dandenong Road,-37.86603,145.02797,2025-09-09 16:17:51,17747974,,14,0,1,False,Apartment,Apartment / Unit / Flat,Thomson ,176,Adele Curcio,,https://www.domain.com.au/m416-645-dandenong-road-malvern-vic-3144-17747974
17748004,MALVERN,3144,685,2976.0,"Thursday, 04 September 2025",2025-09-04,4,1,1,1.0,Apartment / Unit / Flat,M108/645 Dandenong Road,-37.86603,145.02797,2025-09-09 16:17:51,17748004,,14,0,1,False,Apartment,Apartment / Unit / Flat,Thomson ,176,Adele Curcio,,https://www.domain.com.au/m108-645-dandenong-road-malvern-vic-3144-17748004
17748059,MALVERN,3144,730,3173.0,"Monday, 08 September 2025",2025-09-04,4,2,1,1.0,Apartment / Unit / Flat,903/641-651 Dandenong Road,-37.86613,145.02817,2025-09-09 16:17:51,17748059,,14,0,0,False,Apartment,Apartment / Unit / Flat,Pitra Real Estate Group,18350,Radmila Pitra,"Balcony / Deck, Air conditioning, Gym, Intercom, Built in wardrobes, Internal Laundry, Cable or Satellite, Gas, Broadband internet access, Heating, Dishwasher, Energy efficient appliances, Water efficient appliances, Wall / ceiling insulation, Secure Parking, Fully fenced, Garden / Courtyard, Swimming Pool",https://www.domain.com.au/903-641-651-dandenong-road-malvern-vic-3144-17748059
17748560,MALVERN,3144,1700,11081.0,"Friday, 03 October 2025",2025-09-05,4,4,2,,House,2 McArthur St,-37.857483,145.03926,2025-09-09 16:17:51,17748560,,10,0,1,False,House,House, Jellis Craig Stonnington,5489,Nathan Roberts,"Swimming Pool, Balcony / Deck, Outdoor Entertainment Area, Shed, Fully fenced, Built in wardrobes, Dishwasher, Floorboards, Study",https://www.domain.com.au/2-mcarthur-st-malvern-vic-3144-17748560
17749288,MALVERN,3144,750,3259.0,"Thursday, 04 September 2025",2025-09-05,4,2,2,1.0,Apartment / Unit / Flat,414/645 Dandenong Road,-37.86603,145.02797,2025-09-09 16:17:51,17749288,,20,0,0,False,Apartment,Apartment / Unit / Flat,Luxe Property,20536,Sabina Aldouby,"Gas, Internal Laundry, Built in wardrobes, Dishwasher, Ensuite, Floorboards, Gym, Balcony, Pool (Above Ground), Remote Garage, Split System (Heating), Split System (Air Con)",https://www.domain.com.au/414-645-dandenong-road-malvern-vic-3144-17749288
17751000,MALVERN,3144,780,3389.0,"Monday, 15 September 2025",2025-09-08,1,2,1,1.0,Apartment / Unit / Flat,803/645 Dandenong Road,-37.86603,145.02797,2025-09-09 16:17:51,17751000,,9,0,0,False,Apartment,Apartment / Unit / Flat,The Agency Victoria,29954,Harshil Vora,"Dishwasher, Split System Heating, Swimming Pool, Pets Allowed",https://www.domain.com.au/803-645-dandenong-road-malvern-vic-3144-17751000
17753819,MALVERN,3144,880,3824.0,"Friday, 12 September 2025",2025-09-09,0,2,2,1.0,Apartment / Unit / Flat,408/645 Dandenong Road,-37.86603,145.02797,2025-09-09 16:17:51,17753819,,19,0,2,False,Apartment,Apartment / Unit / Flat,Belle Property South Yarra,3721,"Sam Landale, Todd George","Gas, Internal Laundry, Balcony / Deck, Air conditioning, Heating, Built in wardrobes, Close to transport, Close to shops, Swimming Pool, Intercom, Ensuite, Floorboards, Study, Secure Parking, Dishwasher",https://www.domain.com.au/408-645-dandenong-road-malvern-vic-3144-17753819
17754113,MALVERN,3144,850,3693.0,"Tuesday, 09 September 2025",2025-09-09,0,2,2,1.0,Apartment / Unit / Flat,210/645 Dandenong Road,-37.86603,145.02797,2025-09-09 16:17:51,17754113,,10,0,0,False,Apartment,Apartment / Unit / Flat,Biggin & Scott Stonnington,3276,Tom Koller,,https://www.domain.com.au/210-645-dandenong-road-malvern-vic-3144-17754113
8671356,MALVERN,3144,1470,,"Saturday, 18 June 2022",2013-11-02,4329,2,2,1.0,Apartment / Unit / Flat,,-37.8524,145.03574,2025-09-09 16:17:57,8671356,,11,1,0,True,Apartment,Apartment / Unit / Flat,Westprecinct,15184,Westprecinct Melbourne,"Ducted Cooling, Ducted Heating, Study, Kitchen, Built in wardrobes, Balcony, Floorboards, Air conditioning, Broadband, Cable or Satellite, Dishwasher, Intercom, Furnished, Pets Allowed, Gym, Laundry",https://www.domain.com.au/malvern-vic-3144-8671356
9673632,MALVERN,3144,600,2607.0,"Friday, 19 September 2025",2025-08-22,17,2,1,1.0,Apartment / Unit / Flat,2/18 Johnstone Street,-37.869476,145.03482,2025-09-09 16:17:57,9673632,LH-1922-PV,8,0,0,False,Apartment,Apartment / Unit / Flat,LITTLE Real Estate Victoria,24974,"Alex Ng, Natalie Sidhu","Car Accom: Single Off-Street Parking, Kitchen: Modern, Cooking: Electric Hotplates & Oven, Pool/Spa Count: 0",https://www.domain.com.au/2-18-johnstone-street-malvern-vic-3144-9673632
16918689,MALVERN,3144,1200,5214.0,"Wednesday, 13 August 2025",2025-08-13,27,2,2,1.0,Apartment / Unit / Flat,G03/1331 High Street,-37.857685,145.0392,2025-09-09 16:17:57,16918689,,9,0,1,False,Apartment,Apartment / Unit / Flat,Evoke Property,36939,Jordan Palma,"Gas, Internal Laundry, Gym, Intercom, Floorboards, Built in wardrobes, Dishwasher, Broadband, Ducted Heating, Ducted Air Conditioning, Courtyard, Secure Parking, City Views, Pets Allowed",https://www.domain.com.au/g03-1331-high-street-malvern-vic-3144-16918689
17206148,MALVERN,3144,1800,10800.0,"Wednesday, 01 October 2025",2025-09-01,8,3,3,1.0,House,8 Euston St,-37.8567,145.03899,2025-09-09 16:17:57,17206148,QW-6979-WL,12,0,0,False,House,House,Buyer's Advocate,18698,"Liz Haughey, Leasing Team",,https://www.domain.com.au/8-euston-st-malvern-vic-3144-17206148
17431635,MALVERN,3144,1400,6083.0,"Thursday, 13 March 2025",2025-02-10,211,3,2,2.0,Apartment / Unit / Flat,102/1331 High Street,-37.857742,145.03917,2025-09-09 16:17:57,17431635,DN-3398-VB,12,0,1,False,Apartment,Apartment / Unit / Flat,Evoke Property,36939,"Chloe ZANGHI, Laura Braun","Gas, Internal Laundry, Gym, Intercom, Floorboards, Built in wardrobes, Dishwasher, Broadband, Ducted Heating, Ducted Air Conditioning, Balcony, Secure Parking, Fully fenced, City Views, Pets Allowed",https://www.domain.com.au/102-1331-high-street-malvern-vic-3144-17431635
17547093,MALVERN,3144,710,3086.0,"Friday, 30 May 2025",2025-04-29,133,2,2,1.0,Apartment / Unit / Flat,314/14 Elizabeth Street,-37.85192,145.03648,2025-09-09 16:17:57,17547093,UQ-5205-RU,9,0,0,True,Apartment,Apartment / Unit / Flat,Dingle Partners,345,Denis Allen,,https://www.domain.com.au/314-14-elizabeth-street-malvern-vic-3144-17547093
17584452,MALVERN,3144,1975,8582.0,"Wednesday, 21 May 2025",2025-05-21,111,3,2,2.0,Apartment / Unit / Flat,104/6 Chilcote Avenue,-37.8554,145.03352,2025-09-09 16:17:57,17584452,NI-9916-GC,11,0,1,False,Apartment,Apartment / Unit / Flat,Thomson ,176,Kerry Kyloh,,https://www.domain.com.au/104-6-chilcote-avenue-malvern-vic-3144-17584452
17597100,MALVERN,3144,1165,5062.0,"Thursday, 29 May 2025",2025-05-29,103,4,3,2.0,Townhouse,26B Valetta Street,-37.859344,145.03078,2025-09-09 16:17:57,17597100,,10,0,1,False,Townhouse/Villa,Townhouse,Thomson ,176,Harriet Henderson,,https://www.domain.com.au/26b-valetta-street-malvern-vic-3144-17597100
17601291,MALVERN,3144,430,1868.0,"Tuesday, 03 June 2025",2025-06-02,99,1,1,1.0,Apartment / Unit / Flat,34/110-112 Wattletree Road,-37.862995,145.03308,2025-09-09 16:17:57,17601291,,5,0,0,False,Apartment,Apartment / Unit / Flat,Barry Plant Manningham,7015,"Natasha D'Angelo, Alex Gissara","Built in wardrobes, Split System Heating, Air conditioning",https://www.domain.com.au/34-110-112-wattletree-road-malvern-vic-3144-17601291
17660863,MALVERN,3144,430,1868.0,"Monday, 14 July 2025",2025-07-09,62,1,1,1.0,Apartment / Unit / Flat,2/260 Wattletree Road,-37.86398,145.0394,2025-09-09 16:17:57,17660863,,9,0,1,False,Apartment,Apartment / Unit / Flat,Shape Property ,26902,Yasmeen Nikatos,"Gas, Internal Laundry, Air conditioning, Built in wardrobes, Secure Parking, Split System AirCon, Split System Heating, Split-system Air-conditioning",https://www.domain.com.au/2-260-wattletree-road-malvern-vic-3144-17660863
17673295,MALVERN,3144,895,3580.0,"Thursday, 28 August 2025",2025-07-17,54,3,1,1.0,House,63 CLAREMONT AVENUE,-37.866272,145.03435,2025-09-09 16:17:57,17673295,,9,1,1,False,House,House,Property Now,10282,Property Now,"Fireplace(s), Outdoor Entertainment Area, Fully fenced, Gas Heating, Courtyard, Reverse Cycle Air Conditioning, Air conditioning, Dishwasher, Built in wardrobes, Secure Parking, Floorboards, Broadband Connection, Pets Allowed",https://www.domain.com.au/63-claremont-avenue-malvern-vic-3144-17673295
17682583,MALVERN,3144,390,1695.0,"Wednesday, 23 July 2025",2025-07-23,48,1,1,1.0,Apartment / Unit / Flat,16/164 Wattletree Road,-37.86281,145.02994,2025-09-09 16:17:57,17682583,,7,1,0,False,Apartment,Apartment / Unit / Flat,  Gary Peer,26351,Leasing Concierge,,https://www.domain.com.au/16-164-wattletree-road-malvern-vic-3144-17682583
17691142,MALVERN,3144,1470,6388.0,"Monday, 25 August 2025",2025-07-29,41,3,2,2.0,Apartment / Unit / Flat,202/1331 High Street,-37.857742,145.03917,2025-09-09 16:17:57,17691142,,11,0,1,False,Apartment,Apartment / Unit / Flat,Evoke Property,36939,"Chloe ZANGHI, Laura Braun","Gas, Internal Laundry, Gym, Intercom, Floorboards, Built in wardrobes, Dishwasher, Broadband, Ducted Heating, Ducted Air Conditioning, Balcony, Secure Parking, City Views, Pets Allowed",https://www.domain.com.au/202-1331-high-street-malvern-vic-3144-17691142
17696281,MALVERN,3144,570,2477.0,"Monday, 08 September 2025",2025-08-01,39,2,1,1.0,House,7/29 Hunter Street,-37.86761,145.03703,2025-09-09 16:17:57,17696281,,7,0,0,False,House,House,Belle Property Armadale,3703,Xavier Sukra,"Air conditioning, Built in wardrobes, Dishwasher",https://www.domain.com.au/7-29-hunter-street-malvern-vic-3144-17696281
17723802,MALVERN,3144,500,2173.0,"Friday, 29 August 2025",2025-08-20,20,1,1,1.0,Apartment / Unit / Flat,307/1387 Malvern Road,-37.852825,145.04039,2025-09-09 16:17:57,17723802,,9,0,0,False,Apartment,Apartment / Unit / Flat,Belle Property Armadale,3703,Xavier Sukra,,https://www.domain.com.au/307-1387-malvern-road-malvern-vic-3144-17723802
17726718,MALVERN,3144,1100,6600.0,"Monday, 25 August 2025",2025-08-21,18,2,2,1.0,Apartment / Unit / Flat,104/1331 High Street,-37.857742,145.03917,2025-09-09 16:17:57,17726718,,8,0,1,False,Apartment,Apartment / Unit / Flat,Marshall White Stonnington,4450,"Tina Jin, Anna Pylkkanen",,https://www.domain.com.au/104-1331-high-street-malvern-vic-3144-17726718
17731963,MALVERN,3144,1470,8820.0,"Monday, 25 August 2025",2025-08-26,14,3,2,2.0,Apartment / Unit / Flat,202/1331 High Street,-37.857742,145.03917,2025-09-09 16:17:57,17731963,,9,0,1,False,Apartment,Apartment / Unit / Flat,Marshall White Stonnington,4450,"Tina Jin, Anna Pylkkanen","Built in wardrobes, Garden / Courtyard, Dishwasher, Ducted Cooling, Ducted Heating, Floorboards, Gym, Secure Parking",https://www.domain.com.au/202-1331-high-street-malvern-vic-3144-17731963
17735949,MALVERN,3144,545,2368.0,"Friday, 19 September 2025",2025-08-28,12,1,1,1.0,Apartment / Unit / Flat,9/12 Irving Street,-37.859196,145.03229,2025-09-09 16:17:57,17735949,,9,0,1,False,Apartment,Apartment / Unit / Flat,Belle Property Armadale,3703,Xavier Sukra,,https://www.domain.com.au/9-12-irving-street-malvern-vic-3144-17735949
17739350,MALVERN,3144,645,2580.0,"Wednesday, 01 October 2025",2025-08-30,10,2,2,,Apartment / Unit / Flat,4/23A Glenferrie Road,-37.86538,145.02763,2025-09-09 16:17:57,17739350,,11,0,1,False,Apartment,Apartment / Unit / Flat,Minus The Agent,26625,Minus The Agent Property Management,"Heating, Study, Air conditioning, Intercom, Balcony, Split system air conditioning, Broadband, Built in wardrobes, Dishwasher, Internal Laundry, modern bathrooms x 2, modern kitchen, Close to schools, Close to transport, Pets Allowed",https://www.domain.com.au/4-23a-glenferrie-road-malvern-vic-3144-17739350
