listing_id,suburb,postcode,weekly_rent,bond,available_date,date_listed,days_listed,bedrooms,bathrooms,carspaces,property_type,address,lat,lon,scraped_date,domain_page_id,property_id,photo_count,video_count,floorplans_count,virtual_tour,primary_type,secondary_type,agency,agency_id,agent_names,structured_features,url
13867125,MARIBYRNONG,3032,625,,"Monday, 29 September 2025",2025-09-02,7,3,2,2.0,House,53 Waterford Avenue,-37.772476,144.87952,2025-09-09 16:41:40,13867125,PQ-6997-CI,9,0,1,False,House,House,Moonee Valley Real Estate,11740,Rental Department,"Air conditioning, Secure Parking, Heating, Dishwasher",https://www.domain.com.au/53-waterford-avenue-maribyrnong-vic-3032-13867125
14995058,MARIBYRNONG,3032,530,2302.0,"Monday, 06 October 2025",2025-09-08,1,2,2,1.0,Apartment / Unit / Flat,201/334-336 Gordon Street,-37.78299,144.89087,2025-09-09 16:41:40,14995058,OE-1859-EJ,10,0,1,False,Apartment,Apartment / Unit / Flat,LITTLE Real Estate Victoria,24974,Cooper Modica,"Car Accom: Single Security Parking, Heating: Reverse Cycle Air Conditioning, Cooling: Reverse Cycle Air Conditioning, Pool/Spa Count: 0",https://www.domain.com.au/201-334-336-gordon-street-maribyrnong-vic-3032-14995058
17072067,MARIBYRNONG,3032,535,2324.0,"Tuesday, 07 October 2025",2025-09-01,7,2,1,1.0,Apartment / Unit / Flat,201/66 Wests Road,-37.769848,144.88235,2025-09-09 16:41:40,17072067,JY-7220-FF,5,0,1,False,Apartment,Apartment / Unit / Flat,LITTLE Real Estate Victoria,24974,Cooper Modica,"Built in wardrobes, Internal Laundry, Intercom, Heating, Dishwasher, Balcony / Deck, Pool/Spa Count: 0",https://www.domain.com.au/201-66-wests-road-maribyrnong-vic-3032-17072067
17654625,MARIBYRNONG,3032,825,3584.0,"Monday, 14 July 2025",2025-07-04,66,3,2,1.0,Townhouse,7 Hillsdale Avenue,-37.78775,144.89641,2025-09-09 16:41:40,17654625,,8,0,1,False,Townhouse/Villa,Townhouse,Jellis Craig Kensington,20419,"Justin Jovanov, Vicki Lekanis","Internal Laundry, Split System Air Con, Split System Heating, Built in wardrobes, Garden / Courtyard, Remote Garage",https://www.domain.com.au/7-hillsdale-avenue-maribyrnong-vic-3032-17654625
17704494,MARIBYRNONG,3032,520,2259.0,"Thursday, 14 August 2025",2025-08-07,33,2,1,1.0,Apartment / Unit / Flat,4/6 Navigator Street,-37.76869,144.8982,2025-09-09 16:41:40,17704494,,10,0,0,False,Apartment,Apartment / Unit / Flat,Barbounis Real Estate,18129,Anthony Barbounis,"Gas, Internal Laundry, Bath, Built in wardrobes, Split-System Air Conditioning, Split-System Heating",https://www.domain.com.au/4-6-navigator-street-maribyrnong-vic-3032-17704494
17713537,MARIBYRNONG,3032,540,2346.0,"Friday, 05 September 2025",2025-08-13,27,2,1,1.0,Apartment / Unit / Flat,106/334 Gordon Street,-37.78299,144.89087,2025-09-09 16:41:40,17713537,,8,0,1,True,Apartment,Apartment / Unit / Flat,Woodards Ascot Vale,26361,Elizabeth Ho,"Built in wardrobes, Intercom, Heating, Dishwasher",https://www.domain.com.au/106-334-gordon-street-maribyrnong-vic-3032-17713537
17719626,MARIBYRNONG,3032,675,2933.0,"Friday, 15 August 2025",2025-08-18,22,3,2,1.0,House,8 Monash Street,-37.779854,144.9091,2025-09-09 16:41:40,17719626,,11,0,1,True,House,House,Woodards Ascot Vale,26361,Caterina Italiano,"Air conditioning, Internal Laundry, Shed",https://www.domain.com.au/8-monash-street-maribyrnong-vic-3032-17719626
17720121,MARIBYRNONG,3032,900,3911.0,"Friday, 29 August 2025",2025-08-18,22,3,2,2.0,House,5 Vista Rise,-37.786415,144.89476,2025-09-09 16:41:40,17720121,,14,0,0,False,House,House,Jas Stephens Real Estate,22,Tennille D'Avola,"Floorboards, Built in wardrobes, Dishwasher, Bathtub, Gas Appliances, Split System Heating, Split System Air Conditioning, Ensuite(s), Balcony, Courtyard, Deck, Remote Garage, Secure Parking, Fully fenced, Pets Allowed",https://www.domain.com.au/5-vista-rise-maribyrnong-vic-3032-17720121
17729408,MARIBYRNONG,3032,520,2259.0,"Wednesday, 03 September 2025",2025-08-25,15,2,1,1.0,Apartment / Unit / Flat,3/6 Navigator Street,-37.76869,144.8982,2025-09-09 16:41:40,17729408,,9,0,0,False,Apartment,Apartment / Unit / Flat,Barbounis Real Estate,18129,Alicia Barbounis,"Built in wardrobes, Gas, Internal Laundry, Bath",https://www.domain.com.au/3-6-navigator-street-maribyrnong-vic-3032-17729408
17729657,MARIBYRNONG,3032,675,2933.0,"Saturday, 01 November 2025",2025-08-25,15,2,1,1.0,Apartment / Unit / Flat,G10/55 Cumberland Drive,-37.786495,144.90082,2025-09-09 16:41:40,17729657,,8,0,0,False,Apartment,Apartment / Unit / Flat,Jellis Craig Kensington,20419,"Megan Reddy, Anastasia Gullotti","Built in wardrobes, Gas, Internal Laundry, Heating, Floorboards",https://www.domain.com.au/g10-55-cumberland-drive-maribyrnong-vic-3032-17729657
17737577,MARIBYRNONG,3032,480,2086.0,"Thursday, 04 September 2025",2025-08-29,11,1,1,1.0,Apartment / Unit / Flat,1/54 La Scala Avenue,-37.78095,144.89401,2025-09-09 16:41:40,17737577,,8,0,1,False,Apartment,Apartment / Unit / Flat,Online Property Services,26949,Online Property Services Property Management,"Built in wardrobes, Intercom",https://www.domain.com.au/1-54-la-scala-avenue-maribyrnong-vic-3032-17737577
17741567,MARIBYRNONG,3032,540,2346.0,"Monday, 06 October 2025",2025-09-01,8,2,2,1.0,Apartment / Unit / Flat,403b/2 Wests Rd,-37.774586,144.88144,2025-09-09 16:41:40,17741567,,10,0,0,True,Apartment,Apartment / Unit / Flat,Moment Group,35720,Leasing Consultant,"Air conditioning, Built in wardrobes, Secure Parking, Heating, Balcony / Deck",https://www.domain.com.au/403b-2-wests-rd-maribyrnong-vic-3032-17741567
17747412,MARIBYRNONG,3032,465,2021.0,"Friday, 12 September 2025",2025-09-04,5,1,1,1.0,Apartment / Unit / Flat,104/64 Wests Road,-37.769848,144.88235,2025-09-09 16:41:40,17747412,,5,0,1,False,Apartment,Apartment / Unit / Flat,The Hopkins Group,17841,James Hickey,,https://www.domain.com.au/104-64-wests-road-maribyrnong-vic-3032-17747412
17748686,MARIBYRNONG,3032,500,2173.0,"Friday, 03 October 2025",2025-09-05,4,1,1,1.0,Apartment / Unit / Flat,408/72 Wests Road,-37.769855,144.88237,2025-09-09 16:41:40,17748686,,15,0,1,False,Apartment,Apartment / Unit / Flat,MRE,20795,Millie Bowles,"Built in wardrobes, Internal Laundry, Balcony / Deck, Car Accom: Carport, Pool/Spa Count: 0",https://www.domain.com.au/408-72-wests-road-maribyrnong-vic-3032-17748686
17749395,MARIBYRNONG,3032,620,2694.0,"Wednesday, 08 October 2025",2025-09-05,4,2,2,1.0,Apartment / Unit / Flat,307/54 La Scala Avenue,-37.78095,144.89401,2025-09-09 16:41:40,17749395,,8,0,0,False,Apartment,Apartment / Unit / Flat,Capital Property Marketing,32412,Lana Juresko-Krpina,"Gas, Internal Laundry, Built in wardrobes, Dishwasher, Ensuite, Intercom, Balcony, Remote Garage, Secure Parking, Split System (Heating), Split System (Air Con)",https://www.domain.com.au/307-54-la-scala-avenue-maribyrnong-vic-3032-17749395
17749606,MARIBYRNONG,3032,730,3172.0,"Friday, 05 September 2025",2025-09-05,4,3,2,2.0,Apartment / Unit / Flat,104/68 Wests Road,-37.769848,144.88235,2025-09-09 16:41:40,17749606,,12,0,0,False,Apartment,Apartment / Unit / Flat,Australian Residential Group,27892,Mimi Ihmeari,"Internal Laundry, Intercom, Floorboards, Built in wardrobes, Dishwasher, Ducted Heating, Ducted Air Conditioning, Electric Hot Water, Outdoor Entertainment Area, Balcony, Remote Garage, Pets Allowed",https://www.domain.com.au/104-68-wests-road-maribyrnong-vic-3032-17749606
17752614,MARIBYRNONG,3032,800,3476.0,"Thursday, 09 October 2025",2025-09-09,0,3,2,2.0,House,15 Vista Rise,-37.785995,144.8945,2025-09-09 16:41:40,17752614,,9,0,0,False,House,House,BigginScott Moonee Ponds,12394,"Tasma Bogdanovic, Sam Barbour","Heating, Balcony / Deck, Built in wardrobes, Dishwasher, Floorboards",https://www.domain.com.au/15-vista-rise-maribyrnong-vic-3032-17752614
17753213,MARIBYRNONG,3032,530,2303.0,"Thursday, 02 October 2025",2025-09-09,0,2,1,1.0,Apartment / Unit / Flat,5/54 La Scala Avenue,-37.78095,144.89401,2025-09-09 16:41:40,17753213,,7,0,1,False,Apartment,Apartment / Unit / Flat,Pennisi Real Estate,7307,Pennisi Leasing Team,"Gas, Secure Parking, Balcony / Deck, Built in wardrobes, Dishwasher, Internal Laundry",https://www.domain.com.au/5-54-la-scala-avenue-maribyrnong-vic-3032-17753213
17753642,MARIBYRNONG,3032,625,2716.0,"Monday, 08 September 2025",2025-09-09,0,2,1,1.0,Apartment / Unit / Flat,801/7 Sloane Street,-37.774902,144.88445,2025-09-09 16:41:40,17753642,,10,0,0,True,Apartment,Apartment / Unit / Flat,Woodards Ascot Vale,26361,Caterina Italiano,,https://www.domain.com.au/801-7-sloane-street-maribyrnong-vic-3032-17753642
17754209,MARIBYRNONG,3032,640,2781.0,"Wednesday, 10 September 2025",2025-09-09,0,2,2,1.0,Apartment / Unit / Flat,7/60 La Scala Avenue,-37.780533,144.89235,2025-09-09 16:41:40,17754209,,11,0,1,False,Apartment,Apartment / Unit / Flat,Thomas Wong Real Estate,18749,Thomas Wong,"Balcony, Deck, Outdoor Entertainment Area, Remote Garage, Dishwasher, Floorboards, Intercom, Reverse Cycle Air Conditioning, Ensuite",https://www.domain.com.au/7-60-la-scala-avenue-maribyrnong-vic-3032-17754209
15361175,MARIBYRNONG,3032,1200,5214.0,"Monday, 23 September 2024",2025-07-24,47,5,3,2.0,House,18 Taylor Avenue,-37.78715,144.8927,2025-09-09 16:41:45,15361175,AA-5880-HA,18,1,1,False,House,House,Raeon International,29064,Terrence Zhao,"Internal Laundry, Shed, Study, Rumpus Room, Floorboards, Built in wardrobes, Bathtub, Gas Appliances, Split System Heating, Split System Air Conditioning, Gas Hot Water, Balcony, Secure Parking, Fully fenced",https://www.domain.com.au/18-taylor-avenue-maribyrnong-vic-3032-15361175
17419346,MARIBYRNONG,3032,650,2824.0,"Wednesday, 15 October 2025",2025-01-31,220,2,2,1.0,Apartment / Unit / Flat,1202/72 Wests Road,-37.769848,144.88235,2025-09-09 16:41:45,17419346,ER-5415-KN,59,0,0,False,Apartment,Apartment / Unit / Flat,RL REAL ESTATE,33047,"Rosemarie Parker, Micca Ramirez","Internal Laundry, Furnished, Heating, Dishwasher, Balcony / Deck, Ensuite",https://www.domain.com.au/1202-72-wests-road-maribyrnong-vic-3032-17419346
17507425,MARIBYRNONG,3032,1100,4780.0,"Tuesday, 01 April 2025",2025-03-31,162,4,2,3.0,House,12 Warrs Road,-37.771336,144.89185,2025-09-09 16:41:45,17507425,EY-4098-GL,15,0,1,False,House,House,Barbounis Real Estate,18129,"Alicia Barbounis, Anthony Barbounis","Built in wardrobes, Secure Parking, Intercom, Bath, Heating, Dishwasher, Study",https://www.domain.com.au/12-warrs-road-maribyrnong-vic-3032-17507425
17526399,MARIBYRNONG,3032,1100,4780.0,"Friday, 11 April 2025",2025-04-11,151,4,2,3.0,House,12 Warrs Road,-37.771336,144.89185,2025-09-09 16:41:45,17526399,EY-4098-GL,13,0,1,False,House,House,BigginScott Moonee Ponds,12394,"Ann Curnow, Sam Barbour","Bath, Heating, Air conditioning, Alarm System, Secure Parking, Intercom, Outdoor Spa, Balcony / Deck, Garden / Courtyard, Built in wardrobes, Dishwasher, Floorboards, Out door entertaining area, Internal Laundry",https://www.domain.com.au/12-warrs-road-maribyrnong-vic-3032-17526399
17640056,MARIBYRNONG,3032,520,2260.0,"Wednesday, 30 July 2025",2025-06-26,75,2,1,1.0,Apartment / Unit / Flat,11/8-10 Clyde Street,-37.768864,144.89938,2025-09-09 16:41:45,17640056,,8,0,1,False,Apartment,Apartment / Unit / Flat,BigginScott Moonee Ponds,12394,"Tasma Bogdanovic, Sam Barbour","Internal Laundry, Built in wardrobes, Dishwasher, Floorboards",https://www.domain.com.au/11-8-10-clyde-street-maribyrnong-vic-3032-17640056
17674738,MARIBYRNONG,3032,395,1716.0,"Wednesday, 16 July 2025",2025-07-18,53,1,1,1.0,Apartment / Unit / Flat,11/35 Newstead Street,-37.765984,144.89713,2025-09-09 16:41:45,17674738,,9,0,1,True,Apartment,Apartment / Unit / Flat,Woodards Ascot Vale,26361,Caterina Italiano,"Bath, Air conditioning, Built in wardrobes",https://www.domain.com.au/11-35-newstead-street-maribyrnong-vic-3032-17674738
17679215,MARIBYRNONG,3032,700,3042.0,"Friday, 15 August 2025",2025-07-22,49,3,2,2.0,Townhouse,29/14 Horizon Drive,-37.77572,144.89307,2025-09-09 16:41:45,17679215,,7,0,0,False,Townhouse/Villa,Townhouse,BigginScott Moonee Ponds,12394,"Ann Curnow, Sam Barbour","Gas, Secure Parking, Bath, Heating, Air conditioning, Balcony / Deck, Built in wardrobes, Internal Laundry",https://www.domain.com.au/29-14-horizon-drive-maribyrnong-vic-3032-17679215
17681477,MARIBYRNONG,3032,580,2520.0,"Friday, 15 August 2025",2025-07-23,48,2,2,1.0,Apartment / Unit / Flat,206/32 La Scala Avenue,-37.78121,144.89354,2025-09-09 16:41:45,17681477,,16,0,0,False,Apartment,Apartment / Unit / Flat,DK Property Partners Melbourne,17655,Nhi Dinh,"Air conditioning, Intercom, Balcony / Deck, Built in wardrobes, Dishwasher",https://www.domain.com.au/206-32-la-scala-avenue-maribyrnong-vic-3032-17681477
17697176,MARIBYRNONG,3032,620,2694.0,"Friday, 15 August 2025",2025-08-01,39,3,1,1.0,House,14 Rowe St,-37.78237,144.88794,2025-09-09 16:41:45,17697176,,7,0,0,False,House,House,Jas Stephens Real Estate,22,Natasha Roman,"Gas, Bath, Dishwasher, Split System Heating, Split System Air Conditioning, Deck, Pets Allowed",https://www.domain.com.au/14-rowe-st-maribyrnong-vic-3032-17697176
17699126,MARIBYRNONG,3032,640,2773.0,"Friday, 08 August 2025",2025-08-04,36,1,1,1.0,Apartment / Unit / Flat,304/82 La Scala Ave,-37.782135,144.89276,2025-09-09 16:41:45,17699126,,7,0,2,False,Apartment,Apartment / Unit / Flat,RentBetter,27499,,"Air conditioning, Alarm System, Balcony / Deck, Built in wardrobes, Dishwasher, Furnished, Heating, Intercom, Pets Allowed, Secure Parking",https://www.domain.com.au/304-82-la-scala-ave-maribyrnong-vic-3032-17699126
17702728,MARIBYRNONG,3032,550,2390.0,"Monday, 11 August 2025",2025-08-06,34,2,1,1.0,Apartment / Unit / Flat,107/32 La Scala Avenue,-37.78121,144.89354,2025-09-09 16:41:45,17702728,,11,1,0,False,Apartment,Apartment / Unit / Flat,MRE,20795,Yujin Park,"Built in wardrobes, Internal Laundry, Intercom, Heating, Balcony / Deck, Car Accom: Carport, Pool/Spa Count: 0",https://www.domain.com.au/107-32-la-scala-avenue-maribyrnong-vic-3032-17702728
17705756,MARIBYRNONG,3032,670,,"Tuesday, 26 August 2025",2025-08-07,33,3,2,1.0,House,44 La Scala Avenue,-37.781017,144.8936,2025-09-09 16:41:45,17705756,,9,0,0,False,House,House,HPG ESTATE AGENTS,34194,"Chloe Hodgson, Erica Garefallou",Balcony / Deck,https://www.domain.com.au/44-la-scala-avenue-maribyrnong-vic-3032-17705756
17708079,MARIBYRNONG,3032,750,3259.0,"Wednesday, 24 September 2025",2025-08-08,31,3,2,2.0,House,8/10 Horizon Drive,-37.77517,144.89255,2025-09-09 16:41:45,17708079,,10,0,1,False,House,House,Woodards Ascot Vale,26361,Luke Pickering,"Built in wardrobes, Internal Laundry, Secure Parking, Heating, Balcony / Deck",https://www.domain.com.au/8-10-horizon-drive-maribyrnong-vic-3032-17708079
17709140,MARIBYRNONG,3032,220,955.0,"Friday, 29 August 2025",2025-08-11,29,1,1,,House,1/133 Raleigh Road,-37.768986,144.88805,2025-09-09 16:41:45,17709140,,3,0,0,False,House,House,Frank Dowling,8167,"Holly Hayward, Reception Frank Dowling","Broadband internet access, Gas Heating, Internal Laundry, Furnished",https://www.domain.com.au/1-133-raleigh-road-maribyrnong-vic-3032-17709140
17714021,MARIBYRNONG,3032,515,2237.0,"Monday, 22 September 2025",2025-08-13,27,2,1,2.0,Apartment / Unit / Flat,218/5 Ordnance Reserve,-37.77057,144.88054,2025-09-09 16:41:45,17714021,,8,0,1,False,Apartment,Apartment / Unit / Flat,Jellis Craig Kensington,20419,"Megan Reddy, Willow Stamp","Internal Laundry, Split System Air Con, Balcony / Deck, Intercom, Built in wardrobes, Dishwasher",https://www.domain.com.au/218-5-ordnance-reserve-maribyrnong-vic-3032-17714021
17723844,MARIBYRNONG,3032,700,3042.0,"Wednesday, 20 August 2025",2025-08-20,20,3,1,2.0,House,11 Navigator Street,-37.76828,144.89781,2025-09-09 16:41:45,17723844,,9,1,1,False,House,House,White Knight Estate Agents,31333,Gia Nguyen,"Gas, Internal Laundry, Study",https://www.domain.com.au/11-navigator-street-maribyrnong-vic-3032-17723844
17724152,MARIBYRNONG,3032,850,3693.0,"Wednesday, 01 October 2025",2025-08-20,20,3,2,2.0,House,1/41 Macedon Street,-37.78054,144.88608,2025-09-09 16:41:45,17724152,,7,0,0,False,House,House,BigginScott Moonee Ponds,12394,"Tasma Bogdanovic, Sam Barbour","Secure Parking, Bath, Heating, Air conditioning, Garden / Courtyard, Dishwasher, Floorboards, Internal Laundry",https://www.domain.com.au/1-41-macedon-street-maribyrnong-vic-3032-17724152
17727285,MARIBYRNONG,3032,500,2173.0,"Monday, 06 October 2025",2025-08-22,18,2,1,1.0,Apartment / Unit / Flat,5/3 Ensign Street,-37.766518,144.90042,2025-09-09 16:41:45,17727285,,9,0,0,False,Apartment,Apartment / Unit / Flat,BigginScott Moonee Ponds,12394,"Robert Bremner, Sam Barbour","Internal Laundry, Air conditioning, Built in wardrobes, Floorboards",https://www.domain.com.au/5-3-ensign-street-maribyrnong-vic-3032-17727285
17733918,MARIBYRNONG,3032,620,2694.0,"Wednesday, 24 September 2025",2025-08-27,13,2,1,1.0,Townhouse,3/9 Warrs Road,-37.77003,144.89291,2025-09-09 16:41:45,17733918,,9,0,0,False,Townhouse/Villa,Townhouse,BigginScott Moonee Ponds,12394,"Robert Bremner, Sam Barbour","Gas, Air conditioning, Garden / Courtyard, Built in wardrobes, Dishwasher, Floorboards",https://www.domain.com.au/3-9-warrs-road-maribyrnong-vic-3032-17733918
17735718,MARIBYRNONG,3032,880,3824.0,"Monday, 08 September 2025",2025-08-27,12,4,2,2.0,Townhouse,17 Adori Place,-37.785477,144.88431,2025-09-09 16:41:45,17735718,,7,0,1,False,Townhouse/Villa,Townhouse,White Knight Estate Agents,31333,Eddy Hsu,Dishwasher,https://www.domain.com.au/17-adori-place-maribyrnong-vic-3032-17735718
16551229,MARIBYRNONG,3032,535,,"Thursday, 06 July 2023",2023-07-06,796,2,2,1.0,Apartment / Unit / Flat,802B/2 Wests Road,-37.773743,144.88165,2025-09-09 16:41:50,16551229,LP-2682-OV,12,0,0,False,Apartment,Apartment / Unit / Flat,Enrich Realty Group,27305,"Enrich Rental Team, Michael Du","Air conditioning, Built in wardrobes, Intercom, Heating, Balcony / Deck",https://www.domain.com.au/802b-2-wests-road-maribyrnong-vic-3032-16551229
