listing_id,suburb,postcode,weekly_rent,bond,available_date,date_listed,days_listed,bedrooms,bathrooms,carspaces,property_type,address,lat,lon,scraped_date,domain_page_id,property_id,photo_count,video_count,floorplans_count,virtual_tour,primary_type,secondary_type,agency,agency_id,agent_names,structured_features,url
17573885,MOUNT CLEAR,3350,450,1950,"Friday, 06 June 2025",2025-05-14,117,4,2,3,House,34 Bradby Avenue,-37.607582,143.87085,2025-09-09 16:24:42,17573885,PY-9971-OS,16,0,1,False,House,House,Ray White Ballarat,11641,Lauren Hodgson,"Pets Allowed, Heating",https://www.domain.com.au/34-bradby-avenue-mount-clear-vic-3350-17573885
17728883,MOUNT CLEAR,3350,430,1863,"Tuesday, 16 September 2025",2025-08-22,17,3,2,2,Apartment / Unit / Flat,1/13 Tinworth Avenue,-37.592022,143.86574,2025-09-09 16:24:42,17728883,,12,0,0,False,Apartment,Apartment / Unit / Flat,Jens Veal Byrne,29442,Julie Robson,"Secure Parking, Heating, Dishwasher, Ensuite",https://www.domain.com.au/1-13-tinworth-avenue-mount-clear-vic-3350-17728883
17732690,MOUNT CLEAR,3350,440,1907,"Friday, 12 September 2025",2025-08-26,14,3,2,1,House,17 Mansfield Avenue,-37.59541,143.86598,2025-09-09 16:24:42,17732690,,17,0,0,False,House,House,PRDnationwide Ballarat,5808,"Beck Phillips, Ange Simpson","Secure Parking, Air conditioning, Built in wardrobes, Internal Laundry, Pets Allowed, Bath, Heating, Dishwasher, Shed, Fully fenced, Garden / Courtyard",https://www.domain.com.au/17-mansfield-avenue-mount-clear-vic-3350-17732690
17744047,MOUNT CLEAR,3350,520,2260,"Tuesday, 02 September 2025",2025-09-02,6,4,2,2,House,36 Trezise Lane,-37.61157,143.87483,2025-09-09 16:24:42,17744047,,12,1,0,False,House,House,Goldfish Real Estate,32614,"Rohit Rishi, Sonia MEHTA, Ballarat Leasing Team","Internal Laundry, Solar panels, Air conditioning, Heating, Built in wardrobes, Close to transport, Close to schools, Ensuite, Car Parking - Surface, Carpeted, Window Treatments",https://www.domain.com.au/36-trezise-lane-mount-clear-vic-3350-17744047
17747559,MOUNT CLEAR,3350,470,2036,"Friday, 05 September 2025",2025-09-04,5,4,2,2,House,24 Lucia Crescent,-37.602665,143.8704,2025-09-09 16:24:42,17747559,,16,0,0,True,House,House,PRDnationwide Ballarat,5808,"Brodie Wightman, Amy Horgan","Secure Parking, Air conditioning, Ensuite, Built in wardrobes, Internal Laundry, Pets Allowed, Bath, Heating, Dishwasher, Fully fenced, Balcony / Deck, Garden / Courtyard, Rainwater storage tank",https://www.domain.com.au/24-lucia-crescent-mount-clear-vic-3350-17747559
17748286,MOUNT CLEAR,3350,500,2172,"Tuesday, 09 September 2025",2025-09-04,4,4,2,2,House,1308 Geelong Road,-37.606388,143.86845,2025-09-09 16:24:42,17748286,,14,0,1,False,House,House,Ballarat Real Estate,13411,"Reynaldo Rilen, Joshua Jones","Heating, Air conditioning, Built in wardrobes, Pets Allowed, Dishwasher, Fully fenced",https://www.domain.com.au/1308-geelong-road-mount-clear-vic-3350-17748286
