listing_id,suburb,postcode,weekly_rent,bond,available_date,date_listed,days_listed,bedrooms,bathrooms,carspaces,property_type,address,lat,lon,scraped_date,domain_page_id,property_id,photo_count,video_count,floorplans_count,virtual_tour,primary_type,secondary_type,agency,agency_id,agent_names,structured_features,url
15343674,ORMOND,3204,450.0,1955,"Monday, 29 September 2025",2024-11-28,285,2,1,1,Apartment / Unit / Flat,7A Parker Street,-37.90359,145.04881,2025-09-09 17:00:35,15343674,,7,0,0,False,Apartment,Apartment / Unit / Flat,Gotham Property,32563,David Passaro,,https://www.domain.com.au/7a-parker-street-ormond-vic-3204-15343674
17155706,ORMOND,3204,390.0,1694,"Friday, 12 September 2025",2025-09-08,1,1,1,1,Apartment / Unit / Flat,15/50 Lillimur Road,-37.899754,145.04218,2025-09-09 17:00:35,17155706,WT-1895-TW,9,0,0,False,Apartment,Apartment / Unit / Flat,Wilson Glen Eira PTY LTD,4518,Stephanie Ongarello,Split System Heating,https://www.domain.com.au/15-50-lillimur-road-ormond-vic-3204-17155706
17165436,ORMOND,3204,1250.0,6250,"Monday, 30 June 2025",2024-08-16,389,4,3,3,Townhouse,666 North Road,-37.904865,145.0452,2025-09-09 17:00:35,17165436,ED-2501-SL,13,0,0,False,Townhouse/Villa,Townhouse,First National Burwood,36821,John Zhang,"Gas, Split System Heating, Split System Air Conditioning",https://www.domain.com.au/666-north-road-ormond-vic-3204-17165436
17293147,ORMOND,3204,700.0,3042,"Saturday, 06 September 2025",2025-09-01,8,2,2,1,Apartment / Unit / Flat,2/7 Ormond Road,-37.903347,145.04514,2025-09-09 17:00:35,17293147,XH-6295-IF,8,0,0,False,Apartment,Apartment / Unit / Flat,Ray White Carnegie,5958,Lachie Whitehead,"Air conditioning, Internal Laundry",https://www.domain.com.au/2-7-ormond-road-ormond-vic-3204-17293147
17609415,ORMOND,3204,1350.0,8100,"Monday, 14 July 2025",2025-07-14,57,3,2,3,House,8 Bevan Street,-37.905403,145.02646,2025-09-09 17:00:35,17609415,,10,0,0,False,House,House,Kay & Burton Bayside,12060,Hudson Keppell,,https://www.domain.com.au/8-bevan-street-ormond-vic-3204-17609415
17648856,ORMOND,3204,900.0,3911,"Friday, 18 July 2025",2025-07-02,69,3,2,1,House,16 Oloughlan St,-37.905262,145.03177,2025-09-09 17:00:35,17648856,,7,0,0,False,House,House,Ray White Bentleigh,38248,Zidan Mulyandi,"Air conditioning, Built in wardrobes, Heating, Dishwasher",https://www.domain.com.au/16-oloughlan-st-ormond-vic-3204-17648856
17701305,ORMOND,3204,990.0,4302,"Friday, 29 August 2025",2025-08-05,35,4,2,2,Townhouse,1/30 Holloway Street,-37.902153,145.04808,2025-09-09 17:00:35,17701305,,6,0,1,False,Townhouse/Villa,Townhouse,Jellis Craig Bentleigh,30117,Daniel Biviano,"Internal Laundry, Secure Parking, Dishwasher, Balcony / Deck",https://www.domain.com.au/1-30-holloway-street-ormond-vic-3204-17701305
17702898,ORMOND,3204,580.0,2521,"Saturday, 16 August 2025",2025-08-06,34,2,1,1,Apartment / Unit / Flat,5/20 Katandra Road,-37.90227,145.04028,2025-09-09 17:00:35,17702898,,6,0,0,False,Apartment,Apartment / Unit / Flat,Beck & Small Property,32041,Bradley Small,"Split System Air Con, Split System Heating, Balcony / Deck, Built in wardrobes, Dishwasher, Secure Parking",https://www.domain.com.au/5-20-katandra-road-ormond-vic-3204-17702898
17707169,ORMOND,3204,480.0,2086,"Saturday, 27 September 2025",2025-08-08,32,2,1,1,Apartment / Unit / Flat,6/630 North Road,-37.9046,145.04333,2025-09-09 17:00:35,17707169,,8,0,0,False,Apartment,Apartment / Unit / Flat,Jellis Craig Bentleigh,30117,Daniel Biviano,"Built in wardrobes, Internal Laundry, Intercom, Heating, Dishwasher, Balcony / Deck",https://www.domain.com.au/6-630-north-road-ormond-vic-3204-17707169
17721786,ORMOND,3204,350.0,1521,"Friday, 12 September 2025",2025-08-19,21,1,1,1,Apartment / Unit / Flat,11/30 Walsh Street,-37.902813,145.0475,2025-09-09 17:00:35,17721786,,5,0,1,False,Apartment,Apartment / Unit / Flat,   Gary Peer,26354,Kellie Finlayson,"Air conditioning, Secure Parking, Intercom, Built in wardrobes",https://www.domain.com.au/11-30-walsh-street-ormond-vic-3204-17721786
17722664,ORMOND,3204,1200.0,5214,"Friday, 29 August 2025",2025-08-19,21,4,3,3,House,380B North Road,-37.9027,145.02786,2025-09-09 17:00:35,17722664,,7,0,0,False,House,House,Ray White Bentleigh,38248,"Lachie Whitehead, Zidan Mulyandi","Built in wardrobes, Heating, Dishwasher",https://www.domain.com.au/380b-north-road-ormond-vic-3204-17722664
17738540,ORMOND,3204,590.0,2564,"Friday, 29 August 2025",2025-08-29,11,2,2,1,Apartment / Unit / Flat,104/19 Lillimur Road,-37.901817,145.04134,2025-09-09 17:00:35,17738540,,6,0,1,False,Apartment,Apartment / Unit / Flat,Buxton Real Estate Brighton,3934,Zarah Baker,,https://www.domain.com.au/104-19-lillimur-road-ormond-vic-3204-17738540
17739890,ORMOND,3204,550.0,2390,"Saturday, 04 October 2025",2025-09-01,8,2,1,1,Apartment / Unit / Flat,14/273 Grange Road,-37.901417,145.04431,2025-09-09 17:00:35,17739890,,7,1,0,False,Apartment,Apartment / Unit / Flat,Ray White Carnegie,5958,Dale Browning,"Internal Laundry, Intercom, Heating, Dishwasher, Air conditioning, Built in wardrobes, Separate Dining Room, Secure Parking, Balcony / Deck",https://www.domain.com.au/14-273-grange-road-ormond-vic-3204-17739890
17742147,ORMOND,3204,1450.0,8700,"Tuesday, 09 September 2025",2025-09-01,7,4,4,2,Townhouse,8B Walnut St,-37.908443,145.04916,2025-09-09 17:00:35,17742147,,9,0,0,False,Townhouse/Villa,Townhouse,    Gary Peer,30997,Zanthea Zanas,"Air conditioning, Alarm System, Secure Parking, Intercom, Balcony / Deck, Garden / Courtyard, Fully fenced, Built in wardrobes, Dishwasher, Floorboards, Gas Heating, Study, Internal Laundry",https://www.domain.com.au/8b-walnut-st-ormond-vic-3204-17742147
17749566,ORMOND,3204,360.0,1564,"Wednesday, 17 September 2025",2025-09-05,4,1,1,1,Apartment / Unit / Flat,7/17 Arnott Street,-37.902946,145.04637,2025-09-09 17:00:35,17749566,,6,0,0,False,Apartment,Apartment / Unit / Flat,   Gary Peer,26354,Tania Crawley,"Air conditioning, Built in wardrobes",https://www.domain.com.au/7-17-arnott-street-ormond-vic-3204-17749566
17750657,ORMOND,3204,495.0,2151,"Thursday, 25 September 2025",2025-09-08,1,2,1,1,Apartment / Unit / Flat,4/22 Ulupna Road,-37.902058,145.04312,2025-09-09 17:00:35,17750657,,10,0,0,False,Apartment,Apartment / Unit / Flat,Buxton Stonnington,122,Cameron  Gibson,"Balcony / Deck, Built in wardrobes",https://www.domain.com.au/4-22-ulupna-road-ormond-vic-3204-17750657
17752407,ORMOND,3204,460.0,1998,"Thursday, 02 October 2025",2025-09-08,0,1,1,1,Apartment / Unit / Flat,106/2 Ulupna Road,-37.903564,145.04283,2025-09-09 17:00:35,17752407,,6,0,1,False,Apartment,Apartment / Unit / Flat,Turnkey Real Estate Group Pty Ltd,37776,Elena Szytow,"Gas, Internal Laundry, Balcony, Remote Garage, Secure Parking, Broadband Internet Available, Built in wardrobes, Dishwasher, Intercom, Split-System Air Conditioning, Split-System Heating",https://www.domain.com.au/106-2-ulupna-road-ormond-vic-3204-17752407
17752555,ORMOND,3204,880.0,3550,"Sunday, 14 September 2025",2025-09-08,0,3,2,2,Townhouse,2/14 Cadby Ave,-37.906837,145.03941,2025-09-09 17:00:35,17752555,,14,0,1,False,Townhouse/Villa,Townhouse,RentBetter,27499,,"Study, Air conditioning, Alarm System, Balcony / Deck, Heating, Secure Parking",https://www.domain.com.au/2-14-cadby-ave-ormond-vic-3204-17752555
17753449,ORMOND,3204,950.0,3996,"Saturday, 20 September 2025",2025-09-09,0,3,3,2,Townhouse,5/14 Cadby Ave,-37.906837,145.03941,2025-09-09 17:00:35,17753449,,14,0,1,False,Townhouse/Villa,Townhouse,RentBetter,27499,,"Internal Laundry, Study, Air conditioning, Alarm System, Balcony / Deck, Built in wardrobes, Dishwasher, Fully fenced, Garden / Courtyard, Secure Parking",https://www.domain.com.au/5-14-cadby-ave-ormond-vic-3204-17753449
17753532,ORMOND,3204,700.0,3042,"Tuesday, 09 September 2025",2025-09-09,0,2,2,1,Apartment / Unit / Flat,103/296 Grange Road,-37.90268,145.0445,2025-09-09 17:00:35,17753532,,7,0,1,False,Apartment,Apartment / Unit / Flat,The Avenue Property Co. Pty Ltd,28108,"Paulina Porras PM, Katherine Lopez","Floorboards, Intercom, Built in wardrobes, Internal Laundry, Heating, Dishwasher, Secure Parking, Balcony / Deck, Basement Carpark, Audio Intercom, CCTV to common areas and entry points, Stone Bench Tops",https://www.domain.com.au/103-296-grange-road-ormond-vic-3204-17753532
17100189,ORMOND,3204,,2107,,2024-07-08,428,2,1,1,Apartment / Unit / Flat,3/5 Walsh Street,-37.903027,145.04697,2025-09-09 17:00:40,17100189,IQ-8753-MC,10,0,0,False,Apartment,Apartment / Unit / Flat,Jellis Craig Bentleigh,30117,Daniel Biviano,"Air conditioning, Built in wardrobes, Internal Laundry, Secure Parking, Intercom, Heating, Dishwasher, Balcony / Deck",https://www.domain.com.au/3-5-walsh-street-ormond-vic-3204-17100189
