listing_id,suburb,postcode,weekly_rent,bond,available_date,date_listed,days_listed,bedrooms,bathrooms,carspaces,property_type,address,lat,lon,scraped_date,domain_page_id,property_id,photo_count,video_count,floorplans_count,virtual_tour,primary_type,secondary_type,agency,agency_id,agent_names,structured_features,url
13513032,POINT COOK,3030,570.0,2477.0,"Wednesday, 01 October 2025",2025-09-08,0,4.0,2.0,2.0,House,8 Lachie Grove,-37.914448,144.78523,2025-09-09 16:57:39,13513032,BP-3120-JU,7,1,1,False,House,House,LITTLE Real Estate Victoria,24974,Jason King,"Car Accom: Double Garage, Heating: Gas Ducted Heating, Cooling: Reverse Cycle Air Conditioning, Kitchen: Open Plan, Cooking: Gas Hotplates and Electric Oven",https://www.domain.com.au/8-lachie-grove-point-cook-vic-3030-13513032
16627396,POINT COOK,3030,620.0,2694.0,"Friday, 03 October 2025",2025-09-08,1,4.0,2.0,2.0,House,42 Murphy Street,-37.89353,144.7121,2025-09-09 16:57:39,16627396,RX-2396-PB,19,0,0,False,House,House,First National Real Estate Lakra,23132,Vivek Rana,"Internal Laundry, Heating, Dishwasher, Balcony / Deck",https://www.domain.com.au/42-murphy-street-point-cook-vic-3030-16627396
17679244,POINT COOK,3030,525.0,2281.0,"Monday, 01 September 2025",2025-07-22,49,4.0,2.0,2.0,House,21 Patchin Street,-37.887203,144.71068,2025-09-09 16:57:39,17679244,,10,0,0,False,House,House,CHN POINT COOK,39308,Alice Foo,"Bath, Heating, Built in wardrobes, Outdoor Entertainment Area, Dishwasher, Remote Garage, Fully fenced, Gas",https://www.domain.com.au/21-patchin-street-point-cook-vic-3030-17679244
17712458,POINT COOK,3030,535.0,2325.0,"Monday, 01 September 2025",2025-08-12,27,4.0,2.0,2.0,House,7 Warunda Parade,-37.91277,144.77061,2025-09-09 16:57:39,17712458,,9,0,1,False,House,House,CHN POINT COOK,39308,Alice Foo,"Gas, Pets Allowed, Secure Parking, Bath, Heating, Dishwasher, Built in wardrobes, Garden / Courtyard",https://www.domain.com.au/7-warunda-parade-point-cook-vic-3030-17712458
17745210,POINT COOK,3030,600.0,2607.0,"Wednesday, 03 September 2025",2025-09-03,6,4.0,2.0,2.0,House,19 Ribbon Close,-37.90151,144.74619,2025-09-09 16:57:39,17745210,,11,0,0,False,House,House,ACE Real Estate,19089,"Sunny Sharma, Neha Sharma","Secure Parking, Heating",https://www.domain.com.au/19-ribbon-close-point-cook-vic-3030-17745210
17750481,POINT COOK,3030,480.0,2086.0,"Monday, 08 September 2025",2025-09-08,1,2.0,2.0,1.0,Townhouse,32/39 Astley Crescent,-37.890484,144.73042,2025-09-09 16:57:39,17750481,,9,0,0,False,Townhouse/Villa,Townhouse,Barry Plant Point Cook,11213,Simon Khouri,"Secure Parking, Heating, Dishwasher, Study",https://www.domain.com.au/32-39-astley-crescent-point-cook-vic-3030-17750481
17750496,POINT COOK,3030,700.0,3042.0,"Monday, 06 October 2025",2025-09-08,1,4.0,2.0,2.0,House,58 Seafarer Way,-37.895546,144.77791,2025-09-09 16:57:39,17750496,,17,0,0,False,House,House,Areal Property - Box Hill,33000,Rayna Hao,"Study, Secure Parking, Garden / Courtyard, Fully fenced, Built in wardrobes, Dishwasher, Gas Heating, Out door entertaining area, Internal Laundry",https://www.domain.com.au/58-seafarer-way-point-cook-vic-3030-17750496
17750596,POINT COOK,3030,620.0,2695.0,"Friday, 03 October 2025",2025-09-08,1,4.0,2.0,2.0,House,39 Constantine Drive,-37.91316,144.75014,2025-09-09 16:57:39,17750596,,15,0,1,False,House,House,Area Specialist Wyndham,34164,Nikki Suhalka,"Secure Parking, Balcony / Deck",https://www.domain.com.au/39-constantine-drive-point-cook-vic-3030-17750596
17750968,POINT COOK,3030,575.0,2499.0,"Monday, 08 September 2025",2025-09-08,1,4.0,2.0,2.0,House,47 Copeland Crescent,-37.88173,144.7454,2025-09-09 16:57:39,17750968,,15,0,0,False,House,House,CHN POINT COOK,39308,Alice Foo,"Gas, Bath, Solar panels, Air conditioning, Broadband internet access, Built in wardrobes, Balcony / Deck, Dishwasher, Floorboards, Remote Garage, Secure Parking, Shed",https://www.domain.com.au/47-copeland-crescent-point-cook-vic-3030-17750968
17751007,POINT COOK,3030,550.0,2390.0,"Wednesday, 01 October 2025",2025-09-08,1,3.0,2.0,2.0,House,6 Earth Street,-37.899708,144.73206,2025-09-09 16:57:39,17751007,,8,0,0,False,House,House,One Agency Property Partners,36088,Evangelina Chain,"Built in wardrobes, Secure Parking, Bath, Heating, Dishwasher",https://www.domain.com.au/6-earth-street-point-cook-vic-3030-17751007
17751247,POINT COOK,3030,620.0,2694.0,"Friday, 17 October 2025",2025-09-08,1,4.0,2.0,2.0,House,8 Fremantle Close,-37.88327,144.72609,2025-09-09 16:57:39,17751247,,17,0,0,False,House,House,hockingstuart Wyndham City,16107,"Samantha Holt, Jessica Tong",Shed,https://www.domain.com.au/8-fremantle-close-point-cook-vic-3030-17751247
17751280,POINT COOK,3030,560.0,2434.0,"Friday, 26 September 2025",2025-09-08,1,4.0,2.0,2.0,House,3 Solitude Crescent,-37.90713,144.72305,2025-09-09 16:57:39,17751280,,13,0,0,False,House,House,VICPROP Point Cook and Williams Landing,33528,"Lisha Wen, Leasing Team Vicprop","Internal Laundry, Secure Parking, Heating, Balcony / Deck",https://www.domain.com.au/3-solitude-crescent-point-cook-vic-3030-17751280
17751442,POINT COOK,3030,480.0,2086.0,"Tuesday, 23 September 2025",2025-09-08,1,2.0,2.0,2.0,House,2/5 Tom Roberts Parade,-37.893787,144.7301,2025-09-09 16:57:39,17751442,,9,0,0,False,House,House,LJ Hooker Property Point,22180,"Dema Haddad, Nathan Long",,https://www.domain.com.au/2-5-tom-roberts-parade-point-cook-vic-3030-17751442
17752104,POINT COOK,3030,590.0,2564.0,"Monday, 08 September 2025",2025-09-08,1,4.0,2.0,2.0,House,7 Applebox Circuit,-37.90754,144.72942,2025-09-09 16:57:39,17752104,,21,0,1,False,House,House,YPA Point Cook,37940,"Milan Gahlyan, Happy Lather","Secure Parking, Heating",https://www.domain.com.au/7-applebox-circuit-point-cook-vic-3030-17752104
17752703,POINT COOK,3030,560.0,2434.0,"Saturday, 13 September 2025",2025-09-09,0,4.0,2.0,2.0,House,57 Barnstormer Boulevard,-37.898464,144.72267,2025-09-09 16:57:39,17752703,,5,0,0,False,House,House,Reliance Real Estate Point Cook,26805,"Zelda Van Rensburg, Deolinda Moreira","Air conditioning, Secure Parking, Heating, Dishwasher, Study",https://www.domain.com.au/57-barnstormer-boulevard-point-cook-vic-3030-17752703
17752978,POINT COOK,3030,570.0,2477.0,"Friday, 10 October 2025",2025-09-09,0,4.0,2.0,2.0,House,35 Seagrass Crescent,-37.908375,144.71689,2025-09-09 16:57:39,17752978,,17,0,0,False,House,House,Barry Plant Point Cook,11213,Simon Khouri,"Air conditioning, Built in wardrobes, Gas, Internal Laundry, Secure Parking, Heating, Dishwasher, Fully fenced",https://www.domain.com.au/35-seagrass-crescent-point-cook-vic-3030-17752978
17753160,POINT COOK,3030,600.0,2608.0,"Monday, 06 October 2025",2025-09-09,0,3.0,2.0,2.0,House,12 Feather Place,-37.898205,144.73215,2025-09-09 16:57:39,17753160,,14,0,0,False,House,House,REMAX ACPA,34510,Camila Jing,"Built in wardrobes, Secure Parking, Heating, Solar hot water, Solar panels",https://www.domain.com.au/12-feather-place-point-cook-vic-3030-17753160
17753341,POINT COOK,3030,630.0,,"Monday, 01 September 2025",2025-09-09,0,4.0,2.0,,House,7 Tropic Circuit,-37.906357,144.73656,2025-09-09 16:57:39,17753341,,17,0,0,False,House,House,Agents'Agency Network Partners,11919,Lovejit Malhi,"Gas, Secure Parking, Heating, Study, Solar panels, Ensuite",https://www.domain.com.au/7-tropic-circuit-point-cook-vic-3030-17753341
17753737,POINT COOK,3030,600.0,2607.0,"Friday, 17 October 2025",2025-09-09,0,4.0,2.0,2.0,House,18 Kirami Avenue,-37.902145,144.72264,2025-09-09 16:57:39,17753737,,10,0,0,False,House,House,Century 21 Point Cook - Williams Landing,24931,"James Kum, Ranjila Gounder","Heating, Dishwasher, Solar panels",https://www.domain.com.au/18-kirami-avenue-point-cook-vic-3030-17753737
17754051,POINT COOK,3030,600.0,2607.0,"Friday, 10 October 2025",2025-09-09,0,4.0,2.0,2.0,House,103 Tristania Drive,-37.905487,144.76186,2025-09-09 16:57:39,17754051,,11,0,0,False,House,House,Barry Plant Point Cook,11213,Simon Khouri,"Internal Laundry, Secure Parking, Heating",https://www.domain.com.au/103-tristania-drive-point-cook-vic-3030-17754051
15312420,POINT COOK,3030,495.0,2151.0,"Monday, 28 July 2025",2025-06-12,89,4.0,2.0,2.0,House,11 Michael Place,-37.90174,144.73105,2025-09-09 16:57:45,15312420,ZK-5287-YQ,7,1,0,False,House,House,Harcourts Point Cook,20054,Solene Para,"Broadband internet access, Heating, Solar panels, Balcony / Deck, Air conditioning, Built in wardrobes, Separate Dining Room, Secure Parking",https://www.domain.com.au/11-michael-place-point-cook-vic-3030-15312420
15391720,POINT COOK,3030,550.0,2390.0,"Thursday, 18 September 2025",2025-08-28,12,3.0,2.0,2.0,Townhouse,4 Lyra Walk,-37.909252,144.75063,2025-09-09 16:57:45,15391720,OL-6209-KF,17,0,0,False,Townhouse/Villa,Townhouse,Harcourts Point Cook,20054,Solene Para,"Internal Laundry, Secure Parking, Bath, Heating, Dishwasher",https://www.domain.com.au/4-lyra-walk-point-cook-vic-3030-15391720
15567485,POINT COOK,3030,520.0,2260.0,"Monday, 29 September 2025",2025-09-02,7,4.0,2.0,2.0,House,64 Postema Drive,-37.915485,144.76604,2025-09-09 16:57:45,15567485,QN-2193-SZ,11,0,0,False,House,House,ACE Real Estate,19089,"Riya Sharma, Ajitesh Arora","Secure Parking, Heating, Dishwasher",https://www.domain.com.au/64-postema-drive-point-cook-vic-3030-15567485
16463834,POINT COOK,3030,630.0,2738.0,"Friday, 05 September 2025",2025-08-19,21,4.0,2.0,2.0,House,33 Juniper Avenue,-37.88848,144.7382,2025-09-09 16:57:45,16463834,FK-5977-KU,18,0,0,False,House,House,Harcourts Point Cook,20054,Solene Para,"Dishwasher, Air conditioning, Ensuite, Alarm System, Built in wardrobes, Secure Parking, Study",https://www.domain.com.au/33-juniper-avenue-point-cook-vic-3030-16463834
17199540,POINT COOK,3030,600.0,2607.0,"Monday, 29 September 2025",2025-08-20,20,4.0,2.0,2.0,House,4 Midlothian Ct,-37.88213,144.74792,2025-09-09 16:57:45,17199540,RA-3876-NY,18,0,0,False,House,House,Pine Crest Real Estate,35920,"Vijeta Kamboj, Taran Arora","Secure Parking, Heating, Ensuite",https://www.domain.com.au/4-midlothian-ct-point-cook-vic-3030-17199540
17479079,POINT COOK,3030,530.0,2303.0,"Monday, 15 September 2025",2025-09-03,6,4.0,2.0,2.0,House,11 Patchin Street,-37.886887,144.71132,2025-09-09 16:57:45,17479079,DU-6528-PW,17,0,0,False,House,House,iCare Property Pty Ltd,36127,"Anji Tao, Bobby Sung","Alarm System, Floorboards, Built in wardrobes, Dishwasher, Outdoor Entertainment Area, Remote Garage, Secure Parking",https://www.domain.com.au/11-patchin-street-point-cook-vic-3030-17479079
17479080,POINT COOK,3030,530.0,2303.0,"Monday, 15 September 2025",2025-09-03,6,4.0,2.0,2.0,House,11 Patchin Street,-37.886887,144.71132,2025-09-09 16:57:45,17479080,DU-6528-PW,17,0,0,False,House,House,ICARE Real Estate,37850,"Anji Tao, Bobby Sung","Alarm System, Floorboards, Built in wardrobes, Dishwasher, Outdoor Entertainment Area, Remote Garage, Secure Parking",https://www.domain.com.au/11-patchin-street-point-cook-vic-3030-17479080
17664425,POINT COOK,3030,520.0,2260.0,"Friday, 11 July 2025",2025-07-11,60,4.0,2.0,2.0,House,14 Everly Way,-37.90895,144.7703,2025-09-09 16:57:45,17664425,,13,0,1,False,House,House,P Di Natale Real Estate,15264,Taleah Donnelly,"Remote Garage, Built in wardrobes, Dishwasher, Ducted Heating, Evaporative Cooling",https://www.domain.com.au/14-everly-way-point-cook-vic-3030-17664425
17698179,POINT COOK,3030,555.0,2412.0,"Friday, 01 August 2025",2025-08-04,36,4.0,2.0,2.0,House,18 Spinifex Street,-37.908768,144.725,2025-09-09 16:57:45,17698179,,29,0,0,False,House,House,Alliance Estate Agents Wyndham,34960,"Simon Dangol, Durga Acharya","Fully fenced, Remote Garage, Alarm System, Built in wardrobes, Dishwasher, Air conditioning, Ducted Heating, Evaporative Cooling, Ensuite",https://www.domain.com.au/18-spinifex-street-point-cook-vic-3030-17698179
17714084,POINT COOK,3030,520.0,2253.0,"Saturday, 23 August 2025",2025-08-13,27,3.0,2.0,1.0,House,51 Shaftsbury Boulevard,-37.888733,144.74629,2025-09-09 16:57:45,17714084,,9,0,0,False,House,House,The Eleet Wyndham City,32072,"Eleet Property Leasing, Nisha Rani","Built in wardrobes, Secure Parking, Broadband internet access",https://www.domain.com.au/51-shaftsbury-boulevard-point-cook-vic-3030-17714084
17718452,POINT COOK,3030,570.0,2476.0,"Monday, 01 September 2025",2025-08-15,24,4.0,2.0,2.0,House,172 Haze Drive,-37.90788,144.76634,2025-09-09 16:57:45,17718452,,10,0,0,False,House,House,The Roof Real Estate,36733,Rita Sehgal,"Secure Parking, Heating",https://www.domain.com.au/172-haze-drive-point-cook-vic-3030-17718452
17719829,POINT COOK,3030,525.0,2281.0,"Monday, 18 August 2025",2025-08-18,22,4.0,2.0,2.0,House,24 Cordata Road,-37.906097,144.72818,2025-09-09 16:57:45,17719829,,11,0,1,False,House,House,Sweeney Estate Agents Caroline Springs,7932,Diana Simic,"Gas, Secure Parking, Dishwasher",https://www.domain.com.au/24-cordata-road-point-cook-vic-3030-17719829
17722303,POINT COOK,3030,595.0,2585.0,"Monday, 15 September 2025",2025-08-19,21,4.0,2.0,2.0,House,74 Bruckner Drive,-37.89647,144.71097,2025-09-09 16:57:45,17722303,,9,0,0,False,House,House,Jellis Craig Inner West,19574,Sala Liku,"Built in wardrobes, Balcony / Deck, Dishwasher, Ducted Cooling, Ducted Heating, Floorboards, Fully fenced, Remote Garage",https://www.domain.com.au/74-bruckner-drive-point-cook-vic-3030-17722303
17726598,POINT COOK,3030,570.0,2470.0,"Thursday, 21 August 2025",2025-08-21,19,4.0,2.0,2.0,House,7 Capital Way,-37.909412,144.73244,2025-09-09 16:57:45,17726598,,17,0,0,False,House,House,The Eleet Wyndham City,32072,Eleet Property Leasing,"Internal Laundry, Secure Parking, Heating, Dishwasher, Ensuite",https://www.domain.com.au/7-capital-way-point-cook-vic-3030-17726598
17727994,POINT COOK,3030,550.0,2390.0,"Friday, 22 August 2025",2025-08-22,18,3.0,2.0,1.0,House,6 Nostrand Walk,-37.88405,144.71342,2025-09-09 16:57:45,17727994,,10,0,0,False,House,House,P Di Natale Real Estate,15264,Anthony Amanatidis,"Built in wardrobes, Split-System Air Conditioning",https://www.domain.com.au/6-nostrand-walk-point-cook-vic-3030-17727994
17733927,POINT COOK,3030,550.0,2390.0,"Friday, 29 August 2025",2025-08-27,13,4.0,2.0,2.0,House,7 Airfield Grove,-37.89952,144.7185,2025-09-09 16:57:45,17733927,,14,0,0,False,House,House,Harcourts Point Cook,20054,Solene Para,"Built in wardrobes, Internal Laundry, Secure Parking, Heating, Balcony / Deck",https://www.domain.com.au/7-airfield-grove-point-cook-vic-3030-17733927
17735008,POINT COOK,3030,550.0,2390.0,"Wednesday, 27 August 2025",2025-08-27,13,4.0,2.0,2.0,House,11 Shiraz Crescent,-37.912064,144.77777,2025-09-09 16:57:45,17735008,,16,1,0,False,House,House,Harcourts Point Cook,20054,Solene Para,"Heating, Dishwasher, Air conditioning, Alarm System, Built in wardrobes, Separate Dining Room, Secure Parking",https://www.domain.com.au/11-shiraz-crescent-point-cook-vic-3030-17735008
17742144,POINT COOK,3030,580.0,2520.0,"Tuesday, 02 September 2025",2025-09-01,7,4.0,2.0,2.0,House,141 Citybay Drive,-37.90791,144.77869,2025-09-09 16:57:45,17742144,,12,0,1,False,House,House,Ausky Group,20742,"Vivi Liana, Leanna Li","Internal Laundry, Secure Parking, Solar panels, Built in wardrobes, Dishwasher, Ducted Heating, Furnished",https://www.domain.com.au/141-citybay-drive-point-cook-vic-3030-17742144
17749514,POINT COOK,3030,550.0,2390.0,"Monday, 08 September 2025",2025-09-05,4,4.0,2.0,2.0,House,23 Selleck Drive,-37.906948,144.77193,2025-09-09 16:57:45,17749514,,10,0,1,False,House,House,P Di Natale Real Estate,15264,Bianca Lixon,"Remote Garage, Built in wardrobes, Dishwasher, Ducted Cooling, Ducted Heating",https://www.domain.com.au/23-selleck-drive-point-cook-vic-3030-17749514
17750002,POINT COOK,3030,510.0,2216.0,"Monday, 22 September 2025",2025-09-05,3,4.0,2.0,2.0,House,44 Tom Roberts Parade,-37.893246,144.7292,2025-09-09 16:57:45,17750002,,18,0,0,False,House,House,Ray White Point Cook,29063,"Palak Grover, Makayla Hurinui","Secure Parking, Heating",https://www.domain.com.au/44-tom-roberts-parade-point-cook-vic-3030-17750002
15018539,POINT COOK,3030,670.0,2911.0,"Friday, 12 September 2025",2025-08-27,13,4.0,2.0,2.0,House,5 Yaramba Boulevard,-37.88405,144.72137,2025-09-09 16:57:49,15018539,NO-9331-AP,28,0,1,False,House,House,Stockdale & Leggo Laverton / Altona / Point Cook,27481,SUNNY KUMAR,"Internal Laundry, Secure Parking, Solar panels, Ensuite",https://www.domain.com.au/5-yaramba-boulevard-point-cook-vic-3030-15018539
15587987,POINT COOK,3030,505.0,2194.0,"Monday, 08 September 2025",2025-09-03,6,3.0,2.0,1.0,House,21 Lancaster Drive,-37.8781,144.74,2025-09-09 16:57:49,15587987,HF-1649-TS,13,0,0,False,House,House,First National Real Estate Lakra,23132,Vivek Rana,"Internal Laundry, Heating, Dishwasher",https://www.domain.com.au/21-lancaster-drive-point-cook-vic-3030-15587987
15773605,POINT COOK,3030,520.0,2260.0,"Friday, 05 September 2025",2025-08-12,28,4.0,2.0,2.0,House,186 Saltwater Promenade,-37.910965,144.77339,2025-09-09 16:57:49,15773605,MA-1038-VO,19,0,1,False,House,House,Stockdale & Leggo Laverton / Altona / Point Cook,27481,SUNNY KUMAR,"Internal Laundry, Secure Parking, Heating",https://www.domain.com.au/186-saltwater-promenade-point-cook-vic-3030-15773605
15851588,POINT COOK,3030,500.0,2173.0,"Thursday, 04 September 2025",2025-08-12,28,3.0,2.0,2.0,House,11 Tanner Mews,-37.891945,144.73009,2025-09-09 16:57:49,15851588,UM-8500-SS,14,0,0,False,House,House,"Sweeney Altona, Altona Meadows & Altona North",81,Sweeney Rentals,"Built in wardrobes, Internal Laundry, Heating, Dishwasher",https://www.domain.com.au/11-tanner-mews-point-cook-vic-3030-15851588
16864525,POINT COOK,3030,540.0,2347.0,"Friday, 03 October 2025",2025-09-03,6,4.0,2.0,2.0,House,8 Horace Street,-37.882996,144.71414,2025-09-09 16:57:49,16864525,OT-7693-WI,13,0,0,False,House,House,VICPROP Point Cook and Williams Landing,33528,"Lisha Wen, Leasing Team Vicprop","Secure Parking, Heating",https://www.domain.com.au/8-horace-street-point-cook-vic-3030-16864525
17062480,POINT COOK,3030,465.0,2021.0,"Friday, 22 August 2025",2025-07-25,46,2.0,2.0,2.0,Apartment / Unit / Flat,1/19 Tom Roberts Parade,-37.893776,144.7301,2025-09-09 16:57:49,17062480,SP-7886-JQ,25,0,1,False,Apartment,Apartment / Unit / Flat,Stockdale & Leggo Laverton / Altona / Point Cook,27481,SUNNY KUMAR,"Secure Parking, Heating, Ensuite",https://www.domain.com.au/1-19-tom-roberts-parade-point-cook-vic-3030-17062480
17708858,POINT COOK,3030,570.0,2477.0,"Monday, 15 September 2025",2025-08-11,29,4.0,2.0,2.0,House,20 Seagrass Crescent,-37.90865,144.71571,2025-09-09 16:57:49,17708858,,15,0,0,False,House,House,Gold Key Real Estate Pty Ltd,30182,"Paul Sharma, Rosie Mudhar","Outdoor Entertainment Area, Remote Garage, Built in wardrobes, Dishwasher, Floorboards, Air conditioning, Ducted Heating, Solar panels, Ensuite",https://www.domain.com.au/20-seagrass-crescent-point-cook-vic-3030-17708858
17744675,POINT COOK,3030,535.0,2325.0,"Wednesday, 24 September 2025",2025-09-03,6,3.0,2.0,2.0,House,41 Whisper Boulevard,-37.901745,144.73051,2025-09-09 16:57:49,17744675,,7,0,0,False,House,House,Everywhere Real Estate,34518,Rentals Department,"Broadband internet access, Shed, Alarm System, Floorboards, Built in wardrobes, Dishwasher, Bathtub, Gas Appliances, Ducted Heating, Split System Air Conditioning, Ensuite(s), Outdoor Entertainment Area, Deck, Remote Garage, Secure Parking, Fully fenced, Pets Allowed",https://www.domain.com.au/41-whisper-boulevard-point-cook-vic-3030-17744675
17744676,POINT COOK,3030,535.0,2325.0,"Wednesday, 24 September 2025",2025-09-03,6,3.0,2.0,2.0,House,41 Whisper Boulevard,-37.901745,144.73051,2025-09-09 16:57:49,17744676,,7,0,0,False,House,House,Everywhere Real Estate. – Metro,20243,Rentals Department,"Broadband internet access, Shed, Alarm System, Floorboards, Built in wardrobes, Dishwasher, Bathtub, Gas Appliances, Ducted Heating, Split System Air Conditioning, Ensuite(s), Outdoor Entertainment Area, Deck, Remote Garage, Secure Parking, Fully fenced, Pets Allowed",https://www.domain.com.au/41-whisper-boulevard-point-cook-vic-3030-17744676
17745251,POINT COOK,3030,550.0,2390.0,"Wednesday, 01 October 2025",2025-09-03,6,3.0,2.0,2.0,House,180 Waterhaven Boulevard,-37.875195,144.73376,2025-09-09 16:57:49,17745251,,8,0,0,False,House,House,.established Property,4979,Established Property Leasing,"Internal Laundry, Secure Parking, Heating, Dishwasher, Study",https://www.domain.com.au/180-waterhaven-boulevard-point-cook-vic-3030-17745251
17745258,POINT COOK,3030,475.0,2064.0,"Friday, 19 September 2025",2025-09-03,6,2.0,2.0,2.0,Apartment / Unit / Flat,1/15 Tom Roberts Parade,-37.893787,144.7301,2025-09-09 16:57:49,17745258,,13,0,0,False,Apartment,Apartment / Unit / Flat,MRE,20795,Lara Nicholson,"Heating, Car Accom: Carport, Pool/Spa Count: 0",https://www.domain.com.au/1-15-tom-roberts-parade-point-cook-vic-3030-17745258
17745444,POINT COOK,3030,550.0,2390.0,"Thursday, 25 September 2025",2025-09-03,6,3.0,2.0,2.0,House,42 Flagship Way,-37.90844,144.71927,2025-09-09 16:57:49,17745444,,6,0,0,False,House,House,LJ Hooker Property Point,22180,"Dema Haddad, Nathan Long","Built in wardrobes, Gas, Internal Laundry, Secure Parking, Heating, Dishwasher",https://www.domain.com.au/42-flagship-way-point-cook-vic-3030-17745444
17745680,POINT COOK,3030,615.0,,"Saturday, 04 October 2025",2025-09-03,6,4.0,2.0,2.0,House,25 Whitecaps Avenue,-37.908558,144.73547,2025-09-09 16:57:49,17745680,,15,1,1,False,House,House,Agents'Agency Network Partners,11919,Lovejit Malhi,"Secure Parking, Ensuite",https://www.domain.com.au/25-whitecaps-avenue-point-cook-vic-3030-17745680
17745727,POINT COOK,3030,720.0,,"Monday, 01 September 2025",2025-09-03,6,4.0,2.0,2.0,House,12 Willowherb Way,-37.910923,144.72688,2025-09-09 16:57:49,17745727,,22,1,0,False,House,House,Agents'Agency Network Partners,11919,Lovejit Malhi,"Secure Parking, Broadband internet access, Heating, Dishwasher, Balcony / Deck",https://www.domain.com.au/12-willowherb-way-point-cook-vic-3030-17745727
17746028,POINT COOK,3030,550.0,2390.0,"Monday, 22 September 2025",2025-09-03,6,3.0,2.0,2.0,House,63 Malibu Boulevard,-37.90454,144.73718,2025-09-09 16:57:49,17746028,,1,0,0,False,House,House,Reliance Real Estate Point Cook,26805,"Zelda Van Rensburg, Rosabella Chan, Yash Shaw","Heating, Dishwasher",https://www.domain.com.au/63-malibu-boulevard-point-cook-vic-3030-17746028
17746055,POINT COOK,3030,600.0,2607.0,"Thursday, 05 October 2023",2025-09-03,6,4.0,2.0,2.0,House,27 Constantine Drive,-37.91224,144.7504,2025-09-09 16:57:49,17746055,,13,0,0,False,House,House,Engage Real Estate,36137,Engage Leasing Team,"Internal Laundry, Secure Parking, Heating, Air conditioning, Built in wardrobes, Close to transport, Close to shops, Close to schools, Ensuite, Carpeted, Exhaust, Broadband Internet Available, Dishwasher",https://www.domain.com.au/27-constantine-drive-point-cook-vic-3030-17746055
17746116,POINT COOK,3030,480.0,2086.0,"Wednesday, 10 September 2025",2025-09-03,6,3.0,2.0,1.0,House,55 Shaftsbury Boulevard,-37.888657,144.74603,2025-09-09 16:57:49,17746116,,5,0,0,False,House,House,LJ Hooker Property Point,22180,"Dema Haddad, Nathan Long","Internal Laundry, Secure Parking, Heating, Ensuite",https://www.domain.com.au/55-shaftsbury-boulevard-point-cook-vic-3030-17746116
17746587,POINT COOK,3030,650.0,2824.0,"Friday, 12 September 2025",2025-09-04,5,4.0,2.0,2.0,House,110 Haze Drive,-37.908405,144.77083,2025-09-09 16:57:49,17746587,,28,0,1,False,House,House,Everywhere Real Estate. – Metro,20243,Rentals Department,"Internal Laundry, Gym, Alarm System, Rumpus Room, Built in wardrobes, Dishwasher, Bathtub, Gas Appliances, Ducted Heating, Evaporative Cooling, Ensuite(s), Outdoor Entertainment Area, Balcony, Tennis Court, Remote Garage, Secure Parking, Fully fenced, Pets Allowed",https://www.domain.com.au/110-haze-drive-point-cook-vic-3030-17746587
17746588,POINT COOK,3030,650.0,2824.0,"Friday, 12 September 2025",2025-09-04,5,4.0,2.0,2.0,House,110 Haze Drive,-37.908405,144.77083,2025-09-09 16:57:49,17746588,,28,0,1,False,House,House,Everywhere Real Estate,34518,Rentals Department,"Internal Laundry, Gym, Alarm System, Rumpus Room, Built in wardrobes, Dishwasher, Bathtub, Gas Appliances, Ducted Heating, Evaporative Cooling, Ensuite(s), Outdoor Entertainment Area, Balcony, Tennis Court, Remote Garage, Secure Parking, Fully fenced, Pets Allowed",https://www.domain.com.au/110-haze-drive-point-cook-vic-3030-17746588
17746803,POINT COOK,3030,590.0,2564.0,"Thursday, 04 September 2025",2025-09-04,5,4.0,2.0,2.0,House,45 Kirkstone Road,-37.89245,144.75127,2025-09-09 16:57:49,17746803,,12,0,0,False,House,House,Barry Plant Point Cook,11213,Simon Khouri,"Secure Parking, Heating, Dishwasher",https://www.domain.com.au/45-kirkstone-road-point-cook-vic-3030-17746803
15315045,POINT COOK,3030,550.0,2390.0,"Friday, 26 September 2025",2025-09-02,7,4.0,2.0,2.0,House,4 Aldinga Avenue,-37.915787,144.78734,2025-09-09 16:57:54,15315045,PU-1913-JT,18,1,1,True,House,House,Everywhere Real Estate. – Metro,20243,Rentals Department,"Gym, Study, Alarm System, Rumpus Room, Built in wardrobes, Dishwasher, Broadband, Bathtub, Gas Appliances, Ducted Heating, Evaporative Cooling, Ensuite(s), Outdoor Entertainment Area, Tennis Court, Remote Garage, Secure Parking, Fully fenced, Pets Allowed, LIFESTYLE CENTRE ACCESS providing access to
- Swimming Pool
- Tennis Courts
- Gym
- Function Rooms",https://www.domain.com.au/4-aldinga-avenue-point-cook-vic-3030-15315045
16126619,POINT COOK,3030,550.0,2390.0,"Friday, 19 September 2025",2025-09-02,7,4.0,2.0,2.0,House,121 Bensonhurst Parade,-37.882404,144.71127,2025-09-09 16:57:54,16126619,AW-6109-WJ,17,0,1,False,House,House,Everywhere Real Estate. – Metro,20243,Rentals Department,"Alarm System, Built in wardrobes, Dishwasher, Broadband, Bathtub, Gas Appliances, Ducted Heating, Evaporative Cooling, Ensuite(s), Outdoor Entertainment Area, Remote Garage, Secure Parking, Fully fenced, Pets Allowed",https://www.domain.com.au/121-bensonhurst-parade-point-cook-vic-3030-16126619
17404385,POINT COOK,3030,595.0,2585.0,"Monday, 29 September 2025",2025-09-01,8,4.0,2.0,2.0,House,4 Elkhorn Way,-37.90798,144.74962,2025-09-09 16:57:54,17404385,FV-1330-HT,12,0,0,False,House,House,Everywhere Real Estate,34518,Rentals Department,"Internal Laundry, Study, Built in wardrobes, Dishwasher, Broadband, Bathtub, Ducted Heating, Split System Air Conditioning, Ensuite(s), Outdoor Entertainment Area, Remote Garage, Secure Parking, Fully fenced, Pets Allowed",https://www.domain.com.au/4-elkhorn-way-point-cook-vic-3030-17404385
17722430,POINT COOK,3030,590.0,2564.0,"Monday, 25 August 2025",2025-08-19,21,4.0,2.0,2.0,House,18 Moorgate Street,-37.88339,144.72522,2025-09-09 16:57:54,17722430,,13,0,0,False,House,House,First National Real Estate Lakra,23132,Vivek Rana,"Built in wardrobes, Secure Parking, Heating, Study, Solar panels",https://www.domain.com.au/18-moorgate-street-point-cook-vic-3030-17722430
17727846,POINT COOK,3030,560.0,2433.0,"Friday, 22 August 2025",2025-08-22,18,4.0,2.0,2.0,House,8 Windrest Way,-37.899567,144.72585,2025-09-09 16:57:54,17727846,,14,0,1,False,House,House,LJ Hooker Property Point,22180,"Dema Haddad, Nathan Long","Internal Laundry, Secure Parking, Dishwasher, Ensuite",https://www.domain.com.au/8-windrest-way-point-cook-vic-3030-17727846
17741027,POINT COOK,3030,540.0,2346.0,"Monday, 22 September 2025",2025-09-01,8,4.0,2.0,2.0,House,55 Solitude Crescent,-37.905132,144.72081,2025-09-09 16:57:54,17741027,,8,0,0,False,House,House,.established Property,4979,Established Property Leasing,"Heating, Dishwasher",https://www.domain.com.au/55-solitude-crescent-point-cook-vic-3030-17741027
17741460,POINT COOK,3030,550.0,2390.0,"Monday, 01 September 2025",2025-09-01,8,4.0,2.0,2.0,House,1 Tamar Avenue,-37.881615,144.72287,2025-09-09 16:57:54,17741460,,10,0,0,False,House,House,Banksia Property Agency,35065,"Deepali Bharadwaj, Thao Vu","Built in wardrobes, Dishwasher, Bathtub, Gas Appliances, Ducted Heating, Evaporative Cooling, Gas Hot Water, Ensuite(s), Remote Garage, Secure Parking, Fully fenced",https://www.domain.com.au/1-tamar-avenue-point-cook-vic-3030-17741460
17741645,POINT COOK,3030,700.0,3042.0,"Wednesday, 22 October 2025",2025-09-01,8,4.0,2.0,2.0,House,3 Riverglades Drive,-37.888737,144.77142,2025-09-09 16:57:54,17741645,,21,0,0,False,House,House,.established Property,4979,Established Property Leasing,"Built in wardrobes, Secure Parking, Heating, Study, Solar panels, Balcony / Deck",https://www.domain.com.au/3-riverglades-drive-point-cook-vic-3030-17741645
17741725,POINT COOK,3030,540.0,2346.0,"Monday, 06 October 2025",2025-09-01,8,3.0,2.0,2.0,House,10 Sidney Nolan Walk,-37.89331,144.73314,2025-09-09 16:57:54,17741725,,8,0,0,False,House,House,.established Property,4979,Established Property Leasing,"Internal Laundry, Secure Parking, Heating",https://www.domain.com.au/10-sidney-nolan-walk-point-cook-vic-3030-17741725
17741885,POINT COOK,3030,660.0,2868.0,"Tuesday, 16 September 2025",2025-09-01,8,4.0,2.0,2.0,House,21 Alverton Drive,-37.912563,144.7473,2025-09-09 16:57:54,17741885,,8,0,0,False,House,House,.established Property,4979,Established Property Leasing,"Built in wardrobes, Internal Laundry, Secure Parking, Heating, Study, Solar panels",https://www.domain.com.au/21-alverton-drive-point-cook-vic-3030-17741885
17742263,POINT COOK,3030,500.0,2173.0,"Saturday, 04 October 2025",2025-09-02,7,2.0,2.0,1.0,Townhouse,12 Tattersalls Lane,-37.910484,144.75926,2025-09-09 16:57:54,17742263,,14,0,0,False,Townhouse/Villa,Townhouse,Barry Plant Point Cook,11213,Simon Khouri,"Heating, Solar panels",https://www.domain.com.au/12-tattersalls-lane-point-cook-vic-3030-17742263
17742326,POINT COOK,3030,520.0,2260.0,"Thursday, 25 September 2025",2025-09-02,7,3.0,2.0,1.0,House,2/3 Santander Crescent,-37.895252,144.73785,2025-09-09 16:57:54,17742326,,22,0,0,False,House,House,One Agency Property Partners,36088,Evangelina Chain,"Heating, Ensuite",https://www.domain.com.au/2-3-santander-crescent-point-cook-vic-3030-17742326
17742486,POINT COOK,3030,550.0,2390.0,"Friday, 19 September 2025",2025-09-02,7,4.0,2.0,2.0,House,121 Bensonhurst Parade,-37.882404,144.71127,2025-09-09 16:57:54,17742486,,17,0,1,False,House,House,Everywhere Real Estate,34518,Rentals Department,"Alarm System, Built in wardrobes, Dishwasher, Broadband, Bathtub, Gas Appliances, Ducted Heating, Evaporative Cooling, Ensuite(s), Outdoor Entertainment Area, Remote Garage, Secure Parking, Fully fenced, Pets Allowed",https://www.domain.com.au/121-bensonhurst-parade-point-cook-vic-3030-17742486
17742901,POINT COOK,3030,550.0,2390.0,"Friday, 26 September 2025",2025-09-02,7,4.0,2.0,2.0,House,4 Aldinga Avenue,-37.915787,144.78734,2025-09-09 16:57:54,17742901,,18,1,1,True,House,House,Everywhere Real Estate,34518,Rentals Department,"Gym, Study, Alarm System, Rumpus Room, Built in wardrobes, Dishwasher, Broadband, Bathtub, Gas Appliances, Ducted Heating, Evaporative Cooling, Ensuite(s), Outdoor Entertainment Area, Tennis Court, Remote Garage, Secure Parking, Fully fenced, Pets Allowed, LIFESTYLE CENTRE ACCESS providing access to
- Swimming Pool
- Tennis Courts
- Gym
- Function Rooms",https://www.domain.com.au/4-aldinga-avenue-point-cook-vic-3030-17742901
17743235,POINT COOK,3030,650.0,2824.0,"Wednesday, 08 October 2025",2025-09-02,7,4.0,2.0,2.0,House,26 Citronella Circuit,-37.887184,144.73749,2025-09-09 16:57:54,17743235,,17,0,0,False,House,House,Barry Plant Point Cook,11213,Simon Khouri,,https://www.domain.com.au/26-citronella-circuit-point-cook-vic-3030-17743235
17743551,POINT COOK,3030,620.0,2694.0,"Wednesday, 17 September 2025",2025-09-02,7,4.0,2.0,2.0,House,27 Machair Drive,-37.88294,144.75131,2025-09-09 16:57:54,17743551,,14,0,0,False,House,House,Barry Plant Point Cook,11213,Simon Khouri,"Secure Parking, Heating",https://www.domain.com.au/27-machair-drive-point-cook-vic-3030-17743551
17743906,POINT COOK,3030,590.0,2564.0,"Thursday, 25 September 2025",2025-09-02,7,4.0,2.0,2.0,House,4 Trigg Way,-37.905956,144.76,2025-09-09 16:57:54,17743906,,15,0,1,False,House,House,Reliance Real Estate Point Cook,26805,,"Secure Parking, Heating",https://www.domain.com.au/4-trigg-way-point-cook-vic-3030-17743906
17743926,POINT COOK,3030,530.0,2303.0,"Monday, 06 October 2025",2025-09-02,7,3.0,2.0,1.0,House,1/32 La Rochelle Boulevard,-37.89763,144.744,2025-09-09 16:57:54,17743926,,11,0,0,False,House,House,Barry Plant Point Cook,11213,Simon Khouri,"Air conditioning, Internal Laundry, Secure Parking, Heating",https://www.domain.com.au/1-32-la-rochelle-boulevard-point-cook-vic-3030-17743926
17744214,POINT COOK,3030,580.0,2520.0,"Tuesday, 02 September 2025",2025-09-02,6,4.0,2.0,2.0,House,113 Bondi Parade,-37.906284,144.77168,2025-09-09 16:57:54,17744214,,14,0,0,False,House,House,YPA Point Cook,37940,"Milan Gahlyan, Happy Lather","Built in wardrobes, Internal Laundry, Secure Parking, Alarm System, Dishwasher, Heating, Air conditioning, Solar hot water, Solar panels",https://www.domain.com.au/113-bondi-parade-point-cook-vic-3030-17744214
17744221,POINT COOK,3030,680.0,2955.0,"Tuesday, 02 September 2025",2025-09-02,6,4.0,2.0,2.0,House,14 Bluffview Terrace,-37.905884,144.77368,2025-09-09 16:57:54,17744221,,25,1,1,False,House,House,YPA Point Cook,37940,"Milan Gahlyan, Happy Lather","Heating, Dishwasher, Study",https://www.domain.com.au/14-bluffview-terrace-point-cook-vic-3030-17744221
13003722,POINT COOK,3030,570.0,2477.0,"Wednesday, 10 September 2025",2025-09-01,8,4.0,2.0,2.0,House,83 Bensonhurst Parade,-37.885,144.71382,2025-09-09 16:58:00,13003722,SR-9006-GD,12,0,0,False,House,House,Eighth Quarter Real Estate,22013,"Jane Huang, Joseph Yu","Internal Laundry, Heating",https://www.domain.com.au/83-bensonhurst-parade-point-cook-vic-3030-13003722
16752662,POINT COOK,3030,550.0,,"Saturday, 04 October 2025",2025-09-01,8,4.0,2.0,2.0,House,5 Palace Rd,-37.90249,144.73383,2025-09-09 16:58:00,16752662,TZ-7739-CQ,26,0,0,False,House,House,Sterling Realty Pty Ltd,33427,Danielle Ferguson,"Built in wardrobes, Internal Laundry, Secure Parking, Heating, Dishwasher, Solar panels",https://www.domain.com.au/5-palace-rd-point-cook-vic-3030-16752662
17190089,POINT COOK,3030,580.0,2520.0,"Wednesday, 24 September 2025",2025-08-28,12,3.0,2.0,2.0,Townhouse,43 Tackle Drive,-37.906754,144.72038,2025-09-09 16:58:00,17190089,YX-8095-YS,17,0,0,True,Townhouse/Villa,Townhouse,Raine & Horne Point Cook - Williams Landing,23285,Sonny Castillo,"Secure Parking, Heating, Dishwasher, Air conditioning, Ensuite, Built in wardrobes, Balcony / Deck",https://www.domain.com.au/43-tackle-drive-point-cook-vic-3030-17190089
17646067,POINT COOK,3030,510.0,2216.0,"Monday, 01 September 2025",2025-09-01,8,3.0,2.0,2.0,House,6 Tanner Mews,-37.8923,144.73006,2025-09-09 16:58:00,17646067,,13,0,1,False,House,House,.established Property,4979,Established Property Leasing,"Secure Parking, Heating, Shed",https://www.domain.com.au/6-tanner-mews-point-cook-vic-3030-17646067
17660071,POINT COOK,3030,490.0,2129.0,"Wednesday, 09 July 2025",2025-07-09,62,4.0,2.0,2.0,House,10 Malaga Street,-37.898075,144.73772,2025-09-09 16:58:00,17660071,,12,0,0,False,House,House,Area Specialist Wyndham,34164,"Kayla Kelly, Nikki Suhalka","Air conditioning, Secure Parking, Heating, Dishwasher, Study",https://www.domain.com.au/10-malaga-street-point-cook-vic-3030-17660071
17720741,POINT COOK,3030,535.0,2325.0,"Monday, 01 September 2025",2025-08-18,21,3.0,2.0,2.0,Townhouse,39 Central Park Avenue,-37.881447,144.73956,2025-09-09 16:58:00,17720741,,15,0,0,False,Townhouse/Villa,Townhouse,.established Property,4979,Established Property Leasing,"Secure Parking, Heating, Dishwasher",https://www.domain.com.au/39-central-park-avenue-point-cook-vic-3030-17720741
17733324,POINT COOK,3030,655.0,2846.0,"Saturday, 13 September 2025",2025-08-27,13,4.0,2.0,2.0,House,64 Yuruga Boulevard,-37.905025,144.7458,2025-09-09 16:58:00,17733324,,10,0,0,False,House,House,LJ Hooker Property Point,22180,"Dema Haddad, Nathan Long","Built in wardrobes, Dishwasher, Heating, Air conditioning, Ensuite",https://www.domain.com.au/64-yuruga-boulevard-point-cook-vic-3030-17733324
17734216,POINT COOK,3030,570.0,2477.0,"Thursday, 25 September 2025",2025-08-27,13,4.0,2.0,2.0,House,174 Haze Drive,-37.90787,144.76619,2025-09-09 16:58:00,17734216,,5,0,0,False,House,House,Ausky Group,20742,"Vivi Liana, Leanna Li","Internal Laundry, Remote Garage, Secure Parking, Built in wardrobes, Dishwasher",https://www.domain.com.au/174-haze-drive-point-cook-vic-3030-17734216
17735762,POINT COOK,3030,520.0,2260.0,"Thursday, 28 August 2025",2025-08-28,12,4.0,2.0,2.0,House,3 Gapstow Chase,-37.882496,144.71887,2025-09-09 16:58:00,17735762,,13,0,0,False,House,House,Barry Plant Point Cook,11213,Simon Khouri,"Internal Laundry, Secure Parking, Heating",https://www.domain.com.au/3-gapstow-chase-point-cook-vic-3030-17735762
17735909,POINT COOK,3030,460.0,1999.0,"Monday, 06 October 2025",2025-08-28,12,2.0,2.0,1.0,House,1/12 La Rochelle Boulevard,-37.89581,144.74422,2025-09-09 16:58:00,17735909,,11,0,0,False,House,House,Barry Plant Point Cook,11213,Simon Khouri,"Air conditioning, Internal Laundry, Secure Parking, Heating",https://www.domain.com.au/1-12-la-rochelle-boulevard-point-cook-vic-3030-17735909
17736004,POINT COOK,3030,560.0,2434.0,"Thursday, 25 September 2025",2025-08-28,12,4.0,2.0,2.0,House,18 Sandy Avenue,-37.91546,144.77959,2025-09-09 16:58:00,17736004,,4,0,0,False,House,House,Reliance Real Estate Point Cook,26805,"Zelda Van Rensburg, Rosabella Chan, Yash Shaw","Internal Laundry, Secure Parking, Gym, Heating",https://www.domain.com.au/18-sandy-avenue-point-cook-vic-3030-17736004
17736352,POINT COOK,3030,650.0,2825.0,"Monday, 15 September 2025",2025-08-28,12,4.0,2.0,2.0,House,10 Roosevelt Way,-37.891285,144.71568,2025-09-09 16:58:00,17736352,,21,0,0,False,House,House,Reliance Real Estate Point Cook,26805,"Zelda Van Rensburg, Deolinda Moreira, Yash Shaw","Secure Parking, Heating",https://www.domain.com.au/10-roosevelt-way-point-cook-vic-3030-17736352
17737210,POINT COOK,3030,550.0,2390.0,"Thursday, 28 August 2025",2025-08-28,12,4.0,2.0,2.0,House,18 Cordata Road,-37.905933,144.72821,2025-09-09 16:58:00,17737210,,15,1,1,True,House,House,Richardson & Wrench Projects Victoria,31321,Daniel Aldieri,"Dishwasher, Split System Heating, Split System Air Conditioning, Ensuite(s)",https://www.domain.com.au/18-cordata-road-point-cook-vic-3030-17737210
17737212,POINT COOK,3030,575.0,2499.0,"Thursday, 28 August 2025",2025-08-28,12,4.0,3.0,2.0,House,16 Cordata,-37.90588,144.72823,2025-09-09 16:58:00,17737212,,17,1,1,True,House,House,Richardson & Wrench Projects Victoria,31321,Daniel Aldieri,"Dishwasher, Split System Heating, Split System Air Conditioning, Ensuite(s)",https://www.domain.com.au/16-cordata-point-cook-vic-3030-17737212
17738783,POINT COOK,3030,550.0,2390.0,"Monday, 01 September 2025",2025-08-29,11,4.0,3.0,2.0,House,90 Bruckner Drive,-37.897118,144.71184,2025-09-09 16:58:00,17738783,,22,0,0,False,House,House,YPA Point Cook,37940,"Milan Gahlyan, Happy Lather","Pets Allowed, Bath, Heating",https://www.domain.com.au/90-bruckner-drive-point-cook-vic-3030-17738783
17739607,POINT COOK,3030,530.0,2303.0,"Wednesday, 08 October 2025",2025-09-01,8,3.0,2.0,2.0,House,92 Boardwalk Boulevard,-37.883472,144.73267,2025-09-09 16:58:00,17739607,,14,0,0,False,House,House,Barry Plant Point Cook,11213,Simon Khouri,"Secure Parking, Heating, Dishwasher",https://www.domain.com.au/92-boardwalk-boulevard-point-cook-vic-3030-17739607
17740293,POINT COOK,3030,550.0,2390.0,"Monday, 29 September 2025",2025-09-01,8,3.0,2.0,2.0,House,8 Peppers Avenue,-37.90425,144.7407,2025-09-09 16:58:00,17740293,,5,0,0,False,House,House,.established Property,4979,Established Property Leasing,"Internal Laundry, Secure Parking, Bath, Heating, Study",https://www.domain.com.au/8-peppers-avenue-point-cook-vic-3030-17740293
17740637,POINT COOK,3030,580.0,2520.0,"Saturday, 20 September 2025",2025-09-01,8,4.0,2.0,2.0,House,17 Copeland Crescent,-37.882145,144.74649,2025-09-09 16:58:00,17740637,,15,0,1,False,House,House,.established Property,4979,Established Property Leasing,"Secure Parking, Heating, Balcony / Deck",https://www.domain.com.au/17-copeland-crescent-point-cook-vic-3030-17740637
17740805,POINT COOK,3030,580.0,2521.0,"Monday, 25 August 2025",2025-09-01,8,4.0,2.0,2.0,House,15 Fremantle Close,-37.882942,144.72566,2025-09-09 16:58:00,17740805,,15,0,0,False,House,House,Reliance Real Estate Point Cook,26805,"Zelda Van Rensburg, Rosabella Chan","Secure Parking, Heating, Dishwasher",https://www.domain.com.au/15-fremantle-close-point-cook-vic-3030-17740805
17740861,POINT COOK,3030,590.0,2564.0,"Monday, 29 September 2025",2025-09-01,8,4.0,2.0,2.0,House,26 Lockheed Parade,-37.900146,144.71971,2025-09-09 16:58:00,17740861,,7,1,0,False,House,House,.established Property,4979,Established Property Leasing,"Secure Parking, Heating, Dishwasher",https://www.domain.com.au/26-lockheed-parade-point-cook-vic-3030-17740861
9799179,POINT COOK,3030,530.0,2303.0,"Friday, 05 September 2025",2025-08-22,18,4.0,2.0,2.0,House,30 Waves Drive,-37.914925,144.78122,2025-09-09 16:58:05,9799179,GR-8733-EU,6,0,0,False,House,House,LITTLE Real Estate Victoria,24974,Jason King,"Car Accom: Double Garage, Heating: Gas Ducted Heating, Cooking: Gas Hotplates and Electric Oven",https://www.domain.com.au/30-waves-drive-point-cook-vic-3030-9799179
12752808,POINT COOK,3030,550.0,2390.0,"Wednesday, 03 September 2025",2025-08-22,18,4.0,2.0,2.0,House,103 Haze Drive,-37.908993,144.77266,2025-09-09 16:58:05,12752808,NC-7317-MH,7,0,0,False,House,House,LITTLE Real Estate Victoria,24974,Jason King,"Car Accom: Double Garage, Heating: Gas Ducted Heating, Cooling: Evaporative Cooling, Cooking: Gas Hotplates and Electric Oven",https://www.domain.com.au/103-haze-drive-point-cook-vic-3030-12752808
16743288,POINT COOK,3030,640.0,2781.0,"Tuesday, 26 August 2025",2025-08-26,14,5.0,2.0,2.0,House,15 Kyogle Avenue,-37.909874,144.71815,2025-09-09 16:58:05,16743288,UL-0225-RO,8,0,1,False,House,House,VICPROP Point Cook and Williams Landing,33528,"Lisha Wen, Leasing Team Vicprop","Air conditioning, Secure Parking, Heating",https://www.domain.com.au/15-kyogle-avenue-point-cook-vic-3030-16743288
17143573,POINT COOK,3030,630.0,2738.0,"Thursday, 29 August 2024",2025-08-25,15,5.0,3.0,2.0,House,50 Yuruga Boulevard,-37.905106,144.74716,2025-09-09 16:58:05,17143573,SY-0056-IM,11,0,0,False,House,House,VICPROP Point Cook and Williams Landing,33528,"Lisha Wen, Leasing Team Vicprop",Heating,https://www.domain.com.au/50-yuruga-boulevard-point-cook-vic-3030-17143573
17501313,POINT COOK,3030,525.0,2281.0,"Wednesday, 17 September 2025",2025-08-26,14,3.0,2.0,2.0,House,11 Baltimore Drive,-37.882122,144.72748,2025-09-09 16:58:05,17501313,SY-1946-OL,9,0,0,False,House,House,Barry Plant Manningham,7015,"Freya Semera, Alex Gissara","Secure Parking, Heating",https://www.domain.com.au/11-baltimore-drive-point-cook-vic-3030-17501313
17692533,POINT COOK,3030,550.0,2390.0,"Monday, 25 August 2025",2025-07-30,41,4.0,2.0,2.0,House,189 Saltwater Promenade,-37.9104,144.77322,2025-09-09 16:58:05,17692533,,10,0,0,False,House,House,Ray White Point Cook,29063,"Palak Grover, Makayla Hurinui","Air conditioning, Secure Parking, Heating",https://www.domain.com.au/189-saltwater-promenade-point-cook-vic-3030-17692533
17726759,POINT COOK,3030,650.0,2824.0,"Monday, 18 August 2025",2025-08-21,18,4.0,2.0,2.0,House,2 Liberator Drive,-37.90928,144.76253,2025-09-09 16:58:05,17726759,,18,1,1,False,House,House,Lifein Real Estate Pty Ltd,32895,Inchi Zhang,"Heating, Study, Air conditioning, Floorboards, Built in wardrobes, Internal Laundry, Gas, Bath, Dishwasher, Secure Parking, Fully fenced, Garden / Courtyard",https://www.domain.com.au/2-liberator-drive-point-cook-vic-3030-17726759
17726921,POINT COOK,3030,590.0,2564.0,"Friday, 27 June 2025",2025-08-21,18,4.0,2.0,2.0,House,5 Suttie Street,-37.913715,144.76456,2025-09-09 16:58:05,17726921,,11,1,0,False,House,House,Lifein Real Estate Pty Ltd,32895,Inchi Zhang,"Air conditioning, Built in wardrobes, Internal Laundry, Gas, Bath, Dishwasher, Ensuite, Garden / Courtyard, Fully fenced, Secure Parking",https://www.domain.com.au/5-suttie-street-point-cook-vic-3030-17726921
17727699,POINT COOK,3030,550.0,2390.0,"Monday, 25 August 2025",2025-08-22,18,4.0,2.0,2.0,House,6 Capodanno Street,-37.889935,144.71278,2025-09-09 16:58:05,17727699,,18,0,0,False,House,House,Ray White Point Cook,29063,"Palak Grover, Makayla Hurinui","Air conditioning, Secure Parking, Heating",https://www.domain.com.au/6-capodanno-street-point-cook-vic-3030-17727699
17729141,POINT COOK,3030,550.0,2390.0,"Friday, 19 September 2025",2025-08-25,15,4.0,2.0,2.0,House,18 Bottletree Road,-37.908096,144.73178,2025-09-09 16:58:05,17729141,,12,0,0,False,House,House,LJ Hooker Property Point,22180,"Dema Haddad, Nathan Long","Secure Parking, Built in wardrobes, Dishwasher, Heating, Air conditioning, Ensuite",https://www.domain.com.au/18-bottletree-road-point-cook-vic-3030-17729141
17729280,POINT COOK,3030,580.0,2520.0,"Friday, 26 September 2025",2025-08-25,15,3.0,2.0,2.0,House,376 Point Cook Road,-37.909367,144.75154,2025-09-09 16:58:05,17729280,,8,0,0,False,House,House,.established Property,4979,Established Property Leasing,"Secure Parking, Heating",https://www.domain.com.au/376-point-cook-road-point-cook-vic-3030-17729280
17729283,POINT COOK,3030,575.0,2499.0,"Friday, 26 September 2025",2025-08-25,15,4.0,2.0,2.0,House,15 Webster Street,-37.88678,144.7162,2025-09-09 16:58:05,17729283,,20,0,1,False,House,House,Reliance Real Estate Point Cook,26805,"Zelda Van Rensburg, Leena Papakalodoukas, Yash Shaw","Secure Parking, Heating",https://www.domain.com.au/15-webster-street-point-cook-vic-3030-17729283
17729650,POINT COOK,3030,545.0,2368.0,"Monday, 22 September 2025",2025-08-25,15,3.0,2.0,1.0,House,14 Dorrington Street,-37.8818,144.74506,2025-09-09 16:58:05,17729650,,11,0,0,False,House,House,.established Property,4979,Established Property Leasing,"Secure Parking, Heating, Dishwasher",https://www.domain.com.au/14-dorrington-street-point-cook-vic-3030-17729650
17729920,POINT COOK,3030,680.0,2955.0,"Monday, 25 August 2025",2025-08-25,15,5.0,3.0,2.0,House,5 Martaban Crescent,-37.899673,144.71754,2025-09-09 16:58:05,17729920,,26,0,1,False,House,House,Reliance Real Estate Point Cook,26805,"Zelda Van Rensburg, Carlie Hoffman, Yash Shaw","Internal Laundry, Secure Parking, Heating, Study, Shed",https://www.domain.com.au/5-martaban-crescent-point-cook-vic-3030-17729920
17729981,POINT COOK,3030,550.0,2390.0,"Thursday, 28 August 2025",2025-08-25,15,4.0,2.0,2.0,House,43 Creston Street,-37.88609,144.71306,2025-09-09 16:58:05,17729981,,11,0,0,False,House,House,Xynergy Realty Altona,31396,Laika Charles,"Internal Laundry, Secure Parking",https://www.domain.com.au/43-creston-street-point-cook-vic-3030-17729981
17730056,POINT COOK,3030,550.0,2390.0,"Friday, 03 October 2025",2025-08-25,15,4.0,2.0,2.0,House,124 Lennon Boulevard,-37.898003,144.73877,2025-09-09 16:58:05,17730056,,13,0,0,False,House,House,Barry Plant Point Cook,11213,Simon Khouri,"Secure Parking, Heating, Balcony / Deck, Study",https://www.domain.com.au/124-lennon-boulevard-point-cook-vic-3030-17730056
17731761,POINT COOK,3030,540.0,2347.0,"Friday, 08 August 2025",2025-08-26,14,4.0,2.0,2.0,House,5 Verbena Drive,-37.886837,144.7319,2025-09-09 16:58:05,17731761,,5,1,0,False,House,House,Reliance Real Estate Point Cook,26805,"Zelda Van Rensburg, Leena Papakalodoukas, Yash Shaw","Secure Parking, Heating, Dishwasher",https://www.domain.com.au/5-verbena-drive-point-cook-vic-3030-17731761
17732653,POINT COOK,3030,595.0,2585.0,"Tuesday, 26 August 2025",2025-08-26,14,4.0,2.0,2.0,House,6 Florey Avenue,-37.890854,144.72124,2025-09-09 16:58:05,17732653,,17,0,0,False,House,House,Barry Plant Point Cook,11213,Simon Khouri,"Air conditioning, Secure Parking, Heating, Balcony / Deck, Study",https://www.domain.com.au/6-florey-avenue-point-cook-vic-3030-17732653
17732931,POINT COOK,3030,560.0,2433.0,"Wednesday, 10 September 2025",2025-08-26,14,3.0,2.0,2.0,House,15 Mystic Grove,-37.90834,144.77673,2025-09-09 16:58:05,17732931,,12,0,0,False,House,House,YPA Point Cook,37940,"Milan Gahlyan, Happy Lather",Heating,https://www.domain.com.au/15-mystic-grove-point-cook-vic-3030-17732931
17732986,POINT COOK,3030,515.0,2238.0,"Friday, 05 September 2025",2025-08-26,14,3.0,2.0,1.0,House,60 Cooinda Way,-37.90104,144.7371,2025-09-09 16:58:05,17732986,,7,0,1,False,House,House,Mancini Real Estate ,11724,"Verity Sattout, Kellie Grant","Secure Parking, Bath, Heating",https://www.domain.com.au/60-cooinda-way-point-cook-vic-3030-17732986
17050496,POINT COOK,3030,520.0,2260.0,"Monday, 15 September 2025",2025-08-14,26,3.0,2.0,2.0,House,26 Lindsay Gardens,-37.890892,144.7325,2025-09-09 16:58:11,17050496,DP-8566-UE,11,0,0,False,House,House,Mancini Real Estate ,11724,Verity Sattout,"Gas, Secure Parking, Broadband internet access, Bath, Heating",https://www.domain.com.au/26-lindsay-gardens-point-cook-vic-3030-17050496
17104717,POINT COOK,3030,490.0,2129.0,"Thursday, 12 September 2024",2025-08-15,25,2.0,1.0,1.0,House,2/40 Toledo Crescent,-37.898422,144.74763,2025-09-09 16:58:11,17104717,AD-0584-LG,11,0,0,False,House,House,Raine & Horne Point Cook - Williams Landing,23285,Sonny Castillo,"Air conditioning, Built in wardrobes, Secure Parking, Broadband internet access, Bath, Heating, Dishwasher",https://www.domain.com.au/2-40-toledo-crescent-point-cook-vic-3030-17104717
17170191,POINT COOK,3030,595.0,,"Saturday, 20 September 2025",2025-08-18,22,4.0,2.0,2.0,House,29 ARUBA AVE,-37.90887,144.7422,2025-09-09 16:58:11,17170191,MC-4774-BO,14,0,1,False,House,House,Agents'Agency Network Partners,11919,Lovejit Malhi,"Air conditioning, Ensuite, Floorboards, Built in wardrobes, Bath, Heating, Dishwasher, Secure Parking, Fully fenced, Garden / Courtyard, Energy efficient appliances, Water efficient appliances, Water efficient fixtures",https://www.domain.com.au/29-aruba-ave-point-cook-vic-3030-17170191
17182679,POINT COOK,3030,520.0,2260.0,"Thursday, 12 September 2024",2025-08-18,22,4.0,2.0,2.0,House,62 Carrick Street,-37.909492,144.76768,2025-09-09 16:58:11,17182679,ZA-3590-WG,10,0,0,False,House,House,VICPROP Point Cook and Williams Landing,33528,"Lisha Wen, Leasing Team Vicprop","Internal Laundry, Secure Parking, Heating, Dishwasher, Study",https://www.domain.com.au/62-carrick-street-point-cook-vic-3030-17182679
17577008,POINT COOK,3030,630.0,2738.0,"Tuesday, 17 June 2025",2025-05-16,116,4.0,2.0,2.0,House,4 Feather Place,-37.898136,144.73143,2025-09-09 16:58:11,17577008,QV-2665-RD,6,0,0,False,House,House,Barry Plant Point Cook,11213,Simon Khouri,"Built in wardrobes, Secure Parking, Dishwasher, Study",https://www.domain.com.au/4-feather-place-point-cook-vic-3030-17577008
17715358,POINT COOK,3030,605.0,2629.0,"Wednesday, 01 October 2025",2025-08-14,26,4.0,2.0,2.0,House,8 Endurance Way,-37.91036,144.74979,2025-09-09 16:58:11,17715358,,9,0,0,False,House,House,Barry Plant Point Cook,11213,Simon Khouri,"Secure Parking, Heating, Dishwasher, Balcony / Deck, Study",https://www.domain.com.au/8-endurance-way-point-cook-vic-3030-17715358
17715686,POINT COOK,3030,540.0,2347.0,"Tuesday, 26 August 2025",2025-08-14,26,4.0,2.0,2.0,House,356 Saltwater Promenade,-37.916016,144.78554,2025-09-09 16:58:11,17715686,,12,0,0,False,House,House,VICPROP Point Cook and Williams Landing,33528,"Lisha Wen, Leasing Team Vicprop","Secure Parking, Gym, Heating, Dishwasher, Study",https://www.domain.com.au/356-saltwater-promenade-point-cook-vic-3030-17715686
17717188,POINT COOK,3030,650.0,2824.0,"Wednesday, 17 September 2025",2025-08-15,25,4.0,2.0,2.0,House,23 Fairwater Drive,-37.905796,144.71805,2025-09-09 16:58:11,17717188,,15,0,0,False,House,House,Forge Group Australia Pty Ltd,32680,"Forge Leasing, Wayne Deng","Balcony, Fully fenced, Secure Parking, Alarm System, Broadband Internet Available, Built in wardrobes, Dishwasher, Floorboards, Rumpus Room, Air conditioning, Split-System Air Conditioning, Solar hot water, Ensuite",https://www.domain.com.au/23-fairwater-drive-point-cook-vic-3030-17717188
17718328,POINT COOK,3030,550.0,2390.0,"Friday, 15 August 2025",2025-08-15,24,4.0,2.0,2.0,House,15 Allegra Street,-37.87521,144.73471,2025-09-09 16:58:11,17718328,,10,0,1,False,House,House,OBrien Real Estate Deer Park,17811,Suzette Mackovski,"Internal Laundry, Secure Parking, Heating, Dishwasher, Built in wardrobes, Close to transport, Close to shops, Alarm System, Close to schools, Ensuite",https://www.domain.com.au/15-allegra-street-point-cook-vic-3030-17718328
17718832,POINT COOK,3030,580.0,2520.0,"Monday, 15 September 2025",2025-08-18,22,4.0,2.0,2.0,House,55 Bruckner Drive,-37.896336,144.7114,2025-09-09 16:58:11,17718832,,9,0,0,False,House,House,.established Property,4979,Established Property Leasing,"Internal Laundry, Secure Parking, Heating, Study",https://www.domain.com.au/55-bruckner-drive-point-cook-vic-3030-17718832
17719279,POINT COOK,3030,530.0,2303.0,"Friday, 15 August 2025",2025-08-18,22,3.0,2.0,1.0,Townhouse,22/47 Waterhaven Boulevard,-37.878315,144.72319,2025-09-09 16:58:11,17719279,,4,0,0,False,Townhouse/Villa,Townhouse,LJ Hooker Property Point,22180,"Dema Haddad, Nathan Long","Balcony / Deck, Built in wardrobes, Dishwasher, Remote Garage, Air conditioning, Heating, Ensuite",https://www.domain.com.au/22-47-waterhaven-boulevard-point-cook-vic-3030-17719279
17719795,POINT COOK,3030,620.0,2694.0,"Monday, 08 September 2025",2025-08-18,22,4.0,2.0,2.0,House,15 Capital Way,-37.90951,144.73334,2025-09-09 16:58:11,17719795,,9,0,0,False,House,House,OSKO Real Estate Agency,37723,Osko Rentals,"Internal Laundry, Secure Parking",https://www.domain.com.au/15-capital-way-point-cook-vic-3030-17719795
17721138,POINT COOK,3030,630.0,2738.0,"Monday, 22 September 2025",2025-08-19,21,4.0,2.0,2.0,House,117 Carrick Street,-37.909424,144.76324,2025-09-09 16:58:11,17721138,,16,0,0,False,House,House,Barry Plant Point Cook,11213,Simon Khouri,"Built in wardrobes, Secure Parking, Bath, Heating, Dishwasher, Study",https://www.domain.com.au/117-carrick-street-point-cook-vic-3030-17721138
17721737,POINT COOK,3030,570.0,2477.0,"Thursday, 25 September 2025",2025-08-19,21,4.0,2.0,2.0,House,8 Octavia Street,-37.910744,144.75114,2025-09-09 16:58:11,17721737,,13,0,1,False,House,House,Ray White Point Cook,29063,"Palak Grover, Makayla Hurinui","Internal Laundry, Secure Parking, Heating, Solar panels",https://www.domain.com.au/8-octavia-street-point-cook-vic-3030-17721737
17722926,POINT COOK,3030,580.0,2521.0,"Thursday, 11 September 2025",2025-08-19,20,4.0,2.0,2.0,House,9 Tamworth Grove,-37.910538,144.71617,2025-09-09 16:58:11,17722926,,15,0,0,False,House,House,Reliance Real Estate Point Cook,26805,"Zelda Van Rensburg, Leena Papakalodoukas, Yash Shaw","Secure Parking, Heating, Dishwasher",https://www.domain.com.au/9-tamworth-grove-point-cook-vic-3030-17722926
17723429,POINT COOK,3030,580.0,2520.0,"Wednesday, 10 September 2025",2025-08-20,20,4.0,2.0,2.0,House,41 Bondi Parade,-37.906696,144.77483,2025-09-09 16:58:11,17723429,,9,0,0,False,House,House,LJ Hooker City Residential,18765,Leasing Team,"Secure Parking, Heating, Dishwasher",https://www.domain.com.au/41-bondi-parade-point-cook-vic-3030-17723429
17723565,POINT COOK,3030,550.0,2390.0,"Wednesday, 17 September 2025",2025-08-20,20,4.0,2.0,2.0,House,2 Lismore Road,-37.91091,144.72249,2025-09-09 16:58:11,17723565,,16,0,0,False,House,House,hockingstuart Wyndham City,16107,"Jessica Tong, Samantha Holt","Secure Parking, Heating",https://www.domain.com.au/2-lismore-road-point-cook-vic-3030-17723565
17724604,POINT COOK,3030,500.0,2173.0,"Thursday, 21 August 2025",2025-08-20,20,4.0,2.0,2.0,House,6 Exhibition Street,-37.910004,144.76038,2025-09-09 16:58:11,17724604,,10,0,0,False,House,House,VICPROP Point Cook and Williams Landing,33528,"Lisha Wen, Leasing Team Vicprop","Internal Laundry, Secure Parking, Heating, Dishwasher",https://www.domain.com.au/6-exhibition-street-point-cook-vic-3030-17724604
17724675,POINT COOK,3030,560.0,2434.0,"Saturday, 23 August 2025",2025-08-20,20,4.0,2.0,2.0,House,12 Grasso Avenue,-37.914806,144.7652,2025-09-09 16:58:11,17724675,,10,0,0,False,House,House,VICPROP Point Cook and Williams Landing,33528,"Lisha Wen, Leasing Team Vicprop","Internal Laundry, Secure Parking, Heating",https://www.domain.com.au/12-grasso-avenue-point-cook-vic-3030-17724675
17726728,POINT COOK,3030,680.0,2955.0,"Monday, 08 September 2025",2025-08-21,19,4.0,2.0,2.0,House,14 Oakridge Street,-37.91468,144.7875,2025-09-09 16:58:11,17726728,,14,0,0,False,House,House,Lifein Real Estate Pty Ltd,32895,Inchi Zhang,"Pets Allowed, Air conditioning, Floorboards, Built in wardrobes, Internal Laundry, Gas, Bath, Dishwasher, Secure Parking, Fully fenced, Garden / Courtyard",https://www.domain.com.au/14-oakridge-street-point-cook-vic-3030-17726728
17022027,POINT COOK,3030,650.0,2824.0,"Saturday, 06 September 2025",2025-08-07,32,4.0,2.0,2.0,House,8 Jamaica Street,-37.893772,144.71364,2025-09-09 16:58:15,17022027,LZ-2911-JC,16,0,0,False,House,House,ACE Real Estate,19089,"Leasing Manager, Riya Sharma","Air conditioning, Heating",https://www.domain.com.au/8-jamaica-street-point-cook-vic-3030-17022027
17122385,POINT COOK,3030,690.0,,"Saturday, 06 September 2025",2025-08-12,28,4.0,2.0,2.0,House,12 Mowbray Drive,-37.89738,144.73192,2025-09-09 16:58:15,17122385,FT-7652-FQ,18,0,1,False,House,House,Agents'Agency Network Partners,11919,Lovejit Malhi,"Built in wardrobes, Secure Parking, Ensuite",https://www.domain.com.au/12-mowbray-drive-point-cook-vic-3030-17122385
17352404,POINT COOK,3030,500.0,2173.0,"Friday, 22 August 2025",2025-08-12,28,3.0,2.0,2.0,House,16 Lindsay Gardens,-37.89098,144.73323,2025-09-09 16:58:15,17352404,BQ-8301-YT,5,0,0,False,House,House,Barry Plant Manningham,7015,"Freya Semera, Deep Sareen","Gas, Heating",https://www.domain.com.au/16-lindsay-gardens-point-cook-vic-3030-17352404
17672548,POINT COOK,3030,550.0,2390.0,"Friday, 01 August 2025",2025-07-17,54,4.0,2.0,2.0,House,24 Hewett Drive,-37.89192,144.72662,2025-09-09 16:58:15,17672548,,9,0,0,False,House,House,.established Property,4979,Established Property Leasing,"Air conditioning, Secure Parking, Heating",https://www.domain.com.au/24-hewett-drive-point-cook-vic-3030-17672548
17702188,POINT COOK,3030,550.0,2390.0,"Friday, 15 August 2025",2025-08-05,34,4.0,2.0,2.0,House,84 Middleton Drive,-37.90425,144.75974,2025-09-09 16:58:15,17702188,,14,0,0,False,House,House,Paramount Residential,32727,"Andy Li, Jeffrey Leong","Internal Laundry, Secure Parking, Ensuite, Floorboards, Built in wardrobes, Gas, Bath, Dishwasher, Air conditioning",https://www.domain.com.au/84-middleton-drive-point-cook-vic-3030-17702188
17703150,POINT COOK,3030,700.0,3042.0,"Wednesday, 06 August 2025",2025-08-06,34,4.0,2.0,2.0,House,71 Malibu Boulevard,-37.903893,144.73732,2025-09-09 16:58:15,17703150,,19,0,0,False,House,House,LJ Hooker Property Point,22180,"Dema Haddad, Nathan Long","Gas, Internal Laundry, Secure Parking, Heating, Dishwasher",https://www.domain.com.au/71-malibu-boulevard-point-cook-vic-3030-17703150
17704458,POINT COOK,3030,540.0,2347.0,"Thursday, 07 August 2025",2025-08-07,33,4.0,2.0,2.0,House,19 Perlette Drive,-37.88712,144.72018,2025-09-09 16:58:15,17704458,,9,0,0,False,House,House,.established Property,4979,Established Property Leasing,Heating,https://www.domain.com.au/19-perlette-drive-point-cook-vic-3030-17704458
17706354,POINT COOK,3030,600.0,2608.0,"Monday, 25 August 2025",2025-08-08,32,4.0,2.0,2.0,House,13 Ostend Crescent,-37.90722,144.77347,2025-09-09 16:58:15,17706354,,8,0,0,False,House,House,BRW Group,34868,"BRW Leasing, Sinclair Mak",,https://www.domain.com.au/13-ostend-crescent-point-cook-vic-3030-17706354
17706643,POINT COOK,3030,560.0,2434.0,"Monday, 08 September 2025",2025-08-08,32,3.0,2.0,2.0,House,105 The Strand,-37.880756,144.74658,2025-09-09 16:58:15,17706643,,17,0,1,False,House,House,Reliance Real Estate Point Cook,26805,"Zelda Van Rensburg, Rosabella Chan, Yash Shaw","Internal Laundry, Secure Parking, Heating, Dishwasher, Balcony / Deck",https://www.domain.com.au/105-the-strand-point-cook-vic-3030-17706643
17707566,POINT COOK,3030,575.0,2499.0,"Friday, 08 August 2025",2025-08-08,32,4.0,3.0,2.0,House,14 Cordata Road,-37.905827,144.72824,2025-09-09 16:58:15,17707566,,16,1,1,True,House,House,Richardson & Wrench Projects Victoria,31321,Daniel Aldieri,"Dishwasher, Split System Heating, Split System Air Conditioning",https://www.domain.com.au/14-cordata-road-point-cook-vic-3030-17707566
17707568,POINT COOK,3030,575.0,2499.0,"Friday, 08 August 2025",2025-08-08,32,4.0,3.0,2.0,House,4 Cordata Road,-37.90556,144.72829,2025-09-09 16:58:15,17707568,,17,1,1,True,House,House,Richardson & Wrench Projects Victoria,31321,Daniel Aldieri,"Dishwasher, Split System Heating, Split System Air Conditioning, Ensuite(s)",https://www.domain.com.au/4-cordata-road-point-cook-vic-3030-17707568
17707572,POINT COOK,3030,575.0,2499.0,"Friday, 08 August 2025",2025-08-08,32,4.0,3.0,2.0,House,8 Cordata Road,-37.905666,144.72827,2025-09-09 16:58:15,17707572,,17,1,1,True,House,House,Richardson & Wrench Projects Victoria,31321,Daniel Aldieri,"Dishwasher, Split System Heating, Split System Air Conditioning, Ensuite(s)",https://www.domain.com.au/8-cordata-road-point-cook-vic-3030-17707572
17709847,POINT COOK,3030,550.0,2390.0,"Saturday, 20 September 2025",2025-08-11,29,4.0,2.0,2.0,House,2 Tuncurry Road,-37.909653,144.71857,2025-09-09 16:58:15,17709847,,13,0,1,False,House,House,Reliance Real Estate Point Cook,26805,"Zelda Van Rensburg, Carlie Hoffman, Yash Shaw","Secure Parking, Heating",https://www.domain.com.au/2-tuncurry-road-point-cook-vic-3030-17709847
17710047,POINT COOK,3030,480.0,2086.0,"Sunday, 24 August 2025",2025-08-11,29,3.0,2.0,2.0,House,305 Dunnings Road,-37.884785,144.71346,2025-09-09 16:58:15,17710047,,6,0,1,False,House,House,Harcourts Rata & Co,30123,Giacinta Pizzingrilli,"Gas, Heating, Ensuite, Openable Windows, Split System Cooling",https://www.domain.com.au/305-dunnings-road-point-cook-vic-3030-17710047
17710493,POINT COOK,3030,570.0,2477.0,"Monday, 01 September 2025",2025-08-11,28,4.0,2.0,2.0,House,68 Sunnybank Drive,-37.902348,144.72386,2025-09-09 16:58:15,17710493,,16,0,0,False,House,House,First National Real Estate Lakra,23132,Vivek Rana,"Internal Laundry, Secure Parking, Heating, Dishwasher",https://www.domain.com.au/68-sunnybank-drive-point-cook-vic-3030-17710493
17711209,POINT COOK,3030,600.0,2607.0,"Thursday, 18 September 2025",2025-08-12,28,4.0,2.0,2.0,House,35 Menzies Avenue,-37.89768,144.73367,2025-09-09 16:58:15,17711209,,9,0,0,False,House,House,One Agency Property Partners,36088,Evangelina Chain,"Gas, Secure Parking, Heating, Dishwasher, Solar panels, Ensuite",https://www.domain.com.au/35-menzies-avenue-point-cook-vic-3030-17711209
17711262,POINT COOK,3030,530.0,2303.0,"Friday, 19 September 2025",2025-08-12,28,3.0,1.0,1.0,House,34 Beaumont Drive,-37.877693,144.74301,2025-09-09 16:58:15,17711262,,7,0,0,False,House,House,LJ Hooker Property Point,22180,"Dema Haddad, Nathan Long","Pets Allowed, Secure Parking, Heating, Built in wardrobes, Dishwasher, Air conditioning",https://www.domain.com.au/34-beaumont-drive-point-cook-vic-3030-17711262
17711423,POINT COOK,3030,610.0,2651.0,"Tuesday, 23 September 2025",2025-08-12,28,4.0,2.0,2.0,House,19 Mercure Way,-37.903343,144.7358,2025-09-09 16:58:15,17711423,,13,0,0,False,House,House,LJ Hooker Property Point,22180,"Dema Haddad, Nathan Long","Secure Parking, Built in wardrobes, Dishwasher, Heating, Air conditioning, Outdoor Entertaining, Single Storey",https://www.domain.com.au/19-mercure-way-point-cook-vic-3030-17711423
17712899,POINT COOK,3030,570.0,2477.0,"Saturday, 06 September 2025",2025-08-13,27,4.0,2.0,2.0,House,1 Verbena Drive,-37.886692,144.73218,2025-09-09 16:58:15,17712899,,19,0,0,False,House,House,Reliance Real Estate Point Cook,26805,"Zelda Van Rensburg, Carlie Hoffman, Yash Shaw","Secure Parking, Heating",https://www.domain.com.au/1-verbena-drive-point-cook-vic-3030-17712899
17714539,POINT COOK,3030,580.0,2520.0,"Monday, 01 September 2025",2025-08-13,26,4.0,2.0,2.0,House,7 Spinifex street,-37.909256,144.72551,2025-09-09 16:58:15,17714539,,20,0,1,False,House,House,JR PROPERTY GROUP PTY LTD,31734,"Jags Arora, Emma Wei","Alarm System, Floorboards, Built in wardrobes, Dishwasher, Broadband, Bathtub, Gas Appliances, Gas Heating, Reverse Cycle Air Conditioning, Gas Hot Water, Ensuite(s), Remote Garage, Fully fenced, Solar panels, Water Tank",https://www.domain.com.au/7-spinifex-street-point-cook-vic-3030-17714539
11246350,POINT COOK,3030,510.0,2216.0,"Tuesday, 29 July 2025",2025-07-24,47,4.0,2.0,2.0,House,20 Jemma Avenue,-37.909897,144.77806,2025-09-09 16:58:20,11246350,FP-4183-WS,6,0,1,False,House,House,LITTLE Real Estate Victoria,24974,Jason King,"Car Accom: Double Garage, Heating: Gas Ducted Heating, Cooling: Reverse Cycle Air Conditioning, Cooking: Gas Hotplates and Electric Oven, Pool/Spa Count: 0",https://www.domain.com.au/20-jemma-avenue-point-cook-vic-3030-11246350
17082988,POINT COOK,3030,650.0,2933.0,"Friday, 22 August 2025",2025-07-24,47,4.0,2.0,2.0,House,9 Carnegie Rd,-37.91281,144.76448,2025-09-09 16:58:20,17082988,NX-9802-AM,20,1,0,True,House,House,Prime Residential Property Management,31221,Sophie Pearson,"Gas, Alarm System, Rumpus Room, Built in wardrobes, Bathtub, Ducted Heating, Reverse Cycle Air Conditioning, Remote Garage, Pets Allowed",https://www.domain.com.au/9-carnegie-rd-point-cook-vic-3030-17082988
17259599,POINT COOK,3030,575.0,,"Wednesday, 10 September 2025",2025-07-25,46,4.0,2.0,2.0,House,22 Royal Circuit,-37.911785,144.7369,2025-09-09 16:58:20,17259599,IO-8930-YU,13,0,0,False,House,House,Agents'Agency Network Partners,11919,Lovejit Malhi,"Secure Parking, Gym, Heating, Ensuite",https://www.domain.com.au/22-royal-circuit-point-cook-vic-3030-17259599
17421771,POINT COOK,3030,695.0,3020.0,"Wednesday, 05 February 2025",2025-02-03,218,4.0,3.0,2.0,House,1 Sabre Place,-37.878796,144.74232,2025-09-09 16:58:20,17421771,FA-6410-VV,18,0,0,False,House,House,One Agency Property Partners,36088,Evangelina Chain,"Secure Parking, Built in wardrobes, Heating, Floorboards, Furnished, Outdoor Entertaining, Air conditioning, Study, Ensuite",https://www.domain.com.au/1-sabre-place-point-cook-vic-3030-17421771
17585812,POINT COOK,3030,560.0,2433.0,"Friday, 15 August 2025",2025-07-18,53,4.0,2.0,2.0,House,18 Derham Drive,-37.890762,144.72612,2025-09-09 16:58:20,17585812,DY-1664-XZ,4,0,0,False,House,House,First National Westwood ,6441,"Shenay Caglar, Amanda Colley","Gas, Secure Parking, Bath, Dishwasher, Built in wardrobes, Air-Conditioner, Ducted Heating",https://www.domain.com.au/18-derham-drive-point-cook-vic-3030-17585812
17659848,POINT COOK,3030,540.0,2347.0,"Thursday, 21 August 2025",2025-07-09,62,4.0,2.0,2.0,House,43 Raglan Circuit,-37.90891,144.74777,2025-09-09 16:58:20,17659848,,16,0,2,False,House,House,REMAX ACPA,34510,Camila Jing,"Air conditioning, Built in wardrobes, Secure Parking, Heating",https://www.domain.com.au/43-raglan-circuit-point-cook-vic-3030-17659848
17672874,POINT COOK,3030,580.0,2520.0,"Monday, 11 August 2025",2025-07-17,54,4.0,2.0,2.0,House,3 Minnehaha Way,-37.904087,144.76164,2025-09-09 16:58:20,17672874,,5,0,0,False,House,House,LJ Hooker Property Point,22180,"Dema Haddad, Nathan Long","Internal Laundry, Secure Parking, Study, Ensuite",https://www.domain.com.au/3-minnehaha-way-point-cook-vic-3030-17672874
17673129,POINT COOK,3030,500.0,2172.0,"Thursday, 17 July 2025",2025-07-17,54,4.0,2.0,2.0,House,70 Carmen Road,-37.904873,144.75877,2025-09-09 16:58:20,17673129,,15,0,0,False,House,House,YPA Point Cook,37940,"Milan Gahlyan, Happy Lather","Gas, Secure Parking, Heating",https://www.domain.com.au/70-carmen-road-point-cook-vic-3030-17673129
17673901,POINT COOK,3030,525.0,2281.0,"Monday, 11 August 2025",2025-07-17,54,3.0,2.0,2.0,House,28 Astoria Drive,-37.88691,144.71178,2025-09-09 16:58:20,17673901,,13,0,0,False,House,House,.established Property,4979,Established Property Leasing,"Air conditioning, Secure Parking, Heating",https://www.domain.com.au/28-astoria-drive-point-cook-vic-3030-17673901
17677936,POINT COOK,3030,500.0,2173.0,"Wednesday, 13 August 2025",2025-07-21,50,3.0,2.0,2.0,House,15 Beveridge Court,-37.893032,144.74922,2025-09-09 16:58:20,17677936,,12,0,0,False,House,House,VICPROP Point Cook and Williams Landing,33528,"Lisha Wen, Leasing Team Vicprop","Internal Laundry, Bath, Heating, Dishwasher, Shed",https://www.domain.com.au/15-beveridge-court-point-cook-vic-3030-17677936
17679186,POINT COOK,3030,500.0,2173.0,"Tuesday, 05 August 2025",2025-07-22,49,3.0,2.0,1.0,House,12 Emily Crescent,-37.877823,144.73035,2025-09-09 16:58:20,17679186,,10,0,0,False,House,House,Barry Plant Point Cook,11213,Simon Khouri,"Secure Parking, Heating",https://www.domain.com.au/12-emily-crescent-point-cook-vic-3030-17679186
17681057,POINT COOK,3030,465.0,2020.0,"Monday, 01 September 2025",2025-07-22,48,2.0,1.0,1.0,Apartment / Unit / Flat,1/134 Grassbird Drive,-37.903458,144.71588,2025-09-09 16:58:20,17681057,,17,0,0,False,Apartment,Apartment / Unit / Flat,YPA Point Cook,37940,"Milan Gahlyan, Happy Lather","Air conditioning, Built in wardrobes, Internal Laundry, Dishwasher",https://www.domain.com.au/1-134-grassbird-drive-point-cook-vic-3030-17681057
17684583,POINT COOK,3030,530.0,2303.0,"Thursday, 24 July 2025",2025-07-24,47,4.0,2.0,2.0,House,10 Kittyhawk Road,-37.913723,144.76231,2025-09-09 16:58:20,17684583,,14,0,1,False,House,House,Reliance Real Estate Point Cook,26805,"Zelda Van Rensburg, Krystyna Sujecki, Yash Shaw","Secure Parking, Dishwasher",https://www.domain.com.au/10-kittyhawk-road-point-cook-vic-3030-17684583
17686569,POINT COOK,3030,570.0,2477.0,"Tuesday, 19 August 2025",2025-07-25,46,4.0,2.0,2.0,House,9 Everly Way,-37.90915,144.76973,2025-09-09 16:58:20,17686569,,16,0,1,False,House,House,Reliance Real Estate Point Cook,26805,"Zelda Van Rensburg, Deolinda Moreira, Yash Shaw","Internal Laundry, Secure Parking, Bath, Heating",https://www.domain.com.au/9-everly-way-point-cook-vic-3030-17686569
17687300,POINT COOK,3030,570.0,2477.0,"Wednesday, 03 September 2025",2025-07-28,43,4.0,2.0,2.0,House,19 Victorking Drive,-37.904545,144.72943,2025-09-09 16:58:20,17687300,,10,0,0,False,House,House,Barry Plant Point Cook,11213,Simon Khouri,"Built in wardrobes, Secure Parking, Heating, Study",https://www.domain.com.au/19-victorking-drive-point-cook-vic-3030-17687300
17687838,POINT COOK,3030,525.0,2281.0,"Tuesday, 19 August 2025",2025-07-28,43,4.0,2.0,2.0,House,38 Solitude Crescent,-37.905163,144.72356,2025-09-09 16:58:20,17687838,,7,0,0,False,House,House,Harcourts Rata & Co,30123,Taylah Lowe,"Gas, Internal Laundry, Heating, Built in wardrobes, Close to transport, Close to schools, Carpeted, Openable Windows, Split System Cooling",https://www.domain.com.au/38-solitude-crescent-point-cook-vic-3030-17687838
17690694,POINT COOK,3030,570.0,2477.0,"Tuesday, 05 August 2025",2025-07-29,42,4.0,2.0,2.0,House,13B Tennant Street,-37.888645,144.72554,2025-09-09 16:58:20,17690694,,8,0,0,False,House,House,First National Westwood ,6441,"Emily Hore, Shenay Caglar","Internal Laundry, Secure Parking, Heating, Dishwasher, Shed",https://www.domain.com.au/13b-tennant-street-point-cook-vic-3030-17690694
17692774,POINT COOK,3030,670.0,2912.0,"Monday, 01 September 2025",2025-07-30,41,4.0,2.0,2.0,House,25 Cooinda Way,-37.900246,144.73395,2025-09-09 16:58:20,17692774,,19,0,1,False,House,House,Reliance Real Estate Point Cook,26805,"Zelda Van Rensburg, Deolinda Moreira, Yash Shaw","Secure Parking, Heating, Dishwasher, Balcony / Deck",https://www.domain.com.au/25-cooinda-way-point-cook-vic-3030-17692774
17697180,POINT COOK,3030,600.0,2607.0,"Saturday, 13 September 2025",2025-08-01,39,4.0,3.0,2.0,House,7 Daisy Drive,-37.90483,144.74991,2025-09-09 16:58:20,17697180,,7,0,0,False,House,House,Barry Plant Point Cook,11213,Simon Khouri,"Built in wardrobes, Secure Parking",https://www.domain.com.au/7-daisy-drive-point-cook-vic-3030-17697180
17697830,POINT COOK,3030,750.0,,"Monday, 04 August 2025",2025-08-03,36,4.0,2.0,2.0,House,99 Hemsley Promenade,-37.895008,144.73802,2025-09-09 16:58:20,17697830,,22,0,1,False,House,House,YPA Point Cook,37940,"Milan Gahlyan, Happy Lather","Internal Laundry, Secure Parking, Heating, Dishwasher, Balcony / Deck",https://www.domain.com.au/99-hemsley-promenade-point-cook-vic-3030-17697830
12890481,POINT COOK,3030,689.0,2988.0,"Wednesday, 16 July 2025",2025-06-16,84,4.0,2.0,2.0,House,12 Moncrieff Pde,-37.892525,144.73465,2025-09-09 16:58:26,12890481,QG-7581-CF,11,0,0,False,House,House,Melbourne Residential Real Estate,22398,Wimpie Santoso,,https://www.domain.com.au/12-moncrieff-pde-point-cook-vic-3030-12890481
14945526,POINT COOK,3030,590.0,2564.0,"Tuesday, 08 July 2025",2025-06-23,78,4.0,2.0,2.0,House,14 Baltic Circuit,-37.904507,144.73613,2025-09-09 16:58:26,14945526,MB-0958-PN,9,0,0,False,House,House,Raeon International,29064,Rae Chow,"Secure Parking, Heating, Dishwasher, Bathtub",https://www.domain.com.au/14-baltic-circuit-point-cook-vic-3030-14945526
15099250,POINT COOK,3030,510.0,2216.0,"Thursday, 07 August 2025",2025-07-15,56,4.0,2.0,2.0,House,49 Kellerman Drive,-37.894913,144.7194,2025-09-09 16:58:26,15099250,TX-8616-LO,12,0,0,False,House,House,First National Real Estate Lakra,23132,Vivek Rana,"Intercom, Heating, Dishwasher, Alarm System, Built in wardrobes",https://www.domain.com.au/49-kellerman-drive-point-cook-vic-3030-15099250
15936920,POINT COOK,3030,570.0,,"Tuesday, 29 July 2025",2025-07-01,70,4.0,2.0,2.0,House,1 Dunstan Road,-37.89712,144.73509,2025-09-09 16:58:26,15936920,XZ-9045-QG,14,0,0,False,House,House,Agents'Agency Network Partners,11919,Lovejit Malhi,"Ensuite, Built in wardrobes, Internal Laundry, Bath, Heating, Dishwasher, Secure Parking, Fully fenced, Garden / Courtyard",https://www.domain.com.au/1-dunstan-road-point-cook-vic-3030-15936920
16504963,POINT COOK,3030,695.0,3020.0,"Friday, 08 August 2025",2025-05-15,117,4.0,2.0,2.0,House,58 Fongeo Drive,-37.910423,144.74026,2025-09-09 16:58:26,16504963,EP-8606-IW,15,0,0,False,House,House,VICPROP Point Cook and Williams Landing,33528,"Lisha Wen, Leasing Team Vicprop","Built in wardrobes, Secure Parking, Heating, Study, Balcony / Deck",https://www.domain.com.au/58-fongeo-drive-point-cook-vic-3030-16504963
17062591,POINT COOK,3030,590.0,,"Thursday, 19 June 2025",2025-06-19,81,4.0,2.0,2.0,House,71 Fongeo Drive,-37.91075,144.73807,2025-09-09 16:58:26,17062591,JS-4220-HK,25,0,0,False,House,House,Ausfortune Property,31919,"John chen, Oscar Lei","Built in wardrobes, Gas, Secure Parking, Heating, Dishwasher",https://www.domain.com.au/71-fongeo-drive-point-cook-vic-3030-17062591
17093017,POINT COOK,3030,850.0,,"Tuesday, 02 July 2024",2025-04-04,158,4.0,2.0,2.0,House,18 bell cres,-37.89589,144.7183,2025-09-09 16:58:26,17093017,NT-2445-RZ,16,0,0,False,House,House,Ausfortune Property,31919,"John chen, Oscar Lei","Internal Laundry, Secure Parking, Heating",https://www.domain.com.au/18-bell-cres-point-cook-vic-3030-17093017
17507625,POINT COOK,3030,550.0,2390.0,"Monday, 21 April 2025",2025-03-31,162,4.0,2.0,2.0,House,57 Brownlow Drive,-37.88967,144.72083,2025-09-09 16:58:26,17507625,AN-9297-LR,14,0,0,False,House,House,Biggin Scott Wyndham City | Melton,27527,"Anita Ryall, Jo Arora","Internal Laundry, Secure Parking, Heating, Dishwasher, Study, Solar panels, Balcony / Deck, Air conditioning, Built in wardrobes, Alarm System",https://www.domain.com.au/57-brownlow-drive-point-cook-vic-3030-17507625
17538532,POINT COOK,3030,530.0,2303.0,"Thursday, 22 May 2025",2025-04-22,140,4.0,2.0,2.0,House,34 Dargy Amble,-37.89458,144.72998,2025-09-09 16:58:26,17538532,HY-6349-QZ,9,0,0,False,House,House,REMAX ACPA,34510,Camila Jing,"Secure Parking, Heating",https://www.domain.com.au/34-dargy-amble-point-cook-vic-3030-17538532
17593471,POINT COOK,3030,550.0,2390.0,"Tuesday, 27 May 2025",2025-07-08,63,4.0,2.0,2.0,House,3 Gulf Road,-37.91548,144.78812,2025-09-09 16:58:26,17593471,DH-4171-GA,9,0,0,False,House,House,.established Property,4979,Established Property Leasing,"Internal Laundry, Secure Parking, Heating, Study",https://www.domain.com.au/3-gulf-road-point-cook-vic-3030-17593471
17598768,POINT COOK,3030,595.0,2585.0,"Monday, 13 October 2025",2025-05-30,102,4.0,2.0,2.0,House,18 Grandiflora Grove,-37.902325,144.73926,2025-09-09 16:58:26,17598768,,20,0,1,False,House,House,AGENCY HQ Melbourne West,37657,"Antony Varghese, Giji Antony","Secure Parking, Heating, Broadband Internet Available, Dishwasher, Air conditioning, Reverse Cycle Air Conditioning, Ensuite",https://www.domain.com.au/18-grandiflora-grove-point-cook-vic-3030-17598768
17604605,POINT COOK,3030,600.0,2608.0,"Friday, 27 June 2025",2025-06-04,97,4.0,2.0,2.0,House,53 Wincott Crescent,-37.91209,144.78615,2025-09-09 16:58:26,17604605,,7,0,0,False,House,House,VICPROP Point Cook and Williams Landing,33528,Leasing Team Vicprop,"Pets Allowed, Secure Parking, Bath, Heating, Balcony / Deck",https://www.domain.com.au/53-wincott-crescent-point-cook-vic-3030-17604605
17607123,POINT COOK,3030,530.0,2303.0,"Monday, 30 June 2025",2025-06-05,96,3.0,2.0,2.0,House,90 Boardwalk Boulevard,-37.88344,144.73274,2025-09-09 16:58:26,17607123,,8,0,0,False,House,House,Barry Plant Point Cook,11213,Simon Khouri,"Secure Parking, Heating, Dishwasher",https://www.domain.com.au/90-boardwalk-boulevard-point-cook-vic-3030-17607123
17607566,POINT COOK,3030,600.0,2607.0,"Friday, 04 July 2025",2025-06-05,96,4.0,2.0,2.0,House,1 Cable Drive,-37.91197,144.76663,2025-09-09 16:58:26,17607566,,25,0,1,False,House,House,Everywhere Real Estate,34518,Rentals Department,"Internal Laundry, Study, Alarm System, Rumpus Room, Dishwasher, Bathtub, Gas Appliances, Ducted Heating, Evaporative Cooling, Ensuite(s), Outdoor Entertainment Area, Remote Garage, Secure Parking, Fully fenced, Pets Allowed",https://www.domain.com.au/1-cable-drive-point-cook-vic-3030-17607566
17607567,POINT COOK,3030,600.0,2607.0,"Friday, 04 July 2025",2025-06-05,96,4.0,2.0,2.0,House,1 Cable Drive,-37.91197,144.76663,2025-09-09 16:58:26,17607567,,25,0,1,False,House,House,Everywhere Real Estate. – Metro,20243,Rentals Department,"Internal Laundry, Study, Alarm System, Rumpus Room, Dishwasher, Bathtub, Gas Appliances, Ducted Heating, Evaporative Cooling, Ensuite(s), Outdoor Entertainment Area, Remote Garage, Secure Parking, Fully fenced, Pets Allowed",https://www.domain.com.au/1-cable-drive-point-cook-vic-3030-17607567
17611000,POINT COOK,3030,700.0,,"Thursday, 26 June 2025",2025-06-06,94,4.0,2.0,2.0,House,35 Terrene Terrace,-37.902702,144.73561,2025-09-09 16:58:26,17611000,,12,0,0,False,House,House,Ausky Group,20742,"Vivi Liana, Rental Department","Internal Laundry, Dishwasher, Built in wardrobes, Furnished",https://www.domain.com.au/35-terrene-terrace-point-cook-vic-3030-17611000
17641503,POINT COOK,3030,550.0,2390.0,"Wednesday, 16 July 2025",2025-06-26,74,4.0,2.0,2.0,House,4 Liberator Dr,-37.909405,144.7625,2025-09-09 16:58:26,17641503,,10,0,0,False,House,House,New Aumeca Group,38390,Christine Cheung,,https://www.domain.com.au/4-liberator-dr-point-cook-vic-3030-17641503
17647592,POINT COOK,3030,600.0,2607.0,"Tuesday, 01 July 2025",2025-07-01,70,4.0,2.0,2.0,House,4 Astoria,-37.88598,144.71394,2025-09-09 16:58:26,17647592,,8,0,0,False,House,House,Makaidlan Real Estate,30326,Rose Roeun Pheng,"Air conditioning, Ensuite, Built in wardrobes, Pets Allowed, Gas, Bath, Separate Dining Room, Heating, Dishwasher, Study, Shed, Secure Parking, Fully fenced, Balcony / Deck, Garden / Courtyard, Ground floor, Double glazed windows, Wall / ceiling insulation, Energy efficient appliances",https://www.domain.com.au/4-astoria-point-cook-vic-3030-17647592
17658244,POINT COOK,3030,545.0,2368.0,"Monday, 28 July 2025",2025-07-08,63,4.0,2.0,2.0,House,79 Grassbird Drive,-37.904297,144.71976,2025-09-09 16:58:26,17658244,,10,0,0,False,House,House,Barry Plant Point Cook,11213,Simon Khouri,"Built in wardrobes, Internal Laundry, Secure Parking, Gym, Heating",https://www.domain.com.au/79-grassbird-drive-point-cook-vic-3030-17658244
17669282,POINT COOK,3030,190.0,760.0,"Thursday, 16 January 2025",2025-07-15,56,1.0,1.0,1.0,Studio,16 Tamar Avenue,-37.881493,144.72191,2025-09-09 16:58:26,17669282,,10,0,0,False,Apartment,Studio,The Hopkins Group,17841,"Sonya Rokhlina, James Hickey","Air conditioning, Built in wardrobes, Close to transport, Close to shops, Close to schools, Ensuite, Furnished, Exhaust, Broadband Internet Available, Dishwasher, Floorboards",https://www.domain.com.au/16-tamar-avenue-point-cook-vic-3030-17669282
16859218,POINT COOK,3030,,2260.0,,2024-02-01,586,,,,House,3 Sincere Drive,-37.903316,144.73277,2025-09-09 16:58:32,16859218,IK-9669-CZ,1,0,0,False,House,House,Investors Choice Property Management Pty Ltd,18981,Leasing Team Laverton,"Air conditioning, Gas, Internal Laundry, Secure Parking, Bath, Heating, Dishwasher, Solar panels",https://www.domain.com.au/3-sincere-drive-point-cook-vic-3030-16859218
17054163,POINT COOK,3030,,2476.0,"Wednesday, 10 July 2024",2024-06-07,459,4.0,2.0,2.0,House,23 Hanover Street,-37.89305,144.71408,2025-09-09 16:58:32,17054163,VL-0212-VY,13,0,0,False,House,House,AGENCY HQ Melbourne West,37657,"Antony Varghese, Latha Suresh","Secure Parking, Heating",https://www.domain.com.au/23-hanover-street-point-cook-vic-3030-17054163
17212809,POINT COOK,3030,,2817.0,,2024-09-17,357,4.0,2.0,2.0,House,23 Forum Way,-37.916412,144.78543,2025-09-09 16:58:32,17212809,TI-3710-QD,64,0,0,False,House,House,Sunny City Pty Ltd,32384,Nan Ge,"Gas, Balcony / Deck, Ensuite(s), Secure Parking, Air conditioning, Ensuite, Cable or Satellite, Internal Laundry, Furnished, Built in wardrobes, Dishwasher, Study, Fully fenced, Energy Eff. Rating: 4",https://www.domain.com.au/23-forum-way-point-cook-vic-3030-17212809
