listing_id,suburb,postcode,weekly_rent,bond,available_date,date_listed,days_listed,bedrooms,bathrooms,carspaces,property_type,address,lat,lon,scraped_date,domain_page_id,property_id,photo_count,video_count,floorplans_count,virtual_tour,primary_type,secondary_type,agency,agency_id,agent_names,structured_features,url
15342074,PRESTON,3072,300.0,1200.0,"Friday, 19 September 2025",2025-09-05,4,1,1,,Apartment / Unit / Flat,9 Cooma Street,-37.74152,145.00589,2025-09-09 16:52:01,15342074,,5,0,0,False,Apartment,Apartment / Unit / Flat,Gotham Property,32563,Natalie Subotsch,,https://www.domain.com.au/9-cooma-street-preston-vic-3072-15342074
15976151,PRESTON,3072,570.0,2477.0,"Tuesday, 23 September 2025",2025-09-08,1,2,1,2.0,House,21B Cynga Street,-37.74519,145.01941,2025-09-09 16:52:01,15976151,VE-8586-TP,11,0,0,False,House,House,Biggin & Scott Inner North,23934,Jessica Karamoshou,,https://www.domain.com.au/21b-cynga-street-preston-vic-3072-15976151
16802267,PRESTON,3072,520.0,2260.0,"Monday, 08 September 2025",2025-09-01,8,2,1,1.0,Apartment / Unit / Flat,15/777 Bell Street,-37.743195,144.98204,2025-09-09 16:52:01,16802267,OD-6831-XG,13,1,0,False,Apartment,Apartment / Unit / Flat,Ray White Craigieburn,4110,Ray White Craigieburn,"Internal Laundry, Bath, Balcony / Deck, Intercom, Built in wardrobes, Heating, Secure Parking",https://www.domain.com.au/15-777-bell-street-preston-vic-3072-16802267
17112210,PRESTON,3072,570.0,2477.0,"Wednesday, 08 October 2025",2025-09-08,0,2,2,1.0,Apartment / Unit / Flat,101/380 Bell Street,-37.74454,144.99977,2025-09-09 16:52:01,17112210,,9,0,0,False,Apartment,Apartment / Unit / Flat,Victoria Real Estate Agency Pty Ltd,27202,Sonita Dawood,"Intercom, Built in wardrobes, Dishwasher, Split System Heating, Split System Air Conditioning, Balcony, Secure Parking, Pets Allowed",https://www.domain.com.au/101-380-bell-street-preston-vic-3072-17112210
17119325,PRESTON,3072,470.0,2042.0,"Friday, 10 October 2025",2025-09-08,0,1,1,1.0,Apartment / Unit / Flat,205/380 Bell Street,-37.74454,144.99977,2025-09-09 16:52:01,17119325,,9,0,0,False,Apartment,Apartment / Unit / Flat,Victoria Real Estate Agency Pty Ltd,27202,Sonita Dawood,"Intercom, Built in wardrobes, Dishwasher, Split System Heating, Split System Air Conditioning, Outdoor Entertainment Area, Balcony, Secure Parking",https://www.domain.com.au/205-380-bell-street-preston-vic-3072-17119325
17179537,PRESTON,3072,570.0,2477.0,"Friday, 03 October 2025",2025-09-08,0,2,1,1.0,Apartment / Unit / Flat,106/380 Bell Street,-37.74454,144.99977,2025-09-09 16:52:01,17179537,,7,0,0,False,Apartment,Apartment / Unit / Flat,Victoria Real Estate Agency Pty Ltd,27202,Sonita Dawood,"Built in wardrobes, Dishwasher, Split System Heating, Split System Air Conditioning, Balcony, Remote Garage, Secure Parking, Pets Allowed",https://www.domain.com.au/106-380-bell-street-preston-vic-3072-17179537
17466443,PRESTON,3072,270.0,1173.0,"Tuesday, 19 August 2025",2025-08-12,28,1,1,,Apartment / Unit / Flat,11/245 Gower Street,-37.740784,145.0058,2025-09-09 16:52:01,17466443,VP-7725-SU,6,0,0,False,Apartment,Apartment / Unit / Flat,Ray White Mill Park,12621,"Emmanuela Kanavos, Mill Park Office","Built in wardrobes, Heating",https://www.domain.com.au/11-245-gower-street-preston-vic-3072-17466443
17567350,PRESTON,3072,520.0,2260.0,"Monday, 08 September 2025",2025-09-01,8,2,1,1.0,House,23/777 Bell Street,-37.743195,144.98204,2025-09-09 16:52:01,17567350,JS-4760-MK,16,1,0,False,House,House,Ray White Craigieburn,4110,Ray White Craigieburn,"Internal Laundry, Bath, Balcony / Deck, Intercom, Built in wardrobes, Heating, Secure Parking",https://www.domain.com.au/23-777-bell-street-preston-vic-3072-17567350
17688557,PRESTON,3072,600.0,2607.0,"Monday, 28 July 2025",2025-09-01,8,3,1,2.0,House,13 Clara Street,-37.731537,144.99503,2025-09-09 16:52:01,17688557,,8,0,0,False,House,House,Fletchers Inner North,38320,Elyssa Fortuna,,https://www.domain.com.au/13-clara-street-preston-vic-3072-17688557
17711916,PRESTON,3072,780.0,3389.0,"Monday, 08 September 2025",2025-09-08,1,3,2,2.0,Apartment / Unit / Flat,778Rear High Street,-37.74067,145.00352,2025-09-09 16:52:01,17711916,,8,0,0,False,Apartment,Apartment / Unit / Flat,Love & Co Reservoir,7121,Rebecca Imbrosciano,"Air conditioning, Built in wardrobes, Gas, Internal Laundry",https://www.domain.com.au/778rear-high-street-preston-vic-3072-17711916
17722640,PRESTON,3072,535.0,2325.0,"Monday, 22 September 2025",2025-08-19,21,2,1,2.0,Apartment / Unit / Flat,2/178 Albert Street,-37.73375,145.025,2025-09-09 16:52:01,17722640,,7,0,0,False,Apartment,Apartment / Unit / Flat,Ray White Reservoir,15989,Cesar Sario,"Built in wardrobes, Gas, Internal Laundry, Secure Parking, Heating, Dishwasher",https://www.domain.com.au/2-178-albert-street-preston-vic-3072-17722640
17744771,PRESTON,3072,720.0,3129.0,"Saturday, 06 September 2025",2025-09-03,6,2,2,1.0,Townhouse,4/61 Spring Street,-37.731895,144.99988,2025-09-09 16:52:01,17744771,,9,0,0,False,Townhouse/Villa,Townhouse,Jellis Craig Northcote,15667,"Alicia Cannizzaro, Emma Trethowan","Split System Air Con, Split System Heating, Balcony / Deck, Built in wardrobes, Dishwasher, Intercom, Remote Garage, Secure Parking, Laundry, Open Plan Living",https://www.domain.com.au/4-61-spring-street-preston-vic-3072-17744771
17744849,PRESTON,3072,600.0,2607.0,"Saturday, 13 September 2025",2025-09-03,6,3,1,2.0,House,49 George Street,-37.73243,144.9857,2025-09-09 16:52:01,17744849,,10,0,0,False,House,House,Nicholson Real Estate,11229,Manny Tomazos,"Internal Laundry, Heating",https://www.domain.com.au/49-george-street-preston-vic-3072-17744849
17749931,PRESTON,3072,560.0,2433.0,"Thursday, 18 September 2025",2025-09-05,3,2,2,1.0,Apartment / Unit / Flat,1/43 Belgrove Street,-37.742725,145.01929,2025-09-09 16:52:01,17749931,,10,0,1,False,Apartment,Apartment / Unit / Flat,hockingstuart Preston,2630,"Nathan Besterwitch, Julie Elder","Gas, Balcony / Deck, Air conditioning, Heating, Built in wardrobes, Close to transport, Close to shops, Intercom, Close to schools, Ensuite, Floorboards, Courtyard, Fully fenced, Secure Parking, Dishwasher",https://www.domain.com.au/1-43-belgrove-street-preston-vic-3072-17749931
17750130,PRESTON,3072,530.0,2303.0,"Monday, 29 September 2025",2025-09-05,3,3,1,1.0,Apartment / Unit / Flat,2/79 Tyler Street,-37.733368,145.03156,2025-09-09 16:52:01,17750130,,14,0,0,False,Apartment,Apartment / Unit / Flat,hockingstuart Preston,2630,Priya Sodhi,"Air conditioning, Gas, Internal Laundry, Secure Parking, Bath, Heating, Courtyard",https://www.domain.com.au/2-79-tyler-street-preston-vic-3072-17750130
17750436,PRESTON,3072,800.0,3476.0,"Friday, 05 September 2025",2025-09-08,1,3,2,2.0,House,12 Newcastle Street,-37.7521,145.01137,2025-09-09 16:52:01,17750436,,14,0,0,False,House,House,Nelson Alexander Reservoir,30296,Julie Pasin,"Air conditioning, Reverse Cycle Air Con",https://www.domain.com.au/12-newcastle-street-preston-vic-3072-17750436
17752242,PRESTON,3072,500.0,2172.0,"Thursday, 25 September 2025",2025-09-08,1,2,1,1.0,Apartment / Unit / Flat,207/100 Plenty Road,-37.74986,145.00356,2025-09-09 16:52:01,17752242,,7,0,0,False,Apartment,Apartment / Unit / Flat,The Onsite Manager,20828,Twee Nguyen,,https://www.domain.com.au/207-100-plenty-road-preston-vic-3072-17752242
17753285,PRESTON,3072,600.0,2608.0,"Monday, 22 September 2025",2025-09-09,0,2,1,1.0,House,4/97 Youngman Street,-37.735355,145.00497,2025-09-09 16:52:01,17753285,,9,0,0,False,House,House,Leased and Sold Estate Agents,36316,Lisa Galloro,"Internal Laundry, Secure Parking, Heating, Balcony / Deck",https://www.domain.com.au/4-97-youngman-street-preston-vic-3072-17753285
17753419,PRESTON,3072,460.0,1999.0,"Monday, 15 September 2025",2025-09-09,0,1,1,1.0,House,16/777 Bell Street,-37.743195,144.98204,2025-09-09 16:52:01,17753419,,15,1,0,False,House,House,Ray White Craigieburn,4110,Ray White Craigieburn,"Internal Laundry, Secure Parking, Intercom, Built in wardrobes, Heating, Study, Balcony / Deck",https://www.domain.com.au/16-777-bell-street-preston-vic-3072-17753419
17753974,PRESTON,3072,700.0,,"Tuesday, 09 September 2025",2025-09-09,0,3,1,1.0,Townhouse,8/73 Spring St,-37.731182,144.9997,2025-09-09 16:52:01,17753974,,9,0,0,False,Townhouse/Villa,Townhouse,Colin Knight Real Estate,383,Justyn Knight,"Heating, Balcony / Deck, Built in wardrobes, Secure Parking",https://www.domain.com.au/8-73-spring-st-preston-vic-3072-17753974
15588859,PRESTON,3072,580.0,2520.0,"Thursday, 04 September 2025",2025-07-29,42,3,2,1.0,Apartment / Unit / Flat,208/388 Murray Road,-37.737095,144.99916,2025-09-09 16:52:06,15588859,EO-1194-FF,6,0,0,False,Apartment,Apartment / Unit / Flat,Ray White Reservoir,15989,Laura Demajo,"Built in wardrobes, Gas, Internal Laundry, Secure Parking, Heating, Dishwasher",https://www.domain.com.au/208-388-murray-road-preston-vic-3072-15588859
16398638,PRESTON,3072,680.0,2955.0,"Thursday, 18 September 2025",2025-08-27,13,3,1,1.0,Townhouse,4/73 Spring Street,-37.731167,144.99997,2025-09-09 16:52:06,16398638,EX-7128-KZ,9,0,0,False,Townhouse/Villa,Townhouse,Ray White Preston,28013,Susie Liu,"Built in wardrobes, Secure Parking, Heating, Dishwasher, Balcony / Deck",https://www.domain.com.au/4-73-spring-street-preston-vic-3072-16398638
16599894,PRESTON,3072,650.0,2824.0,"Friday, 05 September 2025",2025-08-06,34,3,1,4.0,House,4 Ruby Street,-37.745953,145.0162,2025-09-09 16:52:06,16599894,PL-5993-GC,16,0,0,False,House,House,Raine & Horne Brunswick Sales,5247,Sara Theodotou,"Built in wardrobes, Gas, Internal Laundry, Heating",https://www.domain.com.au/4-ruby-street-preston-vic-3072-16599894
16802189,PRESTON,3072,520.0,2260.0,"Monday, 08 September 2025",2025-09-01,8,2,1,2.0,Apartment / Unit / Flat,29/777 Bell Street,-37.743195,144.98204,2025-09-09 16:52:06,16802189,WY-2173-SX,16,1,0,False,Apartment,Apartment / Unit / Flat,Ray White Craigieburn,4110,Ray White Craigieburn,"Internal Laundry, Bath, Balcony / Deck, Intercom, Built in wardrobes, Heating, Secure Parking",https://www.domain.com.au/29-777-bell-street-preston-vic-3072-16802189
16802333,PRESTON,3072,520.0,2260.0,"Friday, 11 July 2025",2025-07-02,68,2,1,2.0,Apartment / Unit / Flat,5/777 Bell Street,-37.743195,144.98204,2025-09-09 16:52:06,16802333,PX-6038-DP,17,1,0,False,Apartment,Apartment / Unit / Flat,Ray White Craigieburn,4110,Ray White Craigieburn,"Internal Laundry, Intercom, Bath, Balcony / Deck, Built in wardrobes, Heating, Secure Parking",https://www.domain.com.au/5-777-bell-street-preston-vic-3072-16802333
17303144,PRESTON,3072,820.0,3563.0,"Wednesday, 01 October 2025",2025-09-04,5,3,1,2.0,House,25 Mount Street,-37.741383,144.98808,2025-09-09 16:52:06,17303144,PZ-3405-DU,9,0,0,False,House,House,Ray White Preston,28013,Susie Liu,"Heating, Dishwasher, Shed",https://www.domain.com.au/25-mount-street-preston-vic-3072-17303144
17461460,PRESTON,3072,600.0,2607.0,"Wednesday, 27 August 2025",2025-08-27,13,2,1,1.0,Apartment / Unit / Flat,3/105 Regent Street,-37.730053,144.99414,2025-09-09 16:52:06,17461460,DL-1686-BF,11,0,0,False,Apartment,Apartment / Unit / Flat,Ray White Preston,28013,Susie Liu,"Built in wardrobes, Secure Parking, Heating",https://www.domain.com.au/3-105-regent-street-preston-vic-3072-17461460
17694786,PRESTON,3072,1000.0,4345.0,"Friday, 08 August 2025",2025-07-31,40,4,2,2.0,House,92A Raglan Street,-37.750675,145.01997,2025-09-09 16:52:06,17694786,,21,0,0,False,House,House,LITTLE Real Estate Victoria,24974,"Amira Khatoun, Thomas Molea","Internal Laundry, Secure Parking, Bath, Fireplace(s), Heating, Kitchen: Modern, Cooking: Gas Hotplates and Electric Oven, Pool/Spa Count: 0",https://www.domain.com.au/92a-raglan-street-preston-vic-3072-17694786
17713995,PRESTON,3072,510.0,2216.0,"Friday, 22 August 2025",2025-08-13,27,2,1,1.0,Apartment / Unit / Flat,3/114 Gower Street Street,-37.74189,145.02014,2025-09-09 16:52:06,17713995,,8,0,0,False,Apartment,Apartment / Unit / Flat,Woodards Northcote-Thornbury,5639,Mary Khudhur,"Internal Laundry, Bath, Heating, Air conditioning, Built in wardrobes, Garden / Courtyard, Dishwasher, Floorboards, Fully fenced, Gas, Shed",https://www.domain.com.au/3-114-gower-street-street-preston-vic-3072-17713995
17714560,PRESTON,3072,990.0,4302.0,"Wednesday, 20 August 2025",2025-08-13,26,4,2,1.0,House,109A Bruce Street,-37.741634,144.99182,2025-09-09 16:52:06,17714560,,13,0,0,False,House,House,RT Edgar - Northside,32225,Lily Passarelli,"Balcony / Deck, Built in wardrobes, Dishwasher, Ducted Heating, Evaporative Cooling, Floorboards, Remote Garage, Rumpus Room, Ensuite",https://www.domain.com.au/109a-bruce-street-preston-vic-3072-17714560
17736268,PRESTON,3072,800.0,3476.0,"Wednesday, 24 September 2025",2025-08-28,12,3,2,2.0,Townhouse,1B Hubert Street,-37.73486,145.00575,2025-09-09 16:52:06,17736268,,10,0,0,False,Townhouse/Villa,Townhouse,Ray White Northcote,37294,George Boutsiavaras,"Heating, Balcony / Deck",https://www.domain.com.au/1b-hubert-street-preston-vic-3072-17736268
17740620,PRESTON,3072,460.0,1999.0,"Monday, 08 September 2025",2025-09-01,8,1,1,1.0,House,18/777 Bell Street,-37.743195,144.98204,2025-09-09 16:52:06,17740620,,15,1,0,False,House,House,Ray White Craigieburn,4110,Ray White Craigieburn,"Built in wardrobes, Internal Laundry, Study, Balcony / Deck, Intercom, Heating, Secure Parking",https://www.domain.com.au/18-777-bell-street-preston-vic-3072-17740620
17744112,PRESTON,3072,820.0,3563.0,"Wednesday, 10 September 2025",2025-09-02,6,4,2,2.0,House,12A Roseberry Avenue,-37.73926,145.0098,2025-09-09 16:52:06,17744112,,11,0,1,False,House,House,hockingstuart Preston,2630,Nathan Besterwitch,"Gas, Internal Laundry, Air conditioning, Heating, Built in wardrobes, Close to transport, Close to shops, Close to schools, Floorboards, Courtyard, Secure Parking, Water Tank, Dishwasher",https://www.domain.com.au/12a-roseberry-avenue-preston-vic-3072-17744112
17745726,PRESTON,3072,450.0,1955.0,"Tuesday, 28 October 2025",2025-09-03,6,1,1,1.0,Apartment / Unit / Flat,110/356 Bell Street,-37.7447,145.00084,2025-09-09 16:52:06,17745726,,6,0,0,False,Apartment,Apartment / Unit / Flat,Jellis Craig Whitehorse,20157,"William Ferraro, Naomi Henderson","Built in wardrobes, Internal Laundry, Dishwasher",https://www.domain.com.au/110-356-bell-street-preston-vic-3072-17745726
17745966,PRESTON,3072,560.0,2433.0,"Friday, 19 September 2025",2025-09-03,6,2,1,1.0,Apartment / Unit / Flat,72/93-103 High Street,-37.749226,145.00195,2025-09-09 16:52:06,17745966,,13,0,1,True,Apartment,Apartment / Unit / Flat,Love & Co Reservoir,7121,Shelli Martin,"Gas, Balcony / Deck, Heating, Built in wardrobes, Close to transport, Close to shops, Intercom, Close to schools, Car Parking - Basement, Split System",https://www.domain.com.au/72-93-103-high-street-preston-vic-3072-17745966
17746538,PRESTON,3072,550.0,2390.0,"Friday, 19 September 2025",2025-09-04,5,2,1,1.0,Apartment / Unit / Flat,1/18 Gilbert Road,-37.75054,144.98828,2025-09-09 16:52:06,17746538,,11,0,0,False,Apartment,Apartment / Unit / Flat,Nelson Alexander Reservoir,30296,Kelsey Lincoln,"Built in wardrobes, Internal Laundry, Heating, Dishwasher, Balcony / Deck, Air conditioning, Reverse Cycle Air Con",https://www.domain.com.au/1-18-gilbert-road-preston-vic-3072-17746538
17746623,PRESTON,3072,575.0,2499.0,"Thursday, 02 October 2025",2025-09-04,5,2,2,1.0,Apartment / Unit / Flat,111/183 High Street,-37.74667,145.00246,2025-09-09 16:52:06,17746623,,7,0,0,False,Apartment,Apartment / Unit / Flat,Nelson Alexander Fitzroy,4718,Shona Brewer,"Gas, Internal Laundry, Heating, Dishwasher, Balcony / Deck",https://www.domain.com.au/111-183-high-street-preston-vic-3072-17746623
17747316,PRESTON,3072,710.0,3085.0,"Thursday, 04 September 2025",2025-09-04,5,3,2,2.0,House,14 Devon Street,-37.75007,144.99153,2025-09-09 16:52:06,17747316,,11,0,1,False,House,House,Ray White Northcote,37294,George Boutsiavaras,"Internal Laundry, Secure Parking, Heating",https://www.domain.com.au/14-devon-street-preston-vic-3072-17747316
17747769,PRESTON,3072,530.0,2303.0,"Monday, 08 September 2025",2025-09-04,5,2,1,1.0,Apartment / Unit / Flat,103/277 Raglan Street,-37.749115,145.00307,2025-09-09 16:52:06,17747769,,11,0,0,False,Apartment,Apartment / Unit / Flat,Nelson Alexander Reservoir,30296,"Stephanie Shamoon, Eleni Katsaros","Air conditioning, Gas, Secure Parking, Heating, Balcony / Deck",https://www.domain.com.au/103-277-raglan-street-preston-vic-3072-17747769
17749157,PRESTON,3072,440.0,1912.0,"Friday, 19 September 2025",2025-09-05,4,2,1,1.0,Apartment / Unit / Flat,4/51 Asling Street,-37.736168,144.99449,2025-09-09 16:52:06,17749157,,6,0,0,False,Apartment,Apartment / Unit / Flat,Haughton Stotts Real Estate,11284,Roula Fotinatos,,https://www.domain.com.au/4-51-asling-street-preston-vic-3072-17749157
16429934,PRESTON,3072,530.0,2303.0,"Wednesday, 24 September 2025",2025-08-28,12,2,2,1.0,Apartment / Unit / Flat,3/505 Plenty Road,-37.735397,145.01276,2025-09-09 16:52:11,16429934,GD-2013-KQ,6,0,1,False,Apartment,Apartment / Unit / Flat,LITTLE Real Estate Victoria,24974,Amira Khatoun,"Built in wardrobes, Secure Parking, Intercom, Heating: Reverse Cycle Air Conditioning, Cooling: Reverse Cycle Air Conditioning, Kitchen: Modern, Cooking: Gas Hotplates and Electric Oven, Laundry: Internal, Pool/Spa Count: 0",https://www.domain.com.au/3-505-plenty-road-preston-vic-3072-16429934
16572900,PRESTON,3072,560.0,2433.0,"Tuesday, 16 September 2025",2025-08-11,28,2,2,1.0,Apartment / Unit / Flat,416/388 Murray Road,-37.737095,144.99916,2025-09-09 16:52:11,16572900,RY-9085-JP,9,0,0,False,Apartment,Apartment / Unit / Flat,Ray White Reservoir,15989,Laura Demajo,"Built in wardrobes, Gas, Internal Laundry, Intercom, Heating, Dishwasher",https://www.domain.com.au/416-388-murray-road-preston-vic-3072-16572900
17713443,PRESTON,3072,730.0,3172.0,"Friday, 22 August 2025",2025-08-13,27,3,1,2.0,House,8 Stafford Street,-37.74582,144.9849,2025-09-09 16:52:11,17713443,,20,0,0,False,House,House,Nelson Alexander Reservoir,30296,"Leo Maugeri, Kelsey Lincoln","Built in wardrobes, Internal Laundry, Secure Parking, Bath, Shed",https://www.domain.com.au/8-stafford-street-preston-vic-3072-17713443
17723091,PRESTON,3072,700.0,3042.0,"Saturday, 23 August 2025",2025-08-20,20,3,1,4.0,House,9 Beauchamp Street,-37.738136,145.01059,2025-09-09 16:52:11,17723091,,12,0,0,True,House,House,Love & Co Reservoir,7121,David Quattrocchi,"Internal Laundry, Air conditioning, Heating, Close to transport, Close to shops, Close to schools, Car Parking - Surface, Split System",https://www.domain.com.au/9-beauchamp-street-preston-vic-3072-17723091
17735074,PRESTON,3072,700.0,3259.0,"Friday, 05 September 2025",2025-08-27,13,3,1,1.0,House,214 Tyler Street,-37.731026,145.01395,2025-09-09 16:52:11,17735074,,9,0,0,False,House,House,Barry Plant Northcote & Preston,36977,Isabelle Wilk,"Built in wardrobes, Internal Laundry, Secure Parking, Air conditioning, Heating, Close to transport, Close to shops, Close to schools, City Views, Study",https://www.domain.com.au/214-tyler-street-preston-vic-3072-17735074
17735252,PRESTON,3072,530.0,2303.0,"Friday, 19 September 2025",2025-08-27,13,2,1,1.0,Apartment / Unit / Flat,6/2 Little Wurruk Lane,-37.733257,145.00816,2025-09-09 16:52:11,17735252,,11,0,0,True,Apartment,Apartment / Unit / Flat,Barry Plant Northcote & Preston,36977,Isabelle Wilk,,https://www.domain.com.au/6-2-little-wurruk-lane-preston-vic-3072-17735252
17735342,PRESTON,3072,850.0,3693.0,"Thursday, 28 August 2025",2025-08-27,13,3,1,2.0,House,50 Victoria Street,-37.74893,145.01677,2025-09-09 16:52:11,17735342,,16,0,0,False,House,House,Nelson Alexander Reservoir,30296,Julie Pasin,"Air conditioning, Reverse Cycle Air Con",https://www.domain.com.au/50-victoria-street-preston-vic-3072-17735342
17735446,PRESTON,3072,595.0,2585.0,"Monday, 15 September 2025",2025-08-27,12,2,1,,House,25 Showers Street,-37.748558,144.99852,2025-09-09 16:52:11,17735446,,17,0,1,False,House,House,Nelson Alexander Reservoir,30296,"Leo Maugeri, William Kuzu","Air conditioning, Built in wardrobes, Internal Laundry, Dishwasher",https://www.domain.com.au/25-showers-street-preston-vic-3072-17735446
17736235,PRESTON,3072,550.0,2390.0,"Thursday, 28 August 2025",2025-08-28,12,3,1,2.0,House,68 Wood Street,-37.735714,145.02776,2025-09-09 16:52:11,17736235,,10,0,0,False,House,House,Barry Plant Caroline Springs,11528,"Garnet Rodrigues, Property Management","Secure Parking, Study, Balcony / Deck",https://www.domain.com.au/68-wood-street-preston-vic-3072-17736235
17736488,PRESTON,3072,460.0,1999.0,"Monday, 22 September 2025",2025-08-28,12,1,1,1.0,Apartment / Unit / Flat,313/5 Blanch Street,-37.745342,144.99953,2025-09-09 16:52:11,17736488,,5,0,0,False,Apartment,Apartment / Unit / Flat,Nelson Alexander Reservoir,30296,"Leo Maugeri, Stephanie Shamoon","Internal Laundry, Balcony / Deck",https://www.domain.com.au/313-5-blanch-street-preston-vic-3072-17736488
17737766,PRESTON,3072,580.0,2520.0,"Friday, 12 September 2025",2025-08-29,11,2,2,1.0,Apartment / Unit / Flat,223/388 Murray Road,-37.737095,144.99916,2025-09-09 16:52:11,17737766,,9,0,1,False,Apartment,Apartment / Unit / Flat,RT Edgar - Northside,32225,Notis Karidakis,"Internal Laundry, Split System Heating, Balcony / Deck, Built in wardrobes, Dishwasher, Floorboards, Intercom, Reverse Cycle Air Con, Secure Parking",https://www.domain.com.au/223-388-murray-road-preston-vic-3072-17737766
17738145,PRESTON,3072,520.0,2260.0,"Friday, 29 August 2025",2025-08-29,11,3,1,2.0,House,6 Ambon Street,-37.735085,145.02756,2025-09-09 16:52:11,17738145,,9,0,0,False,House,House,Barry Plant Caroline Springs,11528,"Garnet Rodrigues, Property Management","Gas, Internal Laundry",https://www.domain.com.au/6-ambon-street-preston-vic-3072-17738145
17738884,PRESTON,3072,1200.0,6000.0,"Friday, 05 September 2025",2025-08-29,11,4,2,2.0,House,118A Raglan Street,-37.750404,145.01779,2025-09-09 16:52:11,17738884,,12,0,0,False,House,House,Collings Real Estate,11934,Daniel Mendonca,"Bath, Heating, Shed",https://www.domain.com.au/118a-raglan-street-preston-vic-3072-17738884
17739211,PRESTON,3072,895.0,3889.0,"Monday, 08 September 2025",2025-08-29,10,8,2,2.0,House,88 Spring Street,-37.731323,145.00069,2025-09-09 16:52:11,17739211,,15,0,0,False,House,House,VICPROP Manningham,29196,Kaan Arel,Built in wardrobes,https://www.domain.com.au/88-spring-street-preston-vic-3072-17739211
17739978,PRESTON,3072,700.0,3042.0,"Monday, 29 September 2025",2025-09-01,8,2,2,1.0,Townhouse,5/376 Plenty Roads,-37.74184,145.00967,2025-09-09 16:52:11,17739978,,11,0,1,False,Townhouse/Villa,Townhouse,VICPROP Manningham,29196,Kaan Arel,"Gas, Internal Laundry, Heating, Dishwasher",https://www.domain.com.au/5-376-plenty-roads-preston-vic-3072-17739978
17741702,PRESTON,3072,525.0,2281.0,"Monday, 15 September 2025",2025-09-01,8,2,1,1.0,Apartment / Unit / Flat,503/49 Plenty Road,-37.749897,145.00307,2025-09-09 16:52:11,17741702,,8,0,0,False,Apartment,Apartment / Unit / Flat,McGrath Northcote,5484,Marie Demiris,"Air conditioning, Heating, Built in wardrobes, Close to transport, Close to shops, Close to schools, Carpeted",https://www.domain.com.au/503-49-plenty-road-preston-vic-3072-17741702
17741944,PRESTON,3072,440.0,1912.0,"Saturday, 06 September 2025",2025-09-01,7,2,1,1.0,Apartment / Unit / Flat,4/7 Bartlett Street,-37.731724,144.99355,2025-09-09 16:52:11,17741944,,7,0,0,False,Apartment,Apartment / Unit / Flat,Nelson Alexander Reservoir,30296,"Leo Maugeri, Dianna Kefaloukos","Built in wardrobes, Gas, Internal Laundry, Heating",https://www.domain.com.au/4-7-bartlett-street-preston-vic-3072-17741944
17741958,PRESTON,3072,500.0,2173.0,"Wednesday, 17 September 2025",2025-09-01,7,2,1,1.0,Apartment / Unit / Flat,2/5 Tasman Street,-37.74249,144.98561,2025-09-09 16:52:11,17741958,,9,0,1,False,Apartment,Apartment / Unit / Flat,Nelson Alexander Reservoir,30296,"Leo Maugeri, Dianna Kefaloukos","Built in wardrobes, Internal Laundry, Heating, Air conditioning, Reverse Cycle Air Con",https://www.domain.com.au/2-5-tasman-street-preston-vic-3072-17741958
17742412,PRESTON,3072,495.0,2151.0,"Wednesday, 03 September 2025",2025-09-02,7,2,1,1.0,Apartment / Unit / Flat,5/1 West Street,-37.736687,145.0025,2025-09-09 16:52:11,17742412,,9,0,0,False,Apartment,Apartment / Unit / Flat,Love & Co Reservoir,7121,Sarah Wight,"Internal Laundry, Bath, Heating, Built in wardrobes, Close to transport, Close to shops, Close to schools",https://www.domain.com.au/5-1-west-street-preston-vic-3072-17742412
17743607,PRESTON,3072,850.0,3693.0,"Tuesday, 02 September 2025",2025-09-02,7,4,1,3.0,House,69 St Georges Road,-37.74541,144.99693,2025-09-09 16:52:11,17743607,,11,0,0,False,House,House,Barry Plant Caroline Springs,11528,"Garnet Rodrigues, Property Management",Internal Laundry,https://www.domain.com.au/69-st-georges-road-preston-vic-3072-17743607
15328464,PRESTON,3072,770.0,3346.0,"Tuesday, 26 August 2025",2025-08-12,28,4,1,,House,255 Wood Street,-37.733852,145.0072,2025-09-09 16:52:15,15328464,EH-2938-HR,7,0,0,False,House,House,Biggin & Scott Inner North,23934,Emily Karamoshou,,https://www.domain.com.au/255-wood-street-preston-vic-3072-15328464
16699336,PRESTON,3072,550.0,,"Monday, 18 November 2024",2024-11-18,295,4,2,1.0,House,448 Plenty Road,-37.73905,145.01161,2025-09-09 16:52:15,16699336,DJ-2031-LC,8,1,0,False,House,House,Maxion Real Estate,34310,Cactus Li,"Air conditioning, Heating, Alarm System, Furnished, Car Parking - Surface",https://www.domain.com.au/448-plenty-road-preston-vic-3072-16699336
17113382,PRESTON,3072,,2086.0,"Tuesday, 03 September 2024",2024-07-15,421,2,1,1.0,Apartment / Unit / Flat,120/100 Plenty Road,-37.74986,145.00356,2025-09-09 16:52:15,17113382,FS-3220-NQ,9,1,0,False,Apartment,Apartment / Unit / Flat,The Onsite Manager,20828,Twee Nguyen,"Secure Parking, Balcony / Deck",https://www.domain.com.au/120-100-plenty-road-preston-vic-3072-17113382
17580048,PRESTON,3072,590.0,2564.0,"Monday, 19 May 2025",2025-07-07,64,3,1,,House,21 Pender Street,-37.737293,145.01024,2025-09-09 16:52:15,17580048,EJ-7642-NW,10,0,0,False,House,House,Love & Co Thomastown,7125,Nikki Vo,"Pets Allowed, Heating",https://www.domain.com.au/21-pender-street-preston-vic-3072-17580048
17652434,PRESTON,3072,530.0,2303.0,"Thursday, 03 July 2025",2025-07-03,67,3,1,1.0,House,1/16 AMBON STREET,-37.73438,145.0276,2025-09-09 16:52:15,17652434,,9,0,0,False,House,House,Leaders Real Estate,18070,Daniel Chin,"Fully fenced, Air conditioning, Reverse Cycle Air Conditioning",https://www.domain.com.au/1-16-ambon-street-preston-vic-3072-17652434
17680397,PRESTON,3072,490.0,2129.0,"Saturday, 09 August 2025",2025-07-22,49,1,1,1.0,Apartment / Unit / Flat,10/149 Dundas Street,-37.753563,145.01428,2025-09-09 16:52:15,17680397,,10,0,0,False,Apartment,Apartment / Unit / Flat,Nelson Alexander Northcote,4721,"David Barnes, Yana Colosimo","Built in wardrobes, Gas, Intercom, Dishwasher, Balcony / Deck",https://www.domain.com.au/10-149-dundas-street-preston-vic-3072-17680397
17684668,PRESTON,3072,550.0,2390.0,"Tuesday, 22 July 2025",2025-07-24,47,2,1,1.0,Apartment / Unit / Flat,1/2 Dermot Street,-37.747845,145.01381,2025-09-09 16:52:15,17684668,,11,0,0,False,Apartment,Apartment / Unit / Flat,Harcourts Rata & Co,30123,Chevy Wilson,"Secure Parking, Fully fenced, Heating, Built in wardrobes, Close to transport, Close to shops, Close to schools, Carpeted, Openable Windows",https://www.domain.com.au/1-2-dermot-street-preston-vic-3072-17684668
17693392,PRESTON,3072,600.0,2607.0,"Thursday, 31 July 2025",2025-07-31,40,2,1,1.0,Townhouse,2/1 Bailey Avenue,-37.75169,145.0153,2025-09-09 16:52:15,17693392,,9,1,1,False,Townhouse/Villa,Townhouse,MRE,20795,Jivaan Carlyon,"Built in wardrobes, Car Accom: Carport, Heating: Reverse Cycle Air Conditioning, Cooling: Reverse Cycle Air Conditioning, Pool/Spa Count: 0, Furnished",https://www.domain.com.au/2-1-bailey-avenue-preston-vic-3072-17693392
17697841,PRESTON,3072,450.0,1955.0,"Sunday, 03 August 2025",2025-08-03,36,2,1,1.0,Apartment / Unit / Flat,3/12 Lyonsville Avenue,-37.739017,145.02136,2025-09-09 16:52:15,17697841,,7,0,0,False,Apartment,Apartment / Unit / Flat,Golden Empire Real Estate,30824,,Built in wardrobes,https://www.domain.com.au/3-12-lyonsville-avenue-preston-vic-3072-17697841
17702519,PRESTON,3072,1150.0,4997.0,"Tuesday, 05 August 2025",2025-08-06,34,5,3,2.0,House,143 Bruce Street,-37.74108,144.98552,2025-09-09 16:52:15,17702519,,20,0,0,False,House,House,Nelson Alexander Reservoir,30296,Julie Pasin,"Internal Laundry, Intercom, Bath, Fireplace(s), Dishwasher, Balcony / Deck, Air conditioning, Reverse Cycle Air Con",https://www.domain.com.au/143-bruce-street-preston-vic-3072-17702519
17711958,PRESTON,3072,580.0,2607.0,"Tuesday, 12 August 2025",2025-08-12,28,2,1,1.0,Apartment / Unit / Flat,4/1 Lunette Avenue,-37.73333,145.00578,2025-09-09 16:52:15,17711958,,5,0,0,False,Apartment,Apartment / Unit / Flat,Love & Co Reservoir,7121,Jason Herbert,"Built in wardrobes, Internal Laundry, Secure Parking, Intercom, Heating, Balcony / Deck, Close to transport, Close to shops, Close to schools",https://www.domain.com.au/4-1-lunette-avenue-preston-vic-3072-17711958
17715034,PRESTON,3072,730.0,3172.0,"Friday, 05 September 2025",2025-08-14,26,3,2,2.0,Townhouse,1/57 Jensen Road,-37.738007,145.0242,2025-09-09 16:52:15,17715034,,10,0,1,False,Townhouse/Villa,Townhouse,Nelson Alexander Reservoir,30296,"William Kuzu, Leo Maugeri","Built in wardrobes, Internal Laundry, Secure Parking, Intercom, Heating, Dishwasher, Balcony / Deck, Air conditioning, Reverse Cycle Air Con",https://www.domain.com.au/1-57-jensen-road-preston-vic-3072-17715034
17723460,PRESTON,3072,580.0,2520.0,"Thursday, 18 September 2025",2025-08-20,20,2,2,2.0,Townhouse,2/178 Wood Street,-37.73466,145.01764,2025-09-09 16:52:15,17723460,,8,0,0,False,Townhouse/Villa,Townhouse,Peter Leahy Real Estate,25056,"Jacob Gioulekas, Rental Department","Gas, Internal Laundry, Pets Allowed, Secure Parking, Built in wardrobes, Dishwasher, Bathtub, Split System Heating, Split System Air Conditioning, Outdoor Entertainment Area, Water Tank",https://www.domain.com.au/2-178-wood-street-preston-vic-3072-17723460
17726003,PRESTON,3072,540.0,2346.0,"Monday, 29 September 2025",2025-08-21,19,2,1,1.0,Townhouse,83B Tyler St,-37.733223,145.03119,2025-09-09 16:52:15,17726003,,11,0,0,False,Townhouse/Villa,Townhouse,McDonald Upton,11154,Tamara Petrevska,"Secure Parking, Air conditioning, Shed, Built in wardrobes, Dishwasher, Internal Laundry",https://www.domain.com.au/83b-tyler-st-preston-vic-3072-17726003
17729253,PRESTON,3072,600.0,2607.0,"Saturday, 20 September 2025",2025-08-25,15,2,1,,House,10 Milton Crescent,-37.750526,145.00375,2025-09-09 16:52:15,17729253,,11,0,0,False,House,House,Barry Plant Reservoir,15050,Tina Foufoulas,"Internal Laundry, Heating",https://www.domain.com.au/10-milton-crescent-preston-vic-3072-17729253
17729255,PRESTON,3072,660.0,2868.0,"Thursday, 18 September 2025",2025-08-25,15,3,2,2.0,Townhouse,14C Myrtle Grove,-37.729828,144.99867,2025-09-09 16:52:15,17729255,,12,0,0,False,Townhouse/Villa,Townhouse,Barry Plant Reservoir,15050,Tina Foufoulas,"Secure Parking, Heating",https://www.domain.com.au/14c-myrtle-grove-preston-vic-3072-17729255
17730310,PRESTON,3072,700.0,3042.0,"Monday, 25 August 2025",2025-08-25,15,3,1,,House,14 Goldsmith Avenue,-37.733196,145.01244,2025-09-09 16:52:15,17730310,,6,0,0,False,House,House,Barry Plant Northcote & Preston,36977,Virginia Sanchez,"Air conditioning, Gas, Heating, Shed",https://www.domain.com.au/14-goldsmith-avenue-preston-vic-3072-17730310
17730656,PRESTON,3072,680.0,2955.0,"Saturday, 06 September 2025",2025-08-25,15,3,2,1.0,House,635 Bell Street,-37.743923,144.98775,2025-09-09 16:52:15,17730656,,10,0,0,False,House,House,Nelson Alexander Northcote,4721,"David Barnes, Yana Colosimo","Built in wardrobes, Internal Laundry, Secure Parking, Ducted Heating, Gas",https://www.domain.com.au/635-bell-street-preston-vic-3072-17730656
17732789,PRESTON,3072,700.0,3042.0,"Saturday, 13 September 2025",2025-08-26,14,3,1,1.0,House,71 Wilcox Street,-37.73613,145.00647,2025-09-09 16:52:15,17732789,,7,0,0,False,House,House,Areal Property - South Morang,35521,"Demi Georga, Ayda Badri","Heating, Dishwasher, Balcony / Deck",https://www.domain.com.au/71-wilcox-street-preston-vic-3072-17732789
