listing_id,suburb,postcode,weekly_rent,bond,available_date,date_listed,days_listed,bedrooms,bathrooms,carspaces,property_type,address,lat,lon,scraped_date,domain_page_id,property_id,photo_count,video_count,floorplans_count,virtual_tour,primary_type,secondary_type,agency,agency_id,agent_names,structured_features,url
14063593,ST ALBANS,3021,340.0,1477.0,"Thursday, 18 September 2025",2025-09-01,8,1,1,1.0,Apartment / Unit / Flat,2/7 Gertrude Street,-37.740814,144.79544,2025-09-09 17:38:48,14063593,NE-4811-ML,5,0,0,False,Apartment,Apartment / Unit / Flat,Raine & Horne Brunswick Sales,5247,Jake Higgins,"Internal Laundry, Heating, Ensuite",https://www.domain.com.au/2-7-gertrude-street-st-albans-vic-3021-14063593
15649206,ST ALBANS,3021,525.0,2275.0,"Friday, 15 August 2025",2025-07-17,54,3,2,1.0,House,5 Station Avenue,-37.742054,144.81189,2025-09-09 17:38:48,15649206,ZK-7211-FN,1,0,0,False,House,House,Raine & Horne Blackburn,29609,"Patrick Mane, Rupa Mane","Secure Parking, Heating",https://www.domain.com.au/5-station-avenue-st-albans-vic-3021-15649206
16960483,ST ALBANS,3021,500.0,2167.0,"Wednesday, 03 September 2025",2025-09-03,6,3,1,2.0,House,1 Pottenger Way,-37.760403,144.80397,2025-09-09 17:38:48,16960483,TX-0271-NP,12,0,0,False,House,House,Biggin & Scott Deer Park,4688,Elena Mandalas,,https://www.domain.com.au/1-pottenger-way-st-albans-vic-3021-16960483
17126521,ST ALBANS,3021,430.0,1869.0,"Monday, 22 September 2025",2025-09-05,4,2,1,1.0,Apartment / Unit / Flat,6/428 Main Road West,-37.7428,144.78917,2025-09-09 17:38:48,17126521,IQ-7341-FK,10,0,0,False,Apartment,Apartment / Unit / Flat,Westside Real Estate,12961,Leasing,"Air conditioning, Gas, Heating",https://www.domain.com.au/6-428-main-road-west-st-albans-vic-3021-17126521
17292147,ST ALBANS,3021,400.0,1733.0,"Monday, 08 September 2025",2025-08-18,22,2,1,1.0,Townhouse,3/48-50 William Street,-37.73736,144.81644,2025-09-09 17:38:48,17292147,XI-6222-OJ,11,0,0,False,Townhouse/Villa,Townhouse, Sweeney Estate Agents St. Albans,18290,"Roz Gauci, Administration Sunshine","Built in wardrobes, Internal Laundry, Secure Parking, Bath, Heating, Dishwasher, Balcony / Deck, Intercom, Tennis Court",https://www.domain.com.au/3-48-50-william-street-st-albans-vic-3021-17292147
17662328,ST ALBANS,3021,180.0,360.0,"Friday, 11 July 2025",2025-07-10,61,1,3,,House,68 View St,-37.739555,144.80519,2025-09-09 17:38:48,17662328,,14,0,0,False,House,House,Realty Finder Group,37363,"Peter Dang, Tam Huynh","Broadband internet access, Air conditioning, Garden / Courtyard, Fully fenced, Floorboards, Internal Laundry, Furnished",https://www.domain.com.au/68-view-st-st-albans-vic-3021-17662328
17671877,ST ALBANS,3021,330.0,1434.0,"Wednesday, 16 July 2025",2025-09-02,7,1,1,1.0,Apartment / Unit / Flat,1/12 Marsden Crescent,-37.74507,144.79852,2025-09-09 17:38:48,17671877,,8,0,0,False,Apartment,Apartment / Unit / Flat,Westside Real Estate,12961,"Leasing, Ritesh Chauhan","Alarm System, Built in wardrobes, Air conditioning",https://www.domain.com.au/1-12-marsden-crescent-st-albans-vic-3021-17671877
17696918,ST ALBANS,3021,520.0,2253.0,"Friday, 01 August 2025",2025-08-01,39,3,1,2.0,House,1 Kubura Place,-37.748276,144.82721,2025-09-09 17:38:48,17696918,,8,0,0,False,House,House,Raine & Horne St Albans,19493,"Ana Lamprou, Jelena Milosevic","Built in wardrobes, Gas, Bath, Balcony / Deck",https://www.domain.com.au/1-kubura-place-st-albans-vic-3021-17696918
17705908,ST ALBANS,3021,390.0,1690.0,"Friday, 08 August 2025",2025-08-07,33,2,1,1.0,Apartment / Unit / Flat,3/66-68 Avondale Avenue,-37.740807,144.81586,2025-09-09 17:38:48,17705908,,10,0,0,False,Apartment,Apartment / Unit / Flat,Raine & Horne St Albans,19493,"Danny Trkulja, Jelena Milosevic","Air conditioning, Built in wardrobes",https://www.domain.com.au/3-66-68-avondale-avenue-st-albans-vic-3021-17705908
17719503,ST ALBANS,3021,500.0,2173.0,"Tuesday, 26 August 2025",2025-08-18,22,3,1,3.0,House,99 Alfrieda Street,-37.735424,144.80176,2025-09-09 17:38:48,17719503,,10,0,0,False,House,House,Create Real Estate,13833,Create Rentals,"Gas, Internal Laundry, Separate Dining Room",https://www.domain.com.au/99-alfrieda-street-st-albans-vic-3021-17719503
17733764,ST ALBANS,3021,400.0,1733.0,"Friday, 29 August 2025",2025-08-27,13,2,1,2.0,House,19 Harmon Ave,-37.742,144.81822,2025-09-09 17:38:48,17733764,,7,0,0,False,House,House,Raine & Horne St Albans,19493,"Ana Lamprou, Jelena Milosevic","Built in wardrobes, Internal Laundry",https://www.domain.com.au/19-harmon-ave-st-albans-vic-3021-17733764
17737811,ST ALBANS,3021,480.0,2086.0,"Friday, 29 August 2025",2025-08-29,11,3,1,2.0,House,14 Currunghi Court,-37.7526,144.8267,2025-09-09 17:38:48,17737811,,15,0,0,False,House,House,Professionals Taylors Lakes,8505,Julia Crisara,"Air conditioning, Built in wardrobes, Secure Parking, Heating, Laundry",https://www.domain.com.au/14-currunghi-court-st-albans-vic-3021-17737811
17738539,ST ALBANS,3021,400.0,1738.0,"Tuesday, 09 September 2025",2025-08-29,11,2,1,1.0,Townhouse,2/10 John Street,-37.738396,144.78679,2025-09-09 17:38:48,17738539,,6,0,0,False,Townhouse/Villa,Townhouse,Barry Plant St Albans,4690,"Peter D'aloia, Richard Chau","Secure Parking, Bath, Dishwasher, Air conditioning, Built in wardrobes, Close to transport, Close to shops, Spa",https://www.domain.com.au/2-10-john-street-st-albans-vic-3021-17738539
17740579,ST ALBANS,3021,650.0,2824.0,"Friday, 12 September 2025",2025-09-01,8,4,2,1.0,House,25 Larkspur Drive,-37.753407,144.8088,2025-09-09 17:38:48,17740579,,12,0,0,False,House,House,Area Specialist St Albans,36928,"Rental Department, Hugo Tran","Internal Laundry, Heating, Study, Ensuite, Built in wardrobes, Floorboards, Courtyard, Fully fenced",https://www.domain.com.au/25-larkspur-drive-st-albans-vic-3021-17740579
17743705,ST ALBANS,3021,400.0,1738.0,"Tuesday, 23 September 2025",2025-09-02,7,2,1,,House,6/11 Henry Street,-37.736023,144.80876,2025-09-09 17:38:48,17743705,,5,0,1,False,House,House,Ray White Taylors Lakes,19113,"Tiffany Perriam, Jack Desira","Gas, Dishwasher",https://www.domain.com.au/6-11-henry-street-st-albans-vic-3021-17743705
17745250,ST ALBANS,3021,550.0,2390.0,"Wednesday, 17 September 2025",2025-09-03,6,3,2,2.0,House,31 Moonstone Cct,-37.754185,144.82033,2025-09-09 17:38:48,17745250,,13,0,0,False,House,House,DK Property Partners Melbourne,17655,Nhi Dinh,,https://www.domain.com.au/31-moonstone-cct-st-albans-vic-3021-17745250
17745521,ST ALBANS,3021,430.0,1868.0,"Wednesday, 03 September 2025",2025-09-03,6,2,1,4.0,Villa,3/72 Vincent Avenue,-37.739105,144.81044,2025-09-09 17:38:48,17745521,,6,0,0,False,Townhouse/Villa,Villa,Ray White West Realty,28524,"Abby Cao, Chantae Jones",Built in wardrobes,https://www.domain.com.au/3-72-vincent-avenue-st-albans-vic-3021-17745521
17745811,ST ALBANS,3021,480.0,2086.0,"Thursday, 08 February 2024",2025-09-03,6,3,2,2.0,House,4 Moonstone Circuit,-37.754444,144.82253,2025-09-09 17:38:48,17745811,,8,0,0,False,House,House,Ray White West Realty,28524,"Abby Cao, Chantae Jones",Secure Parking,https://www.domain.com.au/4-moonstone-circuit-st-albans-vic-3021-17745811
17749581,ST ALBANS,3021,550.0,2390.0,"Friday, 12 September 2025",2025-09-05,4,3,2,1.0,Townhouse,1/113 Alfrieda Street,-37.73426,144.80214,2025-09-09 17:38:48,17749581,,9,0,2,False,Townhouse/Villa,Townhouse,Ray White Sunshine,28523,Shenae Sutherland,"Pets Allowed, Secure Parking, Ensuite, Floorboards, Built in wardrobes, Internal Laundry, Bath, Heating, Dishwasher, Fully fenced, Rainwater storage tank",https://www.domain.com.au/1-113-alfrieda-street-st-albans-vic-3021-17749581
17751058,ST ALBANS,3021,450.0,1955.0,"Monday, 08 September 2025",2025-09-08,1,3,1,2.0,House,5 Waveney Street,-37.74649,144.81056,2025-09-09 17:38:48,17751058,,10,0,0,False,House,House,Barry Plant St Albans,4690,"Peter D'aloia, Queenie Bui","Close to transport, Close to shops, Close to schools",https://www.domain.com.au/5-waveney-street-st-albans-vic-3021-17751058
16301169,ST ALBANS,3021,450.0,1955.0,"Wednesday, 10 September 2025",2025-08-18,22,3,1,2.0,Apartment / Unit / Flat,2/86 Jamieson Street,-37.736347,144.7892,2025-09-09 17:38:54,16301169,OS-1562-LW,11,0,0,False,Apartment,Apartment / Unit / Flat,Kathmandu Properties,32463,"Kathmandu Properties Rental, Sharmila Ghimire","Deck, Outdoor Entertainment Area, Remote Garage, Built in wardrobes, Dishwasher, Floorboards, Air conditioning, Ducted Heating, Split-System Air Conditioning, Split-System Heating",https://www.domain.com.au/2-86-jamieson-street-st-albans-vic-3021-16301169
17131252,ST ALBANS,3021,480.0,2085.0,"Monday, 11 August 2025",2025-08-11,28,3,1,1.0,Townhouse,57 Biggs Street,-37.736492,144.7969,2025-09-09 17:38:54,17131252,OY-2706-KR,15,0,0,False,Townhouse/Villa,Townhouse,Metro Real Estate Pty Ltd,3997,Quoc Ho,"Built in wardrobes, Secure Parking",https://www.domain.com.au/57-biggs-street-st-albans-vic-3021-17131252
17408980,ST ALBANS,3021,200.0,,"Friday, 24 January 2025",2025-01-24,228,1,1,1.0,House,149 William Street,-37.73646,144.80525,2025-09-09 17:38:54,17408980,LB-0308-JI,11,0,0,False,House,House,The Hopkins Group,17841,Michelle Grech,"Close to transport, Close to shops, Furnished, Toilet Facilities, Floorboards",https://www.domain.com.au/149-william-street-st-albans-vic-3021-17408980
17589391,ST ALBANS,3021,350.0,1516.0,"Friday, 12 September 2025",2025-08-19,21,2,1,1.0,Apartment / Unit / Flat,29/12 Percy Street,-37.747196,144.80394,2025-09-09 17:38:54,17589391,PU-0240-NB,5,0,0,False,Apartment,Apartment / Unit / Flat,Raine & Horne St Albans,19493,"Bojan Lojanica, Loredana Parisi",Built in wardrobes,https://www.domain.com.au/29-12-percy-street-st-albans-vic-3021-17589391
17697227,ST ALBANS,3021,600.0,2607.0,"Wednesday, 10 September 2025",2025-08-01,39,4,2,2.0,House,4 Derson Street,-37.757736,144.80188,2025-09-09 17:38:54,17697227,,17,0,0,False,House,House,YPA St Albans,21307,"Thien Do, YPA Rentals",Heating,https://www.domain.com.au/4-derson-street-st-albans-vic-3021-17697227
17699636,ST ALBANS,3021,480.0,2086.0,"Monday, 04 August 2025",2025-08-04,36,3,1,2.0,House,194 ALFRIEDA STREET,-37.730827,144.80331,2025-09-09 17:38:54,17699636,,13,0,0,True,House,House,First National Real Estate D & K ,15204,"Dorothy Schembri, Jordon Gillett","Floorboards, Air-Conditioner, Split System Heating, Outdoor Entertainment",https://www.domain.com.au/194-alfrieda-street-st-albans-vic-3021-17699636
17701729,ST ALBANS,3021,535.0,2324.0,"Wednesday, 06 August 2025",2025-08-05,35,4,1,1.0,House,51 Fox Street,-37.73387,144.81117,2025-09-09 17:38:54,17701729,,11,0,0,False,House,House,Barry Plant St Albans,4690,"Peter D'aloia, Diwa Kakar","Built in wardrobes, Alarm System",https://www.domain.com.au/51-fox-street-st-albans-vic-3021-17701729
17704689,ST ALBANS,3021,850.0,3693.0,"Thursday, 07 August 2025",2025-08-07,33,4,4,2.0,Townhouse,ID:21158848/49A Biggs Street,-37.737915,144.81001,2025-09-09 17:38:54,17704689,,13,0,0,False,Townhouse/Villa,Townhouse,The Onsite Manager,20828,Binh Tran,"Built in wardrobes, Internal Laundry, Secure Parking, Dishwasher, Balcony / Deck",https://www.domain.com.au/id-21158848-49a-biggs-street-st-albans-vic-3021-17704689
17714661,ST ALBANS,3021,750.0,3258.0,"Tuesday, 30 September 2025",2025-08-14,26,5,2,4.0,House,5 Elissa Way,-37.73172,144.79207,2025-09-09 17:38:54,17714661,,21,0,0,False,House,House,Q6 Real Estate Pty The Trustee for Q6 Real Estate Trust,18250,Yousef Khalifa,"Secure Parking, Heating, Dishwasher, Air conditioning, Ensuite(s)",https://www.domain.com.au/5-elissa-way-st-albans-vic-3021-17714661
17719777,ST ALBANS,3021,520.0,2260.0,"Monday, 18 August 2025",2025-08-18,22,4,2,2.0,House,35 Walter St,-37.731045,144.80663,2025-09-09 17:38:54,17719777,,10,0,1,False,House,House,Realty Finder Group,37363,"Vy Bui, Peter Dang","Air conditioning, Secure Parking",https://www.domain.com.au/35-walter-st-st-albans-vic-3021-17719777
17719877,ST ALBANS,3021,290.0,1260.0,"Monday, 08 September 2025",2025-08-18,22,1,1,1.0,Apartment / Unit / Flat,31B Andrew Road,-37.735558,144.78468,2025-09-09 17:38:54,17719877,,5,0,0,False,Apartment,Apartment / Unit / Flat,Barry Plant St Albans,4690,"Peter D'aloia, Diwa Kakar",,https://www.domain.com.au/31b-andrew-road-st-albans-vic-3021-17719877
17720423,ST ALBANS,3021,400.0,1738.0,"Monday, 01 September 2025",2025-08-18,22,2,1,,Apartment / Unit / Flat,3/185 Main Road West,-37.74348,144.79182,2025-09-09 17:38:54,17720423,,1,0,0,False,Apartment,Apartment / Unit / Flat,Westside Real Estate,12961,"Leasing, Ritesh Chauhan","Built in wardrobes, Air conditioning",https://www.domain.com.au/3-185-main-road-west-st-albans-vic-3021-17720423
17721074,ST ALBANS,3021,500.0,2167.0,"Tuesday, 19 August 2025",2025-08-19,21,3,1,2.0,House,2 Walker Court,-37.761726,144.80974,2025-09-09 17:38:54,17721074,,12,0,0,False,House,House,Bells Real Estate Sunshine,4389,"Denisa Rubinic, Rentals Sunshine","Built in wardrobes, Internal Laundry, Heating",https://www.domain.com.au/2-walker-court-st-albans-vic-3021-17721074
17722133,ST ALBANS,3021,520.0,2253.0,"Tuesday, 19 August 2025",2025-08-19,21,3,1,1.0,House,16 Halesworth Street,-37.747242,144.81363,2025-09-09 17:38:54,17722133,,7,0,0,False,House,House,Raine&Horne Braybrook,16549,Bandhan Sidhu,,https://www.domain.com.au/16-halesworth-street-st-albans-vic-3021-17722133
17723118,ST ALBANS,3021,480.0,2085.0,"Wednesday, 20 August 2025",2025-08-20,20,3,1,4.0,House,47 Millawa Avenue,-37.740192,144.8069,2025-09-09 17:38:54,17723118,,12,0,0,False,House,House,Barry Plant St Albans,4690,"Peter D'aloia, Richard Chau","Air conditioning, Heating",https://www.domain.com.au/47-millawa-avenue-st-albans-vic-3021-17723118
17724519,ST ALBANS,3021,400.0,1600.0,"Tuesday, 19 August 2025",2025-08-20,20,1,1,,Apartment / Unit / Flat,6/42 Albert Crescent,-37.740883,144.79642,2025-09-09 17:38:54,17724519,,5,0,0,False,Apartment,Apartment / Unit / Flat,Scott Banks Real Estate Group,18881,Gina Mathioulakis,"Broadband internet access, Ensuite, Built in wardrobes, Air-Conditioner, Split System Heating",https://www.domain.com.au/6-42-albert-crescent-st-albans-vic-3021-17724519
17725959,ST ALBANS,3021,460.0,1999.0,"Saturday, 30 August 2025",2025-08-21,19,3,2,2.0,House,57 Belfort Street,-37.750633,144.81651,2025-09-09 17:38:54,17725959,,10,0,0,False,House,House,First National Real Estate D & K ,15204,"Dorothy Schembri, Jordon Gillett",,https://www.domain.com.au/57-belfort-street-st-albans-vic-3021-17725959
17727132,ST ALBANS,3021,390.0,1694.0,"Saturday, 20 September 2025",2025-08-22,18,2,1,1.0,Townhouse,2/1 John Street,-37.739014,144.7868,2025-09-09 17:38:54,17727132,,10,0,0,False,Townhouse/Villa,Townhouse,Q6 Real Estate Pty The Trustee for Q6 Real Estate Trust,18250,Yousef Khalifa,"Gas, Heating, Built in wardrobes",https://www.domain.com.au/2-1-john-street-st-albans-vic-3021-17727132
17728191,ST ALBANS,3021,620.0,2694.0,"Friday, 22 August 2025",2025-08-22,18,4,3,1.0,Townhouse,3 Carstairs Court (Formally 3/115 Conrad),-37.733677,144.79726,2025-09-09 17:38:54,17728191,,6,0,0,False,Townhouse/Villa,Townhouse,Nelson Alexander Keilor East,15596,"Kassandra Talajic, Silvia Cavallin","Internal Laundry, Air conditioning, Reverse Cycle Air Con, Ensuite",https://www.domain.com.au/3-carstairs-court-formally-3-115-conrad-st-albans-vic-3021-17728191
17736085,ST ALBANS,3021,550.0,2390.0,"Friday, 19 September 2025",2025-08-28,12,3,1,1.0,Townhouse,52 Grace Street,-37.729904,144.81331,2025-09-09 17:38:54,17736085,,7,0,0,False,Townhouse/Villa,Townhouse,YPA Hume City,12708,Ayse Tutuncu,"Internal Laundry, Secure Parking, Dishwasher, Air conditioning, Built in wardrobes, Heating, Study",https://www.domain.com.au/52-grace-street-st-albans-vic-3021-17736085
10621148,ST ALBANS,3021,1572.0,,"Friday, 01 July 2016",2016-06-09,3378,1,1,19.0,Studio,1A & 1B/101-103 Main Road West,-37.756203,144.81125,2025-09-09 17:38:59,10621148,,1,0,0,False,Apartment,Studio,Westside Real Estate,12961,,,https://www.domain.com.au/1a-1b-101-103-main-road-west-st-albans-vic-3021-10621148
15738931,ST ALBANS,3021,420.0,1825.0,"Thursday, 17 July 2025",2025-06-13,88,3,1,2.0,House,41 Yarmouth Avenue,-37.74967,144.81137,2025-09-09 17:38:59,15738931,RH-0025-KA,10,0,0,False,House,House,Westside Real Estate,12961,"Ritesh Chauhan, Leasing","Internal Laundry, Bath, Fully fenced, Secure Parking, Floorboards",https://www.domain.com.au/41-yarmouth-avenue-st-albans-vic-3021-15738931
15976203,ST ALBANS,3021,450.0,1950.0,"Friday, 21 March 2025",2025-03-21,172,3,1,,House,25 Pottenger Way,-37.760136,144.80167,2025-09-09 17:38:59,15976203,UI-3648-YQ,10,0,0,False,House,House,Biggin & Scott Deer Park,4688,Elena Mandalas,,https://www.domain.com.au/25-pottenger-way-st-albans-vic-3021-15976203
17149546,ST ALBANS,3021,500.0,2173.0,"Thursday, 29 May 2025",2025-05-27,105,3,2,1.0,Apartment / Unit / Flat,2/21 Lester Avenue,-37.74348,144.81,2025-09-09 17:38:59,17149546,WZ-9920-GM,10,0,0,False,Apartment,Apartment / Unit / Flat,Westside Real Estate,12961,"Leasing, Ritesh Chauhan","Built in wardrobes, Secure Parking, Heating, Air conditioning",https://www.domain.com.au/2-21-lester-avenue-st-albans-vic-3021-17149546
17287447,ST ALBANS,3021,,,"Wednesday, 06 November 2024",2024-11-06,307,3,1,2.0,House,66 Erica Avenue,-37.737793,144.80432,2025-09-09 17:38:59,17287447,UW-7439-AE,9,0,0,False,House,House,White Knight Estate Agents,31333,,,https://www.domain.com.au/66-erica-avenue-st-albans-vic-3021-17287447
17477000,ST ALBANS,3021,,1955.0,"Tuesday, 15 April 2025",2025-03-11,182,3,1,2.0,Townhouse,2/4 Camphora Place,-37.75407,144.82112,2025-09-09 17:38:59,17477000,NI-1293-FK,12,0,0,False,Townhouse/Villa,Townhouse,White Knight Estate Agents,31333,Iris Hsu,Heating,https://www.domain.com.au/2-4-camphora-place-st-albans-vic-3021-17477000
17551890,ST ALBANS,3021,500.0,2173.0,"Wednesday, 30 April 2025",2025-05-01,131,3,1,4.0,House,2 Kings Road,-37.741436,144.77989,2025-09-09 17:38:59,17551890,QE-0853-RW,11,0,1,False,House,House,Westside Real Estate,12961,"Surinder Sarain, Ritesh Chauhan, Leasing",,https://www.domain.com.au/2-kings-road-st-albans-vic-3021-17551890
17594849,ST ALBANS,3021,570.0,2400.0,"Monday, 15 September 2025",2025-07-26,45,2,2,1.0,Townhouse,2/32 Scott Ave,-37.74522,144.79504,2025-09-09 17:38:59,17594849,KI-9543-LE,11,0,0,False,Townhouse/Villa,Townhouse,RentBetter,27499,,"Study, Air conditioning, Balcony / Deck, Built in wardrobes, Dishwasher, Heating, Rainwater storage tank, Secure Parking",https://www.domain.com.au/2-32-scott-ave-st-albans-vic-3021-17594849
17620808,ST ALBANS,3021,690.0,3000.0,"Friday, 13 June 2025",2025-06-13,88,4,2,2.0,House,11 Willis St,-37.752464,144.80334,2025-09-09 17:38:59,17620808,,14,0,0,False,House,House,Realty Finder Group,37363,"Tam Huynh, Peter Dang",,https://www.domain.com.au/11-willis-st-st-albans-vic-3021-17620808
17652873,ST ALBANS,3021,430.0,1863.0,"Monday, 11 August 2025",2025-07-04,67,3,1,1.0,Apartment / Unit / Flat,2/72-74 Walmer Avenue,-37.738495,144.80646,2025-09-09 17:38:59,17652873,,7,0,0,False,Apartment,Apartment / Unit / Flat,Raine & Horne St Albans,19493,"Danny Trkulja, Jelena Milosevic","Air conditioning, Built in wardrobes, Bath, Dishwasher",https://www.domain.com.au/2-72-74-walmer-avenue-st-albans-vic-3021-17652873
17654499,ST ALBANS,3021,580.0,2520.0,"Friday, 04 July 2025",2025-07-04,67,3,1,2.0,House,83 Alfrieda St,-37.739323,144.801,2025-09-09 17:38:59,17654499,,3,0,0,False,House,House,Realty Finder Group,37363,"Peter Dang, Tam Huynh",,https://www.domain.com.au/83-alfrieda-st-st-albans-vic-3021-17654499
17655346,ST ALBANS,3021,460.0,1999.0,"Monday, 21 July 2025",2025-07-07,64,3,1,1.0,House,6 Beaver Street,-37.74977,144.80579,2025-09-09 17:38:59,17655346,,8,0,0,False,House,House,Area Specialist St Albans,36928,"Kiem Nguyen, Hugo Tran, Rental Department",Internal Laundry,https://www.domain.com.au/6-beaver-street-st-albans-vic-3021-17655346
17668266,ST ALBANS,3021,300.0,1200.0,"Sunday, 20 July 2025",2025-07-14,56,1,1,1.0,Studio,38 George Street,-37.73153,144.80473,2025-09-09 17:38:59,17668266,,11,0,0,False,Apartment,Studio,The Hopkins Group,17841,"Michelle Grech, James Hickey",Close to transport,https://www.domain.com.au/38-george-street-st-albans-vic-3021-17668266
17687753,ST ALBANS,3021,500.0,2172.0,"Monday, 04 August 2025",2025-07-28,43,3,1,3.0,House,24 Helen Street,-37.7297,144.8078,2025-09-09 17:38:59,17687753,,9,0,0,False,House,House,Barry Plant St Albans,4690,"Peter D'aloia, Annali Wijewardene","Gas, Internal Laundry, Heating, Built in wardrobes",https://www.domain.com.au/24-helen-street-st-albans-vic-3021-17687753
17690869,ST ALBANS,3021,500.0,2173.0,"Tuesday, 05 August 2025",2025-07-29,42,3,1,3.0,House,13 Manfred Ave,-37.74459,144.81827,2025-09-09 17:38:59,17690869,,9,0,1,False,House,House,Realty Finder Group,37363,"Peter Dang, Tam Huynh",,https://www.domain.com.au/13-manfred-ave-st-albans-vic-3021-17690869
