listing_id,suburb,postcode,weekly_rent,bond,available_date,date_listed,days_listed,bedrooms,bathrooms,carspaces,property_type,address,lat,lon,scraped_date,domain_page_id,property_id,photo_count,video_count,floorplans_count,virtual_tour,primary_type,secondary_type,agency,agency_id,agent_names,structured_features,url
17520350,ST KILDA,3182,900.0,3911.0,"Monday, 08 September 2025",2025-09-08,1,2.0,2.0,2.0,Apartment / Unit / Flat,33/352 Canterbury Road,-37.85898,144.97668,2025-09-09 17:52:35,17520350,HI-5278-EW,15,1,0,False,Apartment,Apartment / Unit / Flat,MRE,20795,Millie Bowles,"Air conditioning, Dishwasher, Balcony / Deck, Car Accom: Carport, Kitchen: Open Plan, Cooking: Gas Hotplates and Electric Oven, Laundry: yes, Pool/Spa Count: 0",https://www.domain.com.au/33-352-canterbury-road-st-kilda-vic-3182-17520350
17661144,ST KILDA,3182,360.0,1564.0,"Tuesday, 15 July 2025",2025-09-08,1,1.0,1.0,1.0,Apartment / Unit / Flat,32/25 Redan Street,-37.860126,144.9903,2025-09-09 17:52:35,17661144,,8,0,2,False,Apartment,Apartment / Unit / Flat,Belle Property St Kilda,3722,"Shari Holmes, Tass Roussos",,https://www.domain.com.au/32-25-redan-street-st-kilda-vic-3182-17661144
17743593,ST KILDA,3182,450.0,1955.0,"Friday, 05 September 2025",2025-09-02,7,1.0,1.0,1.0,Apartment / Unit / Flat,22/82 Grey Street,-37.862785,144.98056,2025-09-09 17:52:35,17743593,,8,0,0,False,Apartment,Apartment / Unit / Flat,Hodges Real Estate Brighton,3915,Paul West,,https://www.domain.com.au/22-82-grey-street-st-kilda-vic-3182-17743593
17746835,ST KILDA,3182,530.0,2303.0,"Thursday, 04 September 2025",2025-09-04,5,1.0,1.0,1.0,Apartment / Unit / Flat,317/163 Fitzroy Street,-37.85867,144.97974,2025-09-09 17:52:35,17746835,,6,0,0,False,Apartment,Apartment / Unit / Flat,Biggin & Scott Stonnington,3276,"Tom Koller, Etienne des Anges",,https://www.domain.com.au/317-163-fitzroy-street-st-kilda-vic-3182-17746835
17748974,ST KILDA,3182,650.0,2824.0,"Friday, 12 September 2025",2025-09-05,4,2.0,1.0,2.0,Apartment / Unit / Flat,4/1 Duke Street,-37.867386,144.98817,2025-09-09 17:52:35,17748974,,14,0,1,False,Apartment,Apartment / Unit / Flat,McGrath St Kilda,16646,"Joanne Pearson, Callum Haydock",,https://www.domain.com.au/4-1-duke-street-st-kilda-vic-3182-17748974
17749079,ST KILDA,3182,400.0,1738.0,"Tuesday, 16 September 2025",2025-09-05,4,1.0,1.0,1.0,Apartment / Unit / Flat,3/54 Barkly Street,-37.861076,144.98253,2025-09-09 17:52:35,17749079,,6,0,2,False,Apartment,Apartment / Unit / Flat,McGrath St Kilda,16646,"Callum Haydock, Artem Chereshkov",,https://www.domain.com.au/3-54-barkly-street-st-kilda-vic-3182-17749079
17750635,ST KILDA,3182,850.0,4250.0,"Monday, 22 September 2025",2025-09-08,1,2.0,1.0,,Apartment / Unit / Flat,6/11 Wimmera Place,-37.864178,144.97496,2025-09-09 17:52:35,17750635,,14,0,0,False,Apartment,Apartment / Unit / Flat,Belle Property Albert Park,3702,"Shar Claridge, William Brydon Waldren","Fireplace(s), Balcony / Deck, Air conditioning, Heating, Area Views, Ocean Views, Furnished, Dishwasher",https://www.domain.com.au/6-11-wimmera-place-st-kilda-vic-3182-17750635
17750908,ST KILDA,3182,460.0,1999.0,"Saturday, 13 September 2025",2025-09-08,1,1.0,1.0,1.0,Apartment / Unit / Flat,107/126 Carlisle Street,-37.867928,144.98827,2025-09-09 17:52:35,17750908,,5,0,2,False,Apartment,Apartment / Unit / Flat,Belle Property South Yarra,3721,"Sam Landale, Lauren Herber","Secure Parking, Intercom, Heating, Dishwasher, Balcony / Deck",https://www.domain.com.au/107-126-carlisle-street-st-kilda-vic-3182-17750908
17750922,ST KILDA,3182,700.0,3042.0,"Friday, 12 September 2025",2025-09-08,1,2.0,1.0,,Apartment / Unit / Flat,1/39-41 Vale Street,-37.866608,144.98506,2025-09-09 17:52:35,17750922,,9,0,0,False,Apartment,Apartment / Unit / Flat,  Buxton Port Phillip,15964,"Thembie Sikwila, Lachie Brown","Split System Air Con, Split System Heating, Garden / Courtyard",https://www.domain.com.au/1-39-41-vale-street-st-kilda-vic-3182-17750922
17751249,ST KILDA,3182,550.0,2390.0,"Thursday, 25 September 2025",2025-09-08,1,1.0,1.0,1.0,Apartment / Unit / Flat,72/13 The Esplanade,-37.864605,144.97322,2025-09-09 17:52:35,17751249,,5,0,0,False,Apartment,Apartment / Unit / Flat,Belle Property St Kilda,3722,"Shari Holmes, Alison Loiterton","Air conditioning, Dishwasher",https://www.domain.com.au/72-13-the-esplanade-st-kilda-vic-3182-17751249
17751979,ST KILDA,3182,725.0,3151.0,"Friday, 12 September 2025",2025-09-08,1,2.0,2.0,1.0,Apartment / Unit / Flat,101/54-56 Chapel Street,-37.86611,144.99097,2025-09-09 17:52:35,17751979,,9,0,0,False,Apartment,Apartment / Unit / Flat,MRE,20795,Juan Mova,"Air conditioning, Built in wardrobes, Gas, Pool/Spa Count: 0",https://www.domain.com.au/101-54-56-chapel-street-st-kilda-vic-3182-17751979
17752006,ST KILDA,3182,695.0,3020.0,"Monday, 29 September 2025",2025-09-08,1,2.0,1.0,1.0,Apartment / Unit / Flat,5/2 Emilton Avenue,-37.86218,144.98169,2025-09-09 17:52:35,17752006,,9,1,2,True,Apartment,Apartment / Unit / Flat,Belle Property St Kilda,3722,"Shari Holmes, Hannah West","Heating, Close to transport, Close to shops, Floorboards, Secure Parking, Dishwasher",https://www.domain.com.au/5-2-emilton-avenue-st-kilda-vic-3182-17752006
17752350,ST KILDA,3182,700.0,3042.0,"Monday, 15 September 2025",2025-09-08,1,2.0,1.0,1.0,Apartment / Unit / Flat,4/39 Marine Parade,-37.87333,144.9769,2025-09-09 17:52:35,17752350,,7,0,0,False,Apartment,Apartment / Unit / Flat,Biggin Scott St Kilda / Elwood,3356,Bella Perruzza,"Built in wardrobes, Internal Laundry, Heating",https://www.domain.com.au/4-39-marine-parade-st-kilda-vic-3182-17752350
17752673,ST KILDA,3182,660.0,2868.0,"Tuesday, 07 October 2025",2025-09-09,0,1.0,1.0,1.0,Apartment / Unit / Flat,17/149 Fitzroy Street,-37.859245,144.97871,2025-09-09 17:52:35,17752673,,16,0,0,False,Apartment,Apartment / Unit / Flat,McGrath St Kilda,16646,"Artem Chereshkov, Callum Haydock",,https://www.domain.com.au/17-149-fitzroy-street-st-kilda-vic-3182-17752673
17752815,ST KILDA,3182,420.0,1825.0,"Tuesday, 09 September 2025",2025-09-09,0,1.0,1.0,,Apartment / Unit / Flat,14/14-16 Fitzroy Street,-37.86127,144.97429,2025-09-09 17:52:35,17752815,,6,0,1,False,Apartment,Apartment / Unit / Flat,Biggin Scott St Kilda / Elwood,3356,Bella Perruzza,,https://www.domain.com.au/14-14-16-fitzroy-street-st-kilda-vic-3182-17752815
17752896,ST KILDA,3182,480.0,2086.0,"Thursday, 25 September 2025",2025-09-09,0,1.0,1.0,,Apartment / Unit / Flat,1205/3-5 St Kilda Road,-37.858906,144.98334,2025-09-09 17:52:35,17752896,,14,0,0,False,Apartment,Apartment / Unit / Flat,REMAX ACPA,34510,Camila Jing,"Air conditioning, Gym, Heating",https://www.domain.com.au/1205-3-5-st-kilda-road-st-kilda-vic-3182-17752896
17753310,ST KILDA,3182,550.0,2390.0,"Tuesday, 16 September 2025",2025-09-09,0,1.0,1.0,1.0,Apartment / Unit / Flat,24/167 Fitzroy St,-37.85839,144.98021,2025-09-09 17:52:35,17753310,,7,0,0,False,Apartment,Apartment / Unit / Flat, Gary Peer,273,Leasing Concierge,"Secure Parking, Balcony / Deck, Built in wardrobes, Dishwasher, Internal Laundry",https://www.domain.com.au/24-167-fitzroy-st-st-kilda-vic-3182-17753310
17754011,ST KILDA,3182,430.0,1869.0,"Wednesday, 08 October 2025",2025-09-09,0,1.0,1.0,1.0,Apartment / Unit / Flat,8/130 Inkerman Street,-37.864758,144.98825,2025-09-09 17:52:35,17754011,,5,0,1,False,Apartment,Apartment / Unit / Flat,JMRE Real Estate,24502,Molly Bradshaw,"Dishwasher, Built in wardrobes",https://www.domain.com.au/8-130-inkerman-street-st-kilda-vic-3182-17754011
17754027,ST KILDA,3182,1300.0,5649.0,"Thursday, 06 November 2025",2025-09-09,0,3.0,2.0,2.0,House,14 Irymple Avenue,-37.869446,144.98628,2025-09-09 17:52:35,17754027,,10,0,1,False,House,House,Woodards Elsternwick,11778,"Elsternwick Leasing, Karen Knight","Gas, Internal Laundry, Secure Parking, Fully fenced, Split System Air Con, Split System Heating, Study, Built in wardrobes, Garden / Courtyard, Balcony / Deck, Dishwasher, Floorboards, Heating, Intercom",https://www.domain.com.au/14-irymple-avenue-st-kilda-vic-3182-17754027
17754153,ST KILDA,3182,740.0,3215.0,"Tuesday, 23 September 2025",2025-09-09,0,3.0,1.0,1.0,Apartment / Unit / Flat,10/41 Chapel Street,-37.860966,144.99149,2025-09-09 17:52:35,17754153,,9,0,1,False,Apartment,Apartment / Unit / Flat,W. B. Simpson & Son,10300,Sam Campbell,"Secure Parking, Heating, Reverse Cycle Air Conditioning, Kitchen, Built in wardrobes, Balcony, Dishwasher, Laundry",https://www.domain.com.au/10-41-chapel-street-st-kilda-vic-3182-17754153
14598757,ST KILDA,3182,625.0,2500.0,"Saturday, 16 August 2025",2025-08-12,28,1.0,1.0,1.0,Apartment / Unit / Flat,1105/6 St Kilda Road,-37.856606,144.98344,2025-09-09 17:52:41,14598757,FT-9422-EK,11,0,0,False,Apartment,Apartment / Unit / Flat,Gotham Property,32563,David Passaro,Furnished,https://www.domain.com.au/1105-6-st-kilda-road-st-kilda-vic-3182-14598757
15627413,ST KILDA,3182,695.0,3019.0,"Monday, 01 September 2025",2025-08-04,36,2.0,2.0,1.0,Apartment / Unit / Flat,C501/3 Greeves Street,-37.864403,144.98285,2025-09-09 17:52:41,15627413,,6,1,0,True,Apartment,Apartment / Unit / Flat,Metropole Properties Melbourne,18456,Kate Ilinova,"Dishwasher, Split System Heating, Split System Air Conditioning",https://www.domain.com.au/c501-3-greeves-street-st-kilda-vic-3182-15627413
16018949,ST KILDA,3182,880.0,3824.0,"Friday, 26 September 2025",2025-09-01,8,1.0,1.0,1.0,Apartment / Unit / Flat,208A/14-16 The Esplanade,-37.865154,144.97478,2025-09-09 17:52:41,16018949,,25,0,1,False,Apartment,Apartment / Unit / Flat,Life Property Management,34941,"Darcie Reynolds, Danielle Boyd","Gym, Intercom, Floorboards, Built in wardrobes, Dishwasher, Broadband, Ducted Heating, Ducted Air Conditioning, Inside Spa, Balcony, Remote Garage, Secure Parking, In Ground Pool, Pets Allowed, Furnished",https://www.domain.com.au/208a-14-16-the-esplanade-st-kilda-vic-3182-16018949
16721064,ST KILDA,3182,340.0,1477.0,"Tuesday, 16 September 2025",2025-08-18,22,1.0,1.0,1.0,Apartment / Unit / Flat,9/82 Grey Street,-37.862785,144.98056,2025-09-09 17:52:41,16721064,BK-4923-IM,7,0,1,False,Apartment,Apartment / Unit / Flat,Professionals First & Co,29341,"Jing Chong, Kay Wang","Bath, Heating",https://www.domain.com.au/9-82-grey-street-st-kilda-vic-3182-16721064
17698728,ST KILDA,3182,675.0,2933.0,"Friday, 12 September 2025",2025-08-04,36,2.0,1.0,1.0,Apartment / Unit / Flat,415/173-177 Barkly Street,-37.867798,144.9809,2025-09-09 17:52:41,17698728,,11,0,1,False,Apartment,Apartment / Unit / Flat,  Buxton Port Phillip,15964,"Lani Perry, Linda  Evans","Split System Air Con, Split System Heating, Built in wardrobes, Dishwasher, Secure Parking",https://www.domain.com.au/415-173-177-barkly-street-st-kilda-vic-3182-17698728
17715124,ST KILDA,3182,695.0,3020.0,"Wednesday, 03 September 2025",2025-08-14,26,2.0,1.0,1.0,Apartment / Unit / Flat,9/29 Spenser Street,-37.870388,144.97743,2025-09-09 17:52:41,17715124,,7,0,0,False,Apartment,Apartment / Unit / Flat,Hodges Real Estate Brighton,3915,Paul West,,https://www.domain.com.au/9-29-spenser-street-st-kilda-vic-3182-17715124
17721905,ST KILDA,3182,795.0,3454.0,"Friday, 19 September 2025",2025-08-19,21,2.0,1.0,1.0,Townhouse,1/17 Martin Street,-37.867046,144.98793,2025-09-09 17:52:41,17721905,,10,0,1,False,Townhouse/Villa,Townhouse,Marshall White Stonnington,4450,"Anna Pylkkanen, Tina Jin",,https://www.domain.com.au/1-17-martin-street-st-kilda-vic-3182-17721905
17732008,ST KILDA,3182,490.0,2086.0,"Monday, 15 September 2025",2025-08-26,14,2.0,1.0,1.0,Apartment / Unit / Flat,7/22 Mitford Street,-37.872112,144.98203,2025-09-09 17:52:41,17732008,,6,0,0,False,Apartment,Apartment / Unit / Flat,Beck & Small Property,32041,Richard Beck,"Balcony / Deck, Floorboards, Built in wardrobes, Gas",https://www.domain.com.au/7-22-mitford-street-st-kilda-vic-3182-17732008
17733287,ST KILDA,3182,500.0,2173.0,"Friday, 19 September 2025",2025-08-27,13,1.0,1.0,1.0,Apartment / Unit / Flat,402/6 St Kilda Road,-37.856606,144.98344,2025-09-09 17:52:41,17733287,,11,0,1,False,Apartment,Apartment / Unit / Flat,  Buxton Port Phillip,15964,"Lani Perry, Wilson Huynh","Split System Air Con, Split System Heating, Balcony / Deck, Built in wardrobes, Dishwasher, Floorboards, Gym, Intercom, Swimming Pool, Secure Parking",https://www.domain.com.au/402-6-st-kilda-road-st-kilda-vic-3182-17733287
17736199,ST KILDA,3182,1000.0,5000.0,"Monday, 08 September 2025",2025-08-28,12,3.0,1.0,1.0,House,2 Moodie Place,-37.857857,144.98734,2025-09-09 17:52:41,17736199,,10,0,0,False,House,House,Belle Property Albert Park,3702,"Shar Claridge, William Brydon Waldren","Gas, Internal Laundry, Bath, Fireplace(s), Balcony / Deck, Heating, Built in wardrobes, Close to shops, Close to schools",https://www.domain.com.au/2-moodie-place-st-kilda-vic-3182-17736199
17739464,ST KILDA,3182,580.0,2520.0,"Wednesday, 24 September 2025",2025-08-30,9,1.0,1.0,1.0,Apartment / Unit / Flat,302/181 St Kilda Road,-37.860897,144.98389,2025-09-09 17:52:41,17739464,,9,0,0,False,Apartment,Apartment / Unit / Flat,Aushome Group Pty Ltd,35391,Residential Leasing,"Intercom, Built in wardrobes, Dishwasher, Air conditioning, Balcony",https://www.domain.com.au/302-181-st-kilda-road-st-kilda-vic-3182-17739464
17740002,ST KILDA,3182,520.0,2260.0,"Tuesday, 23 September 2025",2025-09-01,8,1.0,1.0,1.0,Apartment / Unit / Flat,G17/27-31 Herbert Street,-37.872295,144.98323,2025-09-09 17:52:41,17740002,,5,0,0,False,Apartment,Apartment / Unit / Flat,Luxe Property,20536,Michael Sabell,"Internal Laundry, Built in wardrobes, Dishwasher, Ensuite, Courtyard, Secure Parking, Split System (Heating), Split System (Air Con)",https://www.domain.com.au/g17-27-31-herbert-street-st-kilda-vic-3182-17740002
17744388,ST KILDA,3182,390.0,1695.0,"Friday, 03 October 2025",2025-09-03,6,1.0,1.0,1.0,Apartment / Unit / Flat,7/70 Carlisle Street,-37.86731,144.98468,2025-09-09 17:52:41,17744388,,6,0,0,False,Apartment,Apartment / Unit / Flat,McGrath St Kilda,16646,"Artem Chereshkov, Rickie White",,https://www.domain.com.au/7-70-carlisle-street-st-kilda-vic-3182-17744388
17744553,ST KILDA,3182,370.0,1608.0,"Wednesday, 03 September 2025",2025-09-03,6,1.0,1.0,,Apartment / Unit / Flat,2/71 Clyde Street,-37.864132,144.98117,2025-09-09 17:52:41,17744553,,10,0,0,False,Apartment,Apartment / Unit / Flat,Buxton Stonnington,122,Cameron  Gibson,Broadband internet access,https://www.domain.com.au/2-71-clyde-street-st-kilda-vic-3182-17744553
17744709,ST KILDA,3182,700.0,3042.0,"Wednesday, 10 September 2025",2025-09-03,6,3.0,1.0,1.0,Apartment / Unit / Flat,12/17 Redan Street,-37.86003,144.9896,2025-09-09 17:52:41,17744709,,14,0,1,False,Apartment,Apartment / Unit / Flat,McGrath St Kilda,16646,"Joanne Pearson, Artem Chereshkov",,https://www.domain.com.au/12-17-redan-street-st-kilda-vic-3182-17744709
17745539,ST KILDA,3182,580.0,2520.0,"Friday, 03 October 2025",2025-09-03,6,1.0,1.0,2.0,Apartment / Unit / Flat,1/240 Barkly Street,-37.8722,144.98047,2025-09-09 17:52:41,17745539,,10,0,1,False,Apartment,Apartment / Unit / Flat,McGrath St Kilda,16646,"Priyanka Basak, Artem Chereshkov","Built in wardrobes, Close to transport, Close to shops, Intercom",https://www.domain.com.au/1-240-barkly-street-st-kilda-vic-3182-17745539
17745618,ST KILDA,3182,350.0,1521.0,"Wednesday, 03 September 2025",2025-09-04,5,,1.0,1.0,Studio,19/82 Grey Street,-37.862785,144.98056,2025-09-09 17:52:41,17745618,,9,0,0,False,Apartment,Studio,Whiting & Co,3960,Rose Gilmour,"Kitchen, Laundry",https://www.domain.com.au/19-82-grey-street-st-kilda-vic-3182-17745618
17746435,ST KILDA,3182,375.0,1629.0,"Friday, 12 September 2025",2025-09-04,5,1.0,1.0,1.0,Apartment / Unit / Flat,5/37 Vale Street,-37.86657,144.9848,2025-09-09 17:52:41,17746435,,7,1,0,False,Apartment,Apartment / Unit / Flat,  Gary Peer,26351,Leasing Concierge,,https://www.domain.com.au/5-37-vale-street-st-kilda-vic-3182-17746435
17746548,ST KILDA,3182,395.0,1716.0,"Friday, 26 September 2025",2025-09-04,5,,1.0,,Studio,5/16 Blessington Court,-37.87193,144.97739,2025-09-09 17:52:41,17746548,,5,0,0,False,Apartment,Studio,McGrath St Kilda,16646,"Artem Chereshkov, Megan Anscombe",,https://www.domain.com.au/5-16-blessington-court-st-kilda-vic-3182-17746548
17746696,ST KILDA,3182,450.0,1955.0,"Friday, 03 October 2025",2025-09-04,5,1.0,1.0,,Apartment / Unit / Flat,5/39 Eildon Road,-37.86135,144.9782,2025-09-09 17:52:41,17746696,,8,1,0,False,Apartment,Apartment / Unit / Flat,Whiting & Co,3960,Robyn Rech,"Kitchen, Entrance Hall, Open Fireplace, Built in wardrobes, Floorboards, Communal Laundry",https://www.domain.com.au/5-39-eildon-road-st-kilda-vic-3182-17746696
17614063,ST KILDA,3182,365.0,1586.0,"Monday, 08 September 2025",2025-09-05,4,1.0,1.0,1.0,Apartment / Unit / Flat,1/54 Barkly Street,-37.861076,144.98253,2025-09-09 17:52:47,17614063,,4,0,0,False,Apartment,Apartment / Unit / Flat,McGrath St Kilda,16646,"Artem Chereshkov, Callum Haydock",,https://www.domain.com.au/1-54-barkly-street-st-kilda-vic-3182-17614063
17680449,ST KILDA,3182,425.0,1847.0,"Saturday, 23 August 2025",2025-07-22,49,1.0,1.0,1.0,Apartment / Unit / Flat,101/44 Barkly Street,-37.86052,144.98274,2025-09-09 17:52:47,17680449,,6,0,0,False,Apartment,Apartment / Unit / Flat,Marshall White Port Phillip,18211,Jack Alexander,Secure Parking,https://www.domain.com.au/101-44-barkly-street-st-kilda-vic-3182-17680449
17692550,ST KILDA,3182,350.0,1521.0,"Monday, 01 September 2025",2025-07-30,41,1.0,1.0,,House,2/5 Burnett Street,-37.86134,144.98009,2025-09-09 17:52:47,17692550,,6,0,0,False,House,House,Belle Property St Kilda,3722,"Arnav Mehta, Gita Andini",,https://www.domain.com.au/2-5-burnett-street-st-kilda-vic-3182-17692550
17692551,ST KILDA,3182,360.0,1564.0,"Monday, 11 August 2025",2025-07-30,41,,1.0,,Studio,6/5 Burnett Street,-37.86134,144.98009,2025-09-09 17:52:47,17692551,,6,0,0,False,Apartment,Studio,Belle Property St Kilda,3722,"Arnav Mehta, Gita Andini",,https://www.domain.com.au/6-5-burnett-street-st-kilda-vic-3182-17692551
17703593,ST KILDA,3182,630.0,2738.0,"Thursday, 07 August 2025",2025-08-06,34,2.0,1.0,,Apartment / Unit / Flat,2/72 Grey Street,-37.862385,144.98024,2025-09-09 17:52:47,17703593,,15,0,0,False,Apartment,Apartment / Unit / Flat, RT Edgar Elwood,5565,Elanah Harbis,,https://www.domain.com.au/2-72-grey-street-st-kilda-vic-3182-17703593
17703751,ST KILDA,3182,575.0,,"Monday, 18 August 2025",2025-08-06,34,1.0,1.0,1.0,Apartment / Unit / Flat,402/163 Fitzroy Street,-37.85867,144.97974,2025-09-09 17:52:47,17703751,,13,0,0,False,Apartment,Apartment / Unit / Flat,MICM Real Estate,232,William Chin,"Built in wardrobes, Internal Laundry, Balcony / Deck, Study",https://www.domain.com.au/402-163-fitzroy-street-st-kilda-vic-3182-17703751
17707831,ST KILDA,3182,430.0,1868.0,"Saturday, 06 September 2025",2025-08-08,32,1.0,1.0,1.0,Apartment / Unit / Flat,4/35 Carlisle St,-37.86737,144.98161,2025-09-09 17:52:47,17707831,,6,0,0,False,Apartment,Apartment / Unit / Flat,Hodges Real Estate Sandringham,3917,Katie Love,,https://www.domain.com.au/4-35-carlisle-st-st-kilda-vic-3182-17707831
17713827,ST KILDA,3182,395.0,1716.0,"Wednesday, 17 September 2025",2025-08-13,27,1.0,1.0,1.0,Apartment / Unit / Flat,23/42 Waterloo Crescent,-37.86247,144.98341,2025-09-09 17:52:47,17713827,,7,0,0,False,Apartment,Apartment / Unit / Flat,  Buxton Port Phillip,15964,"Lani Perry, Linda  Evans","Split System Air Con, Split System Heating, Floorboards, Built in wardrobes, Secure Parking",https://www.domain.com.au/23-42-waterloo-crescent-st-kilda-vic-3182-17713827
17735445,ST KILDA,3182,700.0,,"Wednesday, 27 August 2025",2025-08-27,13,2.0,2.0,1.0,Apartment / Unit / Flat,201/163 Fitzroy Street,-37.85867,144.97974,2025-09-09 17:52:47,17735445,,10,0,0,False,Apartment,Apartment / Unit / Flat,MICM Real Estate,232,William Chin,"Internal Laundry, Intercom, Heating, Balcony / Deck, Secure Parking, Air conditioning, Dishwasher, Furnished, Ensuite",https://www.domain.com.au/201-163-fitzroy-street-st-kilda-vic-3182-17735445
17743888,ST KILDA,3182,730.0,3172.0,"Friday, 10 October 2025",2025-09-02,7,2.0,2.0,1.0,Apartment / Unit / Flat,DB03/8 Blanche Street,-37.8652,144.9825,2025-09-09 17:52:47,17743888,,9,0,2,False,Apartment,Apartment / Unit / Flat,Belle Property St Kilda,3722,"Shari Holmes, Tass Roussos",,https://www.domain.com.au/db03-8-blanche-street-st-kilda-vic-3182-17743888
17744931,ST KILDA,3182,395.0,1716.0,"Wednesday, 10 September 2025",2025-09-03,6,1.0,1.0,1.0,Apartment / Unit / Flat,6/24 Prentice Street,-37.864,144.982,2025-09-09 17:52:47,17744931,,5,1,0,False,Apartment,Apartment / Unit / Flat, Gary Peer,273,Leasing Concierge,"Air conditioning, Built in wardrobes, Internal Laundry",https://www.domain.com.au/6-24-prentice-street-st-kilda-vic-3182-17744931
17745396,ST KILDA,3182,500.0,1800.0,"Monday, 29 September 2025",2025-09-03,6,1.0,1.0,1.0,Apartment / Unit / Flat,10/314 Inkerman St,-37.86407,144.98546,2025-09-09 17:52:47,17745396,,8,0,0,False,Apartment,Apartment / Unit / Flat,RentBetter,27499,,"Secure Parking, Air conditioning, Alarm System, Built in wardrobes, Furnished",https://www.domain.com.au/10-314-inkerman-st-st-kilda-vic-3182-17745396
17745771,ST KILDA,3182,650.0,2824.0,"Tuesday, 02 September 2025",2025-09-03,6,2.0,1.0,1.0,Apartment / Unit / Flat,12/10A Mitford Street,-37.871147,144.98141,2025-09-09 17:52:47,17745771,,7,0,0,False,Apartment,Apartment / Unit / Flat,Nelson Alexander Fitzroy,4718,Ebony O'Regan,,https://www.domain.com.au/12-10a-mitford-street-st-kilda-vic-3182-17745771
17746083,ST KILDA,3182,475.0,2064.0,"Wednesday, 03 September 2025",2025-09-03,6,1.0,1.0,1.0,Apartment / Unit / Flat,9/17 Robe Street,-37.865246,144.97754,2025-09-09 17:52:47,17746083,,6,0,0,False,Apartment,Apartment / Unit / Flat,Belle Property Albert Park,3702,"William Brydon Waldren, Shar Claridge","Gas, Air conditioning, Heating, Dishwasher",https://www.domain.com.au/9-17-robe-street-st-kilda-vic-3182-17746083
17746237,ST KILDA,3182,570.0,2470.0,"Tuesday, 04 February 2025",2025-09-03,6,1.0,1.0,1.0,Apartment / Unit / Flat,62/333 Beaconsfield Parade,-37.857727,144.96925,2025-09-09 17:52:47,17746237,,7,0,1,False,Apartment,Apartment / Unit / Flat,Belle Property St Kilda,3722,"Shari Holmes, Alison Loiterton","Built in wardrobes, Close to transport, Close to shops, Beach Front",https://www.domain.com.au/62-333-beaconsfield-parade-st-kilda-vic-3182-17746237
17746287,ST KILDA,3182,450.0,1955.0,"Monday, 08 September 2025",2025-09-03,5,1.0,1.0,1.0,Apartment / Unit / Flat,6/1 Fiona Ct,-37.863667,144.98859,2025-09-09 17:52:47,17746287,,6,1,0,False,Apartment,Apartment / Unit / Flat, Gary Peer,273,Leasing Concierge,,https://www.domain.com.au/6-1-fiona-ct-st-kilda-vic-3182-17746287
17746629,ST KILDA,3182,500.0,2173.0,"Thursday, 02 October 2025",2025-09-04,5,1.0,1.0,1.0,Apartment / Unit / Flat,505/13 Wellington St,-37.856155,144.98436,2025-09-09 17:52:47,17746629,,15,0,1,False,Apartment,Apartment / Unit / Flat,Wood Property,27439,"Jade Wilson, Louisa Kelly","Heating, Air conditioning, Balcony / Deck, Built in wardrobes, Dishwasher, Floorboards, Study, Internal Laundry",https://www.domain.com.au/505-13-wellington-st-st-kilda-vic-3182-17746629
17747368,ST KILDA,3182,480.0,2086.0,"Thursday, 04 September 2025",2025-09-04,5,1.0,1.0,1.0,Apartment / Unit / Flat,19/233 Canterbury Road,-37.859142,144.97618,2025-09-09 17:52:47,17747368,,6,0,0,False,Apartment,Apartment / Unit / Flat,Biggin Scott St Kilda / Elwood,3356,Bryony Bult,"Gas, Bath, Heating, Dishwasher",https://www.domain.com.au/19-233-canterbury-road-st-kilda-vic-3182-17747368
17747595,ST KILDA,3182,445.0,1934.0,"Thursday, 02 October 2025",2025-09-04,5,1.0,1.0,,Apartment / Unit / Flat,212/157 Fitzroy St,-37.8589,144.97948,2025-09-09 17:52:47,17747595,,9,0,0,False,Apartment,Apartment / Unit / Flat,Wood Property,27439,"Jade Wilson, Chloe Vangeli","Furnished, Heating, Air conditioning, Intercom, Garden / Courtyard, Built in wardrobes, Dishwasher, Study, Internal Laundry",https://www.domain.com.au/212-157-fitzroy-st-st-kilda-vic-3182-17747595
17748727,ST KILDA,3182,650.0,2824.0,"Friday, 10 October 2025",2025-09-05,4,2.0,2.0,1.0,Apartment / Unit / Flat,208F/7 Greeves Street,-37.86518,144.98315,2025-09-09 17:52:47,17748727,,6,0,0,False,Apartment,Apartment / Unit / Flat,Jellis Craig Ivanhoe,30455,Brodie Aston,"Air conditioning, Secure Parking, Study, Balcony / Deck",https://www.domain.com.au/208f-7-greeves-street-st-kilda-vic-3182-17748727
17661964,ST KILDA,3182,1600.0,9600.0,"Monday, 04 August 2025",2025-07-10,61,4.0,3.0,1.0,House,93 Spenser Street,-37.87251,144.97911,2025-09-09 17:52:52,17661964,,10,0,1,False,House,House,McGrath St Kilda,16646,Damian Betham,,https://www.domain.com.au/93-spenser-street-st-kilda-vic-3182-17661964
17663123,ST KILDA,3182,650.0,2824.0,"Friday, 01 August 2025",2025-07-10,61,2.0,2.0,1.0,Apartment / Unit / Flat,11/45 Wellington St,-37.856438,144.98575,2025-09-09 17:52:52,17663123,,6,1,0,True,Apartment,Apartment / Unit / Flat,Wood Property,27439,"Jade Wilson, Louisa Kelly","Air conditioning, Intercom, Balcony / Deck, Built in wardrobes, Dishwasher",https://www.domain.com.au/11-45-wellington-st-st-kilda-vic-3182-17663123
17711336,ST KILDA,3182,850.0,3693.0,"Sunday, 14 September 2025",2025-08-12,28,2.0,1.0,1.0,Townhouse,1/7 Inverleith Court,-37.862244,144.97609,2025-09-09 17:52:52,17711336,,13,0,1,False,Townhouse/Villa,Townhouse,Belle Property St Kilda,3722,"Noah Oyston, Liz Inan",,https://www.domain.com.au/1-7-inverleith-court-st-kilda-vic-3182-17711336
17712866,ST KILDA,3182,710.0,3302.0,"Tuesday, 09 September 2025",2025-08-13,27,2.0,1.0,1.0,Apartment / Unit / Flat,G20/27-31 Herbert St,-37.872295,144.98323,2025-09-09 17:52:52,17712866,,10,0,1,False,Apartment,Apartment / Unit / Flat,Yorkshire Property,26811,Breanne Kelly,"Built in wardrobes, Gas, Internal Laundry, Secure Parking, Heating, Dishwasher",https://www.domain.com.au/g20-27-31-herbert-st-st-kilda-vic-3182-17712866
17727288,ST KILDA,3182,425.0,1847.0,"Wednesday, 20 August 2025",2025-08-22,18,1.0,1.0,,House,5/82 Wellington Street,-37.857273,144.98863,2025-09-09 17:52:52,17727288,,9,0,1,False,House,House,Ascot Investment Management,38193,Andy Lusi,,https://www.domain.com.au/5-82-wellington-street-st-kilda-vic-3182-17727288
17727613,ST KILDA,3182,660.0,2868.0,"Monday, 15 September 2025",2025-08-27,13,2.0,2.0,1.0,Apartment / Unit / Flat,404/181-185 St Kilda Road,-37.860878,144.98387,2025-09-09 17:52:52,17727613,,6,0,0,False,Apartment,Apartment / Unit / Flat,Luxe Property,20536,Carly Schmidt,"Gas, Built in wardrobes, Dishwasher, Ensuite, Intercom, Balcony, Remote Garage, Secure Parking, Split System (Heating), Split System (Air Con)",https://www.domain.com.au/404-181-185-st-kilda-road-st-kilda-vic-3182-17727613
17738163,ST KILDA,3182,685.0,2976.0,"Thursday, 18 September 2025",2025-08-29,11,2.0,2.0,1.0,Apartment / Unit / Flat,610/6 St Kilda Road,-37.856606,144.98344,2025-09-09 17:52:52,17738163,,11,0,0,False,Apartment,Apartment / Unit / Flat,Biggin Scott St Kilda / Elwood,3356,Bella Perruzza,"Built in wardrobes, Secure Parking, Gym, Heating",https://www.domain.com.au/610-6-st-kilda-road-st-kilda-vic-3182-17738163
17738355,ST KILDA,3182,510.0,2217.0,"Friday, 12 September 2025",2025-08-29,11,1.0,1.0,1.0,Townhouse,3/27 Charnwood Grove,-37.85884,144.98499,2025-09-09 17:52:52,17738355,,6,0,0,False,Townhouse/Villa,Townhouse,Care Property Management,29924,Rebecca Storey,"Built in wardrobes, Internal Laundry, Secure Parking, Intercom, Dishwasher",https://www.domain.com.au/3-27-charnwood-grove-st-kilda-vic-3182-17738355
17738905,ST KILDA,3182,700.0,3041.0,"Monday, 08 September 2025",2025-08-29,11,2.0,1.0,,Apartment / Unit / Flat,6/12 Chapel St,-37.86066,144.99194,2025-09-09 17:52:52,17738905,,7,0,0,False,Apartment,Apartment / Unit / Flat,Wood Property,27439,"Jade Wilson, Hannah McKinnon","Heating, Air conditioning, Balcony / Deck, Built in wardrobes, Dishwasher, Floorboards",https://www.domain.com.au/6-12-chapel-st-st-kilda-vic-3182-17738905
17739035,ST KILDA,3182,725.0,3150.0,"Friday, 26 September 2025",2025-08-29,11,2.0,1.0,1.0,Apartment / Unit / Flat,2/23-25 Charnwood Road,-37.858963,144.98662,2025-09-09 17:52:52,17739035,,13,0,1,False,Apartment,Apartment / Unit / Flat,McGrath St Kilda,16646,"Artem Chereshkov, Callum Haydock",,https://www.domain.com.au/2-23-25-charnwood-road-st-kilda-vic-3182-17739035
17739541,ST KILDA,3182,380.0,1651.0,"Monday, 25 August 2025",2025-08-31,8,1.0,1.0,1.0,Apartment / Unit / Flat,10/15 Acland Street,-37.863194,144.97447,2025-09-09 17:52:52,17739541,,7,0,2,False,Apartment,Apartment / Unit / Flat,Belle Property St Kilda,3722,"Noah Oyston, Brodie Mcphie","Close to transport, Close to shops, Close to schools",https://www.domain.com.au/10-15-acland-street-st-kilda-vic-3182-17739541
17740069,ST KILDA,3182,650.0,2824.0,"Monday, 01 September 2025",2025-09-01,8,1.0,1.0,1.0,Apartment / Unit / Flat,108 25-29 Alma Road,-37.860764,144.98532,2025-09-09 17:52:52,17740069,,20,0,0,False,Apartment,Apartment / Unit / Flat,Frasers Property | VIC,7378,Theo Mouratidis,"Internal Laundry, Study, Intercom, Built in wardrobes, Dishwasher, Split System Heating, Outdoor Entertainment Area, Remote Garage, Furnished",https://www.domain.com.au/108-25-29-alma-road-st-kilda-vic-3182-17740069
17740803,ST KILDA,3182,775.0,3369.0,"Monday, 01 September 2025",2025-09-01,8,3.0,1.0,,House,4 Pattison Street,-37.858227,144.98154,2025-09-09 17:52:52,17740803,,7,0,0,False,House,House,Biggin Scott St Kilda / Elwood,3356,Bryony Bult,"Air conditioning, Gas, Internal Laundry, Heating, Dishwasher",https://www.domain.com.au/4-pattison-street-st-kilda-vic-3182-17740803
17740826,ST KILDA,3182,600.0,2608.0,"Monday, 29 September 2025",2025-09-01,8,1.0,1.0,1.0,Apartment / Unit / Flat,518/163 Fitzroy Street,-37.85867,144.97974,2025-09-09 17:52:52,17740826,,7,0,1,False,Apartment,Apartment / Unit / Flat,MRE,20795,Lara Nicholson,"Intercom, Heating, Balcony / Deck, Car Accom: Carport, Pool/Spa Count: 0",https://www.domain.com.au/518-163-fitzroy-street-st-kilda-vic-3182-17740826
17741703,ST KILDA,3182,800.0,3477.0,"Wednesday, 03 September 2025",2025-09-01,8,2.0,2.0,1.0,Apartment / Unit / Flat,UG09/333 St Kilda Road,-37.8637,144.98166,2025-09-09 17:52:52,17741703,,10,0,1,False,Apartment,Apartment / Unit / Flat,AREM GROUP,38634,"AREM Rental  Team, June Loh","Air conditioning, Ensuite, Floorboards, Intercom, Gym, Built in wardrobes, Internal Laundry, Pets Allowed, Broadband internet access, Heating, Dishwasher, Ground floor, Balcony / Deck, Secure Parking, Double glazed windows, Energy efficient appliances, Energy Eff. Rating: 7",https://www.domain.com.au/ug09-333-st-kilda-road-st-kilda-vic-3182-17741703
17741851,ST KILDA,3182,800.0,3476.0,"Friday, 05 September 2025",2025-09-01,8,3.0,2.0,1.0,Townhouse,3B Blanche Street,-37.865482,144.9822,2025-09-09 17:52:52,17741851,,8,0,1,False,Townhouse/Villa,Townhouse,Halfapercent Real Estate in association with Noble House Property Agents,3959,"Celeste Cuzzolin, John Kaufman, Serene Lai","Built in wardrobes, Bath, Balcony / Deck",https://www.domain.com.au/3b-blanche-street-st-kilda-vic-3182-17741851
17742349,ST KILDA,3182,650.0,2825.0,"Monday, 08 September 2025",2025-09-02,7,2.0,1.0,1.0,Apartment / Unit / Flat,307/7 Belford Street,-37.867935,144.98053,2025-09-09 17:52:52,17742349,,8,1,1,False,Apartment,Apartment / Unit / Flat,MRE,20795,Juan Mova,"Heating, Pool/Spa Count: 0, Furnished",https://www.domain.com.au/307-7-belford-street-st-kilda-vic-3182-17742349
17742359,ST KILDA,3182,620.0,2694.0,"Friday, 03 October 2025",2025-09-02,7,2.0,1.0,,Apartment / Unit / Flat,5/61 Blessington Street,-37.868954,144.98488,2025-09-09 17:52:52,17742359,,9,0,1,False,Apartment,Apartment / Unit / Flat,McGrath St Kilda,16646,"Artem Chereshkov, Callum Haydock",,https://www.domain.com.au/5-61-blessington-street-st-kilda-vic-3182-17742359
17742463,ST KILDA,3182,585.0,2542.0,"Sunday, 14 September 2025",2025-09-02,7,2.0,2.0,1.0,Apartment / Unit / Flat,7/3 Charnwood Road,-37.858696,144.98457,2025-09-09 17:52:52,17742463,,8,0,1,False,Apartment,Apartment / Unit / Flat,Maison Aust.,24081,Grace Gordon,"Air conditioning, Split System Air Con, Balcony / Deck, Intercom, Built in wardrobes, Dishwasher, Floorboards",https://www.domain.com.au/7-3-charnwood-road-st-kilda-vic-3182-17742463
17742671,ST KILDA,3182,480.0,2086.0,"Tuesday, 02 September 2025",2025-09-02,7,2.0,1.0,,Apartment / Unit / Flat,28 Grey Street,-37.86036,144.97842,2025-09-09 17:52:52,17742671,,9,0,0,False,Apartment,Apartment / Unit / Flat,Whiting & Co,3960,Rose Gilmour,"Split Cooling, Split Heating, Kitchen, Floorboards, High Ceilings, Air conditioning, Intercom, Courtyard, Laundry",https://www.domain.com.au/28-grey-street-st-kilda-vic-3182-17742671
14406744,ST KILDA,3182,695.0,3020.0,"Tuesday, 26 August 2025",2023-11-07,671,1.0,1.0,1.0,Apartment / Unit / Flat,202/154 Chapel Street,-37.870247,144.9902,2025-09-09 17:52:57,14406744,VE-1069-FN,8,1,0,False,Apartment,Apartment / Unit / Flat,Corporate Keys Australia,7537,The Hamptons Apartments,"Built in wardrobes, Gas, Furnished, Broadband internet access, Dishwasher, Air conditioning",https://www.domain.com.au/202-154-chapel-street-st-kilda-vic-3182-14406744
15058693,ST KILDA,3182,975.0,4237.0,"Tuesday, 26 August 2025",2023-02-28,923,2.0,1.0,1.0,Apartment / Unit / Flat,204/154 Chapel Street,-37.87026,144.9902,2025-09-09 17:52:57,15058693,VF-6987-PG,14,1,1,False,Apartment,Apartment / Unit / Flat,Corporate Keys Australia,7537,The Hamptons Apartments,"Gas, Furnished, Broadband internet access, Dishwasher",https://www.domain.com.au/204-154-chapel-street-st-kilda-vic-3182-15058693
16646577,ST KILDA,3182,750.0,3259.0,"Tuesday, 26 August 2025",2023-09-07,732,1.0,1.0,1.0,Apartment / Unit / Flat,302/154 Chapel Street,-37.870247,144.9902,2025-09-09 17:52:57,16646577,VB-7279-QF,13,0,1,False,Apartment,Apartment / Unit / Flat,Corporate Keys Australia,7537,The Hamptons Apartments,"Built in wardrobes, Gas, Furnished, Broadband internet access, Dishwasher, Balcony / Deck",https://www.domain.com.au/302-154-chapel-street-st-kilda-vic-3182-16646577
17577619,ST KILDA,3182,620.0,2694.0,"Monday, 08 September 2025",2025-05-16,116,2.0,1.0,,House,59 Argyle Street,-37.86289,144.98654,2025-09-09 17:52:57,17577619,LZ-0183-ZS,14,0,0,False,House,House,RentBetter,27499,,"Internal Laundry, Fully fenced, Heating",https://www.domain.com.au/59-argyle-street-st-kilda-vic-3182-17577619
17625819,ST KILDA,3182,1049.0,4558.0,"Tuesday, 26 August 2025",2025-06-17,83,1.0,1.0,1.0,Apartment / Unit / Flat,A207/14-16 The Esplanade,-37.865105,144.97517,2025-09-09 17:52:57,17625819,,15,1,1,False,Apartment,Apartment / Unit / Flat,Corporate Keys Australia,7537,CKA Reservations Department,"Swimming Pool, Furnished",https://www.domain.com.au/a207-14-16-the-esplanade-st-kilda-vic-3182-17625819
17694998,ST KILDA,3182,495.0,2151.0,"Thursday, 28 August 2025",2025-07-31,40,1.0,1.0,,Apartment / Unit / Flat,9/101 Barkly Street,-37.86351,144.98163,2025-09-09 17:52:57,17694998,,10,0,0,False,Apartment,Apartment / Unit / Flat,Buxton Stonnington,122,Cameron  Gibson,"Intercom, Study, Built in wardrobes",https://www.domain.com.au/9-101-barkly-street-st-kilda-vic-3182-17694998
17699802,ST KILDA,3182,480.0,2086.0,"Friday, 05 September 2025",2025-08-26,14,1.0,1.0,,Apartment / Unit / Flat,110/163 Fitzroy Street,-37.85867,144.97974,2025-09-09 17:52:57,17699802,,7,0,0,False,Apartment,Apartment / Unit / Flat,Nelson Alexander Fitzroy,4718,Ebony O'Regan,"Built in wardrobes, Intercom, Heating, Balcony / Deck",https://www.domain.com.au/110-163-fitzroy-street-st-kilda-vic-3182-17699802
17723098,ST KILDA,3182,675.0,2933.0,"Saturday, 23 August 2025",2025-08-20,20,2.0,1.0,,Apartment / Unit / Flat,4/12 Neptune Street,-37.863125,144.97853,2025-09-09 17:52:57,17723098,,9,1,0,True,Apartment,Apartment / Unit / Flat,Outlook Property Group,21388,"Rebecca Ozmetin, Onder Ozmetin","Balcony / Deck, Built in wardrobes, Intercom, Dishwasher, Floorboards, Ducted Heating, 0",https://www.domain.com.au/4-12-neptune-street-st-kilda-vic-3182-17723098
17732049,ST KILDA,3182,380.0,1651.0,"Tuesday, 26 August 2025",2025-08-26,14,1.0,1.0,,Apartment / Unit / Flat,5/27 Waterloo Crescent,-37.86191,144.98415,2025-09-09 17:52:57,17732049,,9,0,0,False,Apartment,Apartment / Unit / Flat,Belle Property St Kilda,3722,"Noah Oyston, Liz Inan","Close to transport, Close to shops, Close to schools, Furnished",https://www.domain.com.au/5-27-waterloo-crescent-st-kilda-vic-3182-17732049
17732681,ST KILDA,3182,495.0,2151.0,"Friday, 05 September 2025",2025-08-26,14,1.0,1.0,1.0,Apartment / Unit / Flat,14/162 Chapel Street,-37.871037,144.99007,2025-09-09 17:52:57,17732681,,6,0,0,False,Apartment,Apartment / Unit / Flat,McGrath St Kilda,16646,"Artem Chereshkov, Damian Betham",,https://www.domain.com.au/14-162-chapel-street-st-kilda-vic-3182-17732681
17733940,ST KILDA,3182,470.0,2042.0,"Thursday, 25 September 2025",2025-08-27,13,1.0,1.0,1.0,Apartment / Unit / Flat,102/43 Duke Street,-37.867603,144.99013,2025-09-09 17:52:57,17733940,,14,0,1,False,Apartment,Apartment / Unit / Flat,McGrath St Kilda,16646,"Artem Chereshkov, Rickie White",,https://www.domain.com.au/102-43-duke-street-st-kilda-vic-3182-17733940
17734802,ST KILDA,3182,600.0,2607.0,"Tuesday, 23 September 2025",2025-08-27,13,2.0,1.0,1.0,Apartment / Unit / Flat,14/25 Charnwood Road,-37.85898,144.98662,2025-09-09 17:52:57,17734802,,12,1,0,False,Apartment,Apartment / Unit / Flat,Bonnici Real Estate,31393,Kristian Bonnici,"Fireplace(s), Air conditioning, Intercom, Built in wardrobes, Furnished, Bath, Dishwasher, Heating, Secure Parking, Garden / Courtyard",https://www.domain.com.au/14-25-charnwood-road-st-kilda-vic-3182-17734802
17735114,ST KILDA,3182,1585.0,9510.0,"Saturday, 20 September 2025",2025-08-27,13,3.0,2.0,2.0,Apartment / Unit / Flat,51/64 Fitzroy Street,-37.8592,144.97778,2025-09-09 17:52:57,17735114,,11,0,0,False,Apartment,Apartment / Unit / Flat,RT Edgar Glen Eira,23085,Lucy Redman,Furnished,https://www.domain.com.au/51-64-fitzroy-street-st-kilda-vic-3182-17735114
17735530,ST KILDA,3182,650.0,2824.0,"Monday, 22 September 2025",2025-08-27,13,2.0,2.0,1.0,Apartment / Unit / Flat,107/12-18 Martin Street,-37.866806,144.98798,2025-09-09 17:52:57,17735530,,9,1,1,False,Apartment,Apartment / Unit / Flat,Changing Places Real Estate Consultants,6050,Vanessa Fisher,"Gas, Heating, Air conditioning, Secure Parking, Intercom, Balcony / Deck, Garden / Courtyard, Fully fenced, Built in wardrobes, Dishwasher, Out door entertaining area, Internal Laundry",https://www.domain.com.au/107-12-18-martin-street-st-kilda-vic-3182-17735530
17736588,ST KILDA,3182,425.0,1847.0,"Monday, 06 October 2025",2025-08-28,12,1.0,1.0,1.0,Apartment / Unit / Flat,2/15 Acland Street,-37.863194,144.97447,2025-09-09 17:52:57,17736588,,6,0,0,False,Apartment,Apartment / Unit / Flat,Belle Property St Kilda,3722,"Arnav Mehta, Amy Westerman","Air conditioning, Built in wardrobes, Close to transport, Close to shops, Intercom, Courtyard",https://www.domain.com.au/2-15-acland-street-st-kilda-vic-3182-17736588
17736858,ST KILDA,3182,580.0,,"Saturday, 27 September 2025",2025-08-28,12,1.0,1.0,1.0,Apartment / Unit / Flat,APT 2103/3-5 St Kilda Rd,-37.858723,144.98323,2025-09-09 17:52:57,17736858,,10,0,0,False,Apartment,Apartment / Unit / Flat,Nick Johnstone Real Estate,18492,Michelle Duchini,"Built in wardrobes, Intercom, Heating, Balcony / Deck, Secure Parking",https://www.domain.com.au/apt-2103-3-5-st-kilda-rd-st-kilda-vic-3182-17736858
17736907,ST KILDA,3182,535.0,2325.0,"Thursday, 25 September 2025",2025-08-28,12,1.0,1.0,,Apartment / Unit / Flat,8/22 The Esplanade,-37.866203,144.97578,2025-09-09 17:52:57,17736907,,17,0,0,False,Apartment,Apartment / Unit / Flat,Buxton Stonnington,122,Cameron  Gibson,"Air conditioning, Split System Air Con, Split System Heating, Intercom, Built in wardrobes, Floorboards",https://www.domain.com.au/8-22-the-esplanade-st-kilda-vic-3182-17736907
17737044,ST KILDA,3182,750.0,3259.0,"Wednesday, 24 September 2025",2025-08-28,12,2.0,1.0,1.0,Apartment / Unit / Flat,29/632 St Kilda Road,-37.861244,144.98438,2025-09-09 17:52:57,17737044,,10,1,1,False,Apartment,Apartment / Unit / Flat,Belle Property Carlton | Melbourne | North Melbourne,24322,Helena Eglezos,"Built in wardrobes, Close to transport, Close to shops, Tennis Court, Intercom, Furnished, Swimming Pool - Below Ground, Dishwasher",https://www.domain.com.au/29-632-st-kilda-road-st-kilda-vic-3182-17737044
17737311,ST KILDA,3182,600.0,2607.0,"Tuesday, 09 September 2025",2025-08-28,12,2.0,1.0,2.0,Apartment / Unit / Flat,9/16 Chapel St,-37.863636,144.99142,2025-09-09 17:52:57,17737311,,6,0,0,False,Apartment,Apartment / Unit / Flat,Wood Property,27439,"Jade Wilson, Hannah McKinnon","Built in wardrobes, Gas, Intercom, Balcony / Deck",https://www.domain.com.au/9-16-chapel-st-st-kilda-vic-3182-17737311
17737519,ST KILDA,3182,490.0,2129.0,"Thursday, 28 August 2025",2025-08-28,11,1.0,1.0,1.0,Apartment / Unit / Flat,209/181-185 St Kilda Road,-37.860878,144.98387,2025-09-09 17:52:57,17737519,,8,0,0,False,Apartment,Apartment / Unit / Flat,Motion Property,8551,Sabrina El-Hares,Pets Allowed,https://www.domain.com.au/209-181-185-st-kilda-road-st-kilda-vic-3182-17737519
17338659,ST KILDA,3182,1250.0,5432.0,"Sunday, 16 November 2025",2024-12-05,278,2.0,2.0,1.0,Apartment / Unit / Flat,501/154 Chapel Street,-37.870247,144.9902,2025-09-09 17:53:01,17338659,PI-0655-WS,10,0,0,False,Apartment,Apartment / Unit / Flat,Corporate Keys Australia,7537,The Hamptons Apartments,"Gas, Furnished, Broadband internet access, Dishwasher",https://www.domain.com.au/501-154-chapel-street-st-kilda-vic-3182-17338659
17619302,ST KILDA,3182,625.0,2716.0,"Friday, 22 August 2025",2025-08-20,20,2.0,1.0,1.0,Apartment / Unit / Flat,4/25 Vale Street,-37.86648,144.98405,2025-09-09 17:53:01,17619302,,6,0,1,False,Apartment,Apartment / Unit / Flat,Wood Property,27439,"Jade Wilson, Hannah McKinnon","Secure Parking, Fireplace(s), Air conditioning, Balcony / Deck, Built in wardrobes, Dishwasher, Floorboards, Gas Heating",https://www.domain.com.au/4-25-vale-street-st-kilda-vic-3182-17619302
17680940,ST KILDA,3182,350.0,1521.0,"Wednesday, 23 July 2025",2025-07-22,49,,1.0,1.0,Studio,306/44 Barkly Street,-37.86052,144.98274,2025-09-09 17:53:01,17680940,,6,0,0,False,Apartment,Studio,Wilson Glen Eira PTY LTD,4518,Greer Eastick,,https://www.domain.com.au/306-44-barkly-street-st-kilda-vic-3182-17680940
17720228,ST KILDA,3182,620.0,2694.0,"Monday, 18 August 2025",2025-08-18,22,2.0,1.0,1.0,Apartment / Unit / Flat,12/8 Robe Street,-37.86465,144.97778,2025-09-09 17:53:01,17720228,,9,1,1,False,Apartment,Apartment / Unit / Flat,Xynergy Realty South Yarra,21571,Agnes Sabrina,"Air conditioning, Built in wardrobes, Secure Parking",https://www.domain.com.au/12-8-robe-street-st-kilda-vic-3182-17720228
17720916,ST KILDA,3182,580.0,2520.0,"Thursday, 04 September 2025",2025-08-18,21,2.0,1.0,1.0,Apartment / Unit / Flat,12/6 Redan Street,-37.859596,144.98888,2025-09-09 17:53:01,17720916,,6,0,1,True,Apartment,Apartment / Unit / Flat,Belle Property St Kilda,3722,"Karina Lomanova, Shari Holmes",,https://www.domain.com.au/12-6-redan-street-st-kilda-vic-3182-17720916
17721205,ST KILDA,3182,325.0,1412.0,"Tuesday, 19 August 2025",2025-08-19,21,1.0,1.0,1.0,Apartment / Unit / Flat,105/44-46 Barkly Street,-37.860413,144.98267,2025-09-09 17:53:01,17721205,,5,0,1,False,Apartment,Apartment / Unit / Flat,Belle Property St Kilda,3722,"Shari Holmes, Mitchell Rodda",,https://www.domain.com.au/105-44-46-barkly-street-st-kilda-vic-3182-17721205
17722050,ST KILDA,3182,495.0,2151.0,"Thursday, 04 September 2025",2025-08-19,21,1.0,1.0,1.0,Apartment / Unit / Flat,4/84 Blessington Street,-37.868587,144.98492,2025-09-09 17:53:01,17722050,,7,0,1,False,Apartment,Apartment / Unit / Flat,Belle Property St Kilda,3722,"Shari Holmes, Alison Loiterton","Built in wardrobes, Close to transport, Dishwasher",https://www.domain.com.au/4-84-blessington-street-st-kilda-vic-3182-17722050
17722633,ST KILDA,3182,550.0,2390.0,"Tuesday, 19 August 2025",2025-08-19,21,2.0,1.0,1.0,Apartment / Unit / Flat,6/26 Charnwood Crescent,-37.86021,144.9868,2025-09-09 17:53:01,17722633,,7,0,0,False,Apartment,Apartment / Unit / Flat,Biggin Scott St Kilda / Elwood,3356,Bryony Bult,"Built in wardrobes, Gas, Internal Laundry, Bath, Heating, Dishwasher, Balcony / Deck",https://www.domain.com.au/6-26-charnwood-crescent-st-kilda-vic-3182-17722633
17723809,ST KILDA,3182,675.0,2933.0,"Wednesday, 27 August 2025",2025-08-20,20,2.0,1.0,1.0,Townhouse,G11/22 St Kilda Road,-37.856995,144.98346,2025-09-09 17:53:01,17723809,,8,0,2,False,Townhouse/Villa,Townhouse,Belle Property St Kilda,3722,"Noah Oyston, Brodie Mcphie",,https://www.domain.com.au/g11-22-st-kilda-road-st-kilda-vic-3182-17723809
17724962,ST KILDA,3182,430.0,1868.0,"Wednesday, 10 September 2025",2025-08-20,19,1.0,1.0,1.0,Apartment / Unit / Flat,7/32 Crimea Street,-37.860516,144.98805,2025-09-09 17:53:01,17724962,,6,0,1,False,Apartment,Apartment / Unit / Flat,Belle Property St Kilda,3722,"Noah Oyston, Brodie Mcphie","Air conditioning, Heating, Close to transport, Close to shops",https://www.domain.com.au/7-32-crimea-street-st-kilda-vic-3182-17724962
17725067,ST KILDA,3182,780.0,3390.0,"Monday, 08 September 2025",2025-08-20,19,2.0,1.0,,Apartment / Unit / Flat,508/333 St Kilda Road,-37.865574,144.98541,2025-09-09 17:53:01,17725067,,9,0,1,False,Apartment,Apartment / Unit / Flat,AREM GROUP,38634,"AREM Rental  Team, June Loh","Air conditioning, Floorboards, Gym, Intercom, Internal Laundry, Gas, Broadband internet access, Heating, Dishwasher, North Facing, Double glazed windows, Energy efficient appliances, Secure Parking, Balcony / Deck, Energy Eff. Rating: 7",https://www.domain.com.au/508-333-st-kilda-road-st-kilda-vic-3182-17725067
17726301,ST KILDA,3182,590.0,2564.0,"Tuesday, 23 September 2025",2025-08-21,19,1.0,1.0,1.0,Apartment / Unit / Flat,2/36-38 Fitzroy Street,-37.86034,144.97588,2025-09-09 17:53:01,17726301,,7,0,1,False,Apartment,Apartment / Unit / Flat,Belle Property St Kilda,3722,"Albertine Juma, Reesha Prakash",,https://www.domain.com.au/2-36-38-fitzroy-street-st-kilda-vic-3182-17726301
17726664,ST KILDA,3182,400.0,1738.0,"Friday, 22 August 2025",2025-08-21,19,1.0,1.0,1.0,Apartment / Unit / Flat,11/29 Mitford Street,-37.87261,144.98187,2025-09-09 17:53:01,17726664,,7,0,0,False,Apartment,Apartment / Unit / Flat,Wilson Glen Eira PTY LTD,4518,Stephanie Ongarello,Bathtub,https://www.domain.com.au/11-29-mitford-street-st-kilda-vic-3182-17726664
17728433,ST KILDA,3182,580.0,2520.0,"Monday, 15 September 2025",2025-08-22,18,2.0,1.0,1.0,Apartment / Unit / Flat,6/76 Carlisle Street,-37.86748,144.98508,2025-09-09 17:53:01,17728433,,9,0,0,False,Apartment,Apartment / Unit / Flat,Belle Property St Kilda,3722,"Shari Holmes, Zahra Mohamed",,https://www.domain.com.au/6-76-carlisle-street-st-kilda-vic-3182-17728433
17729481,ST KILDA,3182,330.0,1434.0,"Friday, 19 September 2025",2025-08-25,15,1.0,1.0,1.0,Studio,18/82 Grey Street,-37.862785,144.98056,2025-09-09 17:53:01,17729481,,7,1,0,True,Apartment,Studio,Wood Property,27439,"Jade Wilson, Chloe Vangeli",Bath,https://www.domain.com.au/18-82-grey-street-st-kilda-vic-3182-17729481
17729781,ST KILDA,3182,620.0,2694.0,"Sunday, 31 August 2025",2025-08-25,15,2.0,1.0,,Apartment / Unit / Flat,3/83 Barkly Street,-37.862873,144.98177,2025-09-09 17:53:01,17729781,,10,0,1,False,Apartment,Apartment / Unit / Flat,For Sale By Owner,20095,For Rent (VIC),"Gas, Internal Laundry, Air conditioning, Bath, Built in wardrobes, Heating, Modern Bathroom, Modern Kitchen, Floorboards, Non Smoking, Dishwasher, Living Area",https://www.domain.com.au/3-83-barkly-street-st-kilda-vic-3182-17729781
17729844,ST KILDA,3182,460.0,1999.0,"Friday, 19 September 2025",2025-08-25,15,1.0,1.0,,Apartment / Unit / Flat,508/181 St Kilda Road,-37.860897,144.98389,2025-09-09 17:53:01,17729844,,8,0,0,False,Apartment,Apartment / Unit / Flat,Barry Plant Reservoir,15050,Tammy Spiteri,"Gas, Internal Laundry, Heating, Dishwasher, Balcony / Deck",https://www.domain.com.au/508-181-st-kilda-road-st-kilda-vic-3182-17729844
17730181,ST KILDA,3182,480.0,2086.0,"Monday, 25 August 2025",2025-08-25,15,1.0,1.0,1.0,Apartment / Unit / Flat,1D/12 Marine Parade,-37.870136,144.97646,2025-09-09 17:53:01,17730181,,6,0,0,False,Apartment,Apartment / Unit / Flat,Wilson Glen Eira PTY LTD,4518,Chrissy Koumis,"Intercom, Built in wardrobes, Bathtub, Split System Heating, Split System Air Conditioning, Balcony",https://www.domain.com.au/1d-12-marine-parade-st-kilda-vic-3182-17730181
17730643,ST KILDA,3182,450.0,1955.0,"Wednesday, 10 September 2025",2025-08-25,15,1.0,1.0,,Apartment / Unit / Flat,27/15 Acland Street,-37.863194,144.97447,2025-09-09 17:53:01,17730643,,9,0,1,False,Apartment,Apartment / Unit / Flat,Belle Property St Kilda,3722,"Zahra Mohamed, Shari Holmes",Furnished,https://www.domain.com.au/27-15-acland-street-st-kilda-vic-3182-17730643
17731370,ST KILDA,3182,530.0,2303.0,"Friday, 26 September 2025",2025-08-26,14,1.0,1.0,1.0,Apartment / Unit / Flat,206/3-5 St Kilda Road,-37.858906,144.98334,2025-09-09 17:53:01,17731370,,3,0,0,False,Apartment,Apartment / Unit / Flat,Wood Property,27439,"Jade Wilson, Hannah McKinnon","Secure Parking, Swimming Pool, Heating, Study, Air conditioning, Alarm System, Balcony / Deck, Built in wardrobes, Dishwasher, Floorboards, Internal Laundry",https://www.domain.com.au/206-3-5-st-kilda-road-st-kilda-vic-3182-17731370
13656222,ST KILDA,3182,600.0,2607.0,"Wednesday, 10 September 2025",2025-08-14,26,1.0,1.0,1.0,Apartment / Unit / Flat,202/163 Fitzroy Street,-37.858685,144.97974,2025-09-09 17:53:05,13656222,QT-1277-JZ,7,0,0,False,Apartment,Apartment / Unit / Flat,LITTLE Real Estate Victoria,24974,Chaya Varsani,"Car Accom: Basement Carspace, Heating: Reverse Cycle Air Conditioning, Cooling: Reverse Cycle Air Conditioning, Pool/Spa Count: 0",https://www.domain.com.au/202-163-fitzroy-street-st-kilda-vic-3182-13656222
15676091,ST KILDA,3182,595.0,2585.0,"Tuesday, 05 August 2025",2025-08-05,35,2.0,1.0,1.0,Apartment / Unit / Flat,503/38 Inkerman Street,-37.864105,144.98318,2025-09-09 17:53:05,15676091,QB-7580-ED,11,0,0,False,Apartment,Apartment / Unit / Flat,Wilson Glen Eira PTY LTD,4518,Kirk Stafford,"Intercom, Built in wardrobes, Dishwasher, Gas Appliances, Split System Heating, Split System Air Conditioning, Balcony, Secure Parking",https://www.domain.com.au/503-38-inkerman-street-st-kilda-vic-3182-15676091
16350418,ST KILDA,3182,1156.0,5023.0,"Sunday, 30 November 2025",2024-11-24,288,2.0,2.0,1.0,Apartment / Unit / Flat,101/154 Chapel Street,-37.870247,144.9902,2025-09-09 17:53:05,16350418,VX-0875-WA,14,1,1,False,Apartment,Apartment / Unit / Flat,Corporate Keys Australia,7537,The Hamptons Apartments,"Gas, Internal Laundry, Furnished, Broadband internet access, Dishwasher",https://www.domain.com.au/101-154-chapel-street-st-kilda-vic-3182-16350418
16536980,ST KILDA,3182,940.0,900.0,"Sunday, 20 July 2025",2024-08-27,377,1.0,1.0,1.0,Semi-Detached,1/50 Waterloo Crescent,-37.862377,144.9828,2025-09-09 17:53:05,16536980,NN-0513-WA,26,0,0,False,Any,Semi-Detached,For Sale By Owner,20095,For Rent,"Air conditioning, Built in wardrobes, Fireplace(s), Furnished, Heating, Modern Bathroom, Modern Kitchen, Pay TV Enabled, Floorboards, Renovated, Renovated Bathroom, Renovated Kitchen, BBQ, Garden, Security Lights, Close to Parklands, Close to schools, Close to shops, Close to transport, Near Waterfront, Quiet Location, Rent Includes Utilities, Gas Enabled, Internal Laundry, Storage Area, Study, Broadband, Courtyard, Secure Parking, Fully fenced",https://www.domain.com.au/1-50-waterloo-crescent-st-kilda-vic-3182-16536980
17448870,ST KILDA,3182,495.0,2151.0,"Thursday, 25 September 2025",2025-08-14,26,1.0,1.0,,Apartment / Unit / Flat,30/3 Herbert St,-37.87054,144.98213,2025-09-09 17:53:05,17448870,OU-5117-JV,6,0,0,False,Apartment,Apartment / Unit / Flat,LYNCHS REAL ESTATE,17955,"Maddi Cox, Brooke Simmonds","Internal Laundry, Pets Allowed, Heating",https://www.domain.com.au/30-3-herbert-st-st-kilda-vic-3182-17448870
17645606,ST KILDA,3182,620.0,2694.0,"Thursday, 24 July 2025",2025-06-30,71,2.0,1.0,1.0,Apartment / Unit / Flat,210/88 Carlisle Street,-37.86749,144.9859,2025-09-09 17:53:05,17645606,,9,1,0,False,Apartment,Apartment / Unit / Flat,LJ Hooker Rowville,33823,Leasing Team,"Gas, Secure Parking, Dishwasher, Balcony / Deck",https://www.domain.com.au/210-88-carlisle-street-st-kilda-vic-3182-17645606
17661141,ST KILDA,3182,2000.0,12600.0,"Wednesday, 16 July 2025",2025-08-13,27,5.0,3.0,4.0,House,60 Alma Road,-37.860622,144.9885,2025-09-09 17:53:05,17661141,,14,0,2,False,House,House,Belle Property St Kilda,3722,"Noah Oyston, Liz Inan",,https://www.domain.com.au/60-alma-road-st-kilda-vic-3182-17661141
17701308,ST KILDA,3182,875.0,3790.0,"Wednesday, 01 October 2025",2025-08-05,35,2.0,2.0,1.0,Apartment / Unit / Flat,43/350 BEACONSFIELD PDE,-37.859627,144.97173,2025-09-09 17:53:05,17701308,,11,0,1,False,Apartment,Apartment / Unit / Flat,fre Real Estate,29054,fre Leasing Team,"Ensuite(s), Secure Parking, Air conditioning, Ensuite, Water Views, North Facing, City Views, Intercom, Built in wardrobes, Furnished, Internal Laundry, Gas, Broadband internet access, Dishwasher, Swimming Pool",https://www.domain.com.au/43-350-beaconsfield-pde-st-kilda-vic-3182-17701308
17703312,ST KILDA,3182,670.0,2911.0,"Wednesday, 06 August 2025",2025-08-06,34,2.0,2.0,1.0,Apartment / Unit / Flat,6/43-44 Marine Parade,-37.874195,144.9772,2025-09-09 17:53:05,17703312,,7,0,0,False,Apartment,Apartment / Unit / Flat,Belle Property St Kilda,3722,"Noah Oyston, Liz Inan",,https://www.domain.com.au/6-43-44-marine-parade-st-kilda-vic-3182-17703312
17706393,ST KILDA,3182,520.0,2260.0,"Wednesday, 27 August 2025",2025-08-08,32,1.0,1.0,1.0,Apartment / Unit / Flat,15/12 Acland Street,-37.863106,144.97488,2025-09-09 17:53:05,17706393,,10,0,0,False,Apartment,Apartment / Unit / Flat,Belle Property St Kilda,3722,"Shari Holmes, Tass Roussos","Built in wardrobes, Swimming Pool, Intercom, Furnished, Dishwasher",https://www.domain.com.au/15-12-acland-street-st-kilda-vic-3182-17706393
17706899,ST KILDA,3182,680.0,2955.0,"Friday, 12 September 2025",2025-08-08,32,2.0,2.0,1.0,Apartment / Unit / Flat,404B/21 Inkerman Street,-37.864353,144.98277,2025-09-09 17:53:05,17706899,,7,0,0,False,Apartment,Apartment / Unit / Flat,Belle Property St Kilda,3722,"Arnav Mehta, Amy Westerman","Air conditioning, Area Views, Built in wardrobes, Close to transport, Close to shops, Intercom, Lift Installed, Secure Parking, Dishwasher",https://www.domain.com.au/404b-21-inkerman-street-st-kilda-vic-3182-17706899
17707133,ST KILDA,3182,580.0,2520.0,"Friday, 12 September 2025",2025-08-08,32,2.0,1.0,1.0,Apartment / Unit / Flat,9/40 Charnwood Road,-37.858723,144.98734,2025-09-09 17:53:05,17707133,,9,0,0,False,Apartment,Apartment / Unit / Flat,Belle Property St Kilda,3722,"Shari Holmes, Tass Roussos",,https://www.domain.com.au/9-40-charnwood-road-st-kilda-vic-3182-17707133
17709567,ST KILDA,3182,700.0,3042.0,"Friday, 15 August 2025",2025-08-11,29,2.0,1.0,1.0,Apartment / Unit / Flat,4/129-131 Argyle Street,-37.863266,144.9899,2025-09-09 17:53:05,17709567,,5,0,1,False,Apartment,Apartment / Unit / Flat,Belle Property St Kilda,3722,"Noah Oyston, Brodie Mcphie",,https://www.domain.com.au/4-129-131-argyle-street-st-kilda-vic-3182-17709567
17710753,ST KILDA,3182,1300.0,5800.0,"Wednesday, 10 September 2025",2025-08-12,28,4.0,3.0,2.0,House,32 A Fawkner St,-37.865402,144.97969,2025-09-09 17:53:05,17710753,,12,0,1,False,House,House,Property Now,10282,Property Now,"Heating, Outdoor Entertainment Area, Split System Air Conditioning, Air conditioning, Balcony, Dishwasher, Built in wardrobes, Pets Allowed",https://www.domain.com.au/32-a-fawkner-st-st-kilda-vic-3182-17710753
17710774,ST KILDA,3182,440.0,1912.0,"Friday, 12 September 2025",2025-08-12,28,1.0,1.0,,Apartment / Unit / Flat,13/57 Chapel Street,-37.86304,144.9911,2025-09-09 17:53:05,17710774,,6,0,1,False,Apartment,Apartment / Unit / Flat,McGrath St Kilda,16646,"Artem Chereshkov, Callum Haydock",,https://www.domain.com.au/13-57-chapel-street-st-kilda-vic-3182-17710774
17712446,ST KILDA,3182,530.0,2303.0,"Tuesday, 12 August 2025",2025-08-12,28,1.0,1.0,1.0,Apartment / Unit / Flat,206/72 Acland Street,-37.866776,144.97832,2025-09-09 17:53:05,17712446,,6,0,0,False,Apartment,Apartment / Unit / Flat,Thomson ,176,Harriet Henderson,,https://www.domain.com.au/206-72-acland-street-st-kilda-vic-3182-17712446
17714759,ST KILDA,3182,810.0,3520.0,"Thursday, 14 August 2025",2025-08-14,26,3.0,1.0,1.0,Apartment / Unit / Flat,3/106 Wellington Street,-37.85754,144.99055,2025-09-09 17:53:05,17714759,,7,0,0,False,Apartment,Apartment / Unit / Flat,Biggin Scott St Kilda / Elwood,3356,Ksenia Stepanova,"Internal Laundry, Secure Parking, Heating, Dishwasher, Balcony / Deck",https://www.domain.com.au/3-106-wellington-street-st-kilda-vic-3182-17714759
17715069,ST KILDA,3182,450.0,1955.0,"Tuesday, 10 June 2025",2025-08-14,26,1.0,1.0,1.0,Apartment / Unit / Flat,15/84 Blessington Street,-37.8686,144.98492,2025-09-09 17:53:05,17715069,,8,0,2,False,Apartment,Apartment / Unit / Flat,Belle Property St Kilda,3722,"Noah Oyston, Brodie Mcphie","Heating, Built in wardrobes, Secure Parking, Dishwasher",https://www.domain.com.au/15-84-blessington-street-st-kilda-vic-3182-17715069
17717071,ST KILDA,3182,420.0,1825.0,"Monday, 15 September 2025",2025-08-15,25,1.0,1.0,,Apartment / Unit / Flat,405/157 Fitzroy St,-37.8589,144.97948,2025-09-09 17:53:05,17717071,,6,1,0,True,Apartment,Apartment / Unit / Flat,Wood Property,27439,"Jade Wilson, Chloe Vangeli","Built in wardrobes, Bath, Heating, Intercom, Balcony / Deck, Dishwasher, Internal Laundry",https://www.domain.com.au/405-157-fitzroy-st-st-kilda-vic-3182-17717071
17720219,ST KILDA,3182,565.0,2455.0,"Monday, 01 September 2025",2025-08-18,22,2.0,1.0,1.0,Apartment / Unit / Flat,18 Marriott Street,-37.864307,144.98816,2025-09-09 17:53:05,17720219,,12,0,0,False,Apartment,Apartment / Unit / Flat,Biggin Scott St Kilda / Elwood,3356,Bella Perruzza,,https://www.domain.com.au/18-marriott-street-st-kilda-vic-3182-17720219
16536969,ST KILDA,3182,1110.0,4300.0,"Tuesday, 30 September 2025",2024-09-14,360,3.0,1.0,,Apartment / Unit / Flat,42G Marine Parade,-37.875397,144.9751,2025-09-09 17:53:10,16536969,,20,0,2,False,Apartment,Apartment / Unit / Flat,For Sale By Owner,20095,For Rent,"Gas, Pets Allowed, Furnished",https://www.domain.com.au/42g-marine-parade-st-kilda-vic-3182-16536969
16536981,ST KILDA,3182,990.0,900.0,"Tuesday, 27 August 2024",2025-07-31,40,2.0,1.0,1.0,Semi-Detached,2/50 Waterloo Crescent,-37.862377,144.9828,2025-09-09 17:53:10,16536981,ST-4698-KV,25,0,0,False,Any,Semi-Detached,For Sale By Owner,20095,For Rent,"Air conditioning, Bath, Built in wardrobes, Fireplace(s), Furnished, Heating, Pay TV Enabled, Floorboards, BBQ, Security Lights, Close to Parklands, Close to schools, Close to shops, Close to transport, Near Waterfront, Quiet Location, Rent Includes Utilities, Gas Enabled, Internal Laundry, Storage Area, Broadband, Dishwasher, Courtyard, Secure Parking",https://www.domain.com.au/2-50-waterloo-crescent-st-kilda-vic-3182-16536981
16787076,ST KILDA,3182,750.0,3250.0,"Sunday, 27 July 2025",2025-07-21,49,2.0,2.0,1.0,Apartment / Unit / Flat,101/54-56 Chapel Street,-37.86611,144.99097,2025-09-09 17:53:10,16787076,DH-1164-LS,8,0,1,False,Apartment,Apartment / Unit / Flat,For Sale By Owner,20095,For Rent (VIC),"Air conditioning, Built in wardrobes",https://www.domain.com.au/101-54-56-chapel-street-st-kilda-vic-3182-16787076
17163457,ST KILDA,3182,540.0,2346.0,"Friday, 27 June 2025",2025-06-30,71,2.0,1.0,1.0,Apartment / Unit / Flat,119/135 Inkerman Street,-37.865047,144.98782,2025-09-09 17:53:10,17163457,GT-5538-LR,9,0,0,False,Apartment,Apartment / Unit / Flat,Casa Real Estate,20327,Mario Setiawan,Balcony / Deck,https://www.domain.com.au/119-135-inkerman-street-st-kilda-vic-3182-17163457
17301506,ST KILDA,3182,400.0,1738.0,"Tuesday, 17 June 2025",2025-06-17,84,1.0,1.0,,Apartment / Unit / Flat,62 Carlisle Street,-37.867393,144.98405,2025-09-09 17:53:10,17301506,,5,0,0,False,Apartment,Apartment / Unit / Flat,Thomson ,176,Adele Curcio,,https://www.domain.com.au/62-carlisle-street-st-kilda-vic-3182-17301506
17352534,ST KILDA,3182,1300.0,5200.0,"Tuesday, 01 July 2025",2024-12-13,270,6.0,2.0,1.0,Apartment / Unit / Flat,42DM Marine Parade,-37.873135,144.97649,2025-09-09 17:53:10,17352534,,18,0,2,False,Apartment,Apartment / Unit / Flat,For Sale By Owner,20095,For Rent,"Pets Allowed, Furnished, Broadband internet access, Heating",https://www.domain.com.au/42dm-marine-parade-st-kilda-vic-3182-17352534
17425136,ST KILDA,3182,330.0,1434.0,"Tuesday, 24 June 2025",2025-06-24,77,1.0,1.0,,Apartment / Unit / Flat,65 Acland Street,-37.866383,144.9774,2025-09-09 17:53:10,17425136,,4,0,0,False,Apartment,Apartment / Unit / Flat,Thomson ,176,Sarah Ralis,,https://www.domain.com.au/65-acland-street-st-kilda-vic-3182-17425136
17522947,ST KILDA,3182,450.0,1995.0,"Wednesday, 09 April 2025",2025-06-26,75,1.0,1.0,,Apartment / Unit / Flat,3/30 Dalgety Street,-37.859715,144.98018,2025-09-09 17:53:10,17522947,MR-4052-MT,4,0,0,False,Apartment,Apartment / Unit / Flat,Thomson ,176,Adele Curcio,,https://www.domain.com.au/3-30-dalgety-street-st-kilda-vic-3182-17522947
17583166,ST KILDA,3182,1100.0,4400.0,"Friday, 05 September 2025",2025-05-20,111,3.0,1.0,1.0,Apartment / Unit / Flat,42CM Marine Parade,-37.873135,144.97649,2025-09-09 17:53:10,17583166,,16,0,1,False,Apartment,Apartment / Unit / Flat,For Sale By Owner,20095,For Rent,"Built in wardrobes, Pets Allowed, Furnished, Heating",https://www.domain.com.au/42cm-marine-parade-st-kilda-vic-3182-17583166
17646831,ST KILDA,3182,435.0,1890.0,"Thursday, 03 July 2025",2025-07-01,70,1.0,1.0,,Block of Units,7 Princes St,-37.858875,144.98102,2025-09-09 17:53:10,17646831,,4,0,1,False,Apartment,Block of Units, Gary Peer,273,Leasing Concierge,"Ensuite, Intercom, Pets Allowed",https://www.domain.com.au/7-princes-st-st-kilda-vic-3182-17646831
17658534,ST KILDA,3182,400.0,,"Monday, 28 July 2025",2025-07-08,63,1.0,1.0,1.0,Apartment / Unit / Flat,,-37.864,144.982,2025-09-09 17:53:10,17658534,,10,0,1,False,Apartment,Apartment / Unit / Flat,Minus The Agent,26625,Minus The Agent Property Management,"Secure Parking, Fully fenced, Floorboards, Apartment / Unit / furnished / ST KILDA",https://www.domain.com.au/st-kilda-vic-3182-17658534
17668529,ST KILDA,3182,420.0,1825.0,"Monday, 11 August 2025",2025-07-15,56,1.0,1.0,1.0,Apartment / Unit / Flat,7/36 Waterloo Crescent,-37.862534,144.98393,2025-09-09 17:53:10,17668529,,4,0,1,False,Apartment,Apartment / Unit / Flat,Belle Property St Kilda,3722,"Albertine Juma, Reesha Prakash","Air conditioning, Built in wardrobes, Secure Parking",https://www.domain.com.au/7-36-waterloo-crescent-st-kilda-vic-3182-17668529
17673270,ST KILDA,3182,640.0,2781.0,"Friday, 08 August 2025",2025-07-17,54,2.0,2.0,1.0,Apartment / Unit / Flat,110/27-31 Herbert Street,-37.872295,144.98323,2025-09-09 17:53:10,17673270,,7,0,0,False,Apartment,Apartment / Unit / Flat,Belle Property St Kilda,3722,"Shari Holmes, Tass Roussos","Built in wardrobes, Intercom, Floorboards, Secure Parking, Dishwasher",https://www.domain.com.au/110-27-31-herbert-street-st-kilda-vic-3182-17673270
17676703,ST KILDA,3182,950.0,4128.0,"Monday, 21 July 2025",2025-07-21,50,3.0,3.0,2.0,Townhouse,8/21-23 Brighton Road,-37.86916,144.9871,2025-09-09 17:53:10,17676703,,11,0,0,False,Townhouse/Villa,Townhouse,Nelson Alexander Northcote,4721,Jessica Baker,"Built in wardrobes, Heating",https://www.domain.com.au/8-21-23-brighton-road-st-kilda-vic-3182-17676703
17680572,ST KILDA,3182,430.0,1869.0,"Saturday, 26 July 2025",2025-07-22,49,1.0,1.0,1.0,Apartment / Unit / Flat,4/50 Wellington Street,-37.856907,144.98598,2025-09-09 17:53:10,17680572,,6,0,0,False,Apartment,Apartment / Unit / Flat,Beck & Small Property,32041,Richard Beck,,https://www.domain.com.au/4-50-wellington-street-st-kilda-vic-3182-17680572
17684133,ST KILDA,3182,495.0,2151.0,"Friday, 29 August 2025",2025-07-24,47,1.0,1.0,1.0,Apartment / Unit / Flat,P09/3-5 St Kilda Road,-37.858723,144.98323,2025-09-09 17:53:10,17684133,,12,0,0,False,Apartment,Apartment / Unit / Flat,Areal Property - Hawthorn,12104,Joshua Hellyer,Separate Dining Room,https://www.domain.com.au/p09-3-5-st-kilda-road-st-kilda-vic-3182-17684133
17686143,ST KILDA,3182,465.0,2021.0,"Monday, 04 August 2025",2025-07-25,46,1.0,1.0,1.0,Apartment / Unit / Flat,UNIT 6/2 Fiona Court,-37.863873,144.98868,2025-09-09 17:53:10,17686143,,12,0,0,False,Apartment,Apartment / Unit / Flat,Property Now,10282,Property Now,"Intercom, Dishwasher, Built in wardrobes, Floorboards",https://www.domain.com.au/unit-6-2-fiona-court-st-kilda-vic-3182-17686143
17692007,ST KILDA,3182,800.0,3477.0,"Tuesday, 29 July 2025",2025-07-30,41,2.0,2.0,1.0,Apartment / Unit / Flat,415/181 Fitzroy Street,-37.85773,144.98132,2025-09-09 17:53:10,17692007,,17,1,0,False,Apartment,Apartment / Unit / Flat,MRE,20795,Millie Bowles,"Built in wardrobes, Internal Laundry, Heating, Dishwasher, Balcony / Deck, Car Accom: Carport, Pool/Spa Count: 0",https://www.domain.com.au/415-181-fitzroy-street-st-kilda-vic-3182-17692007
17692312,ST KILDA,3182,490.0,2129.0,"Thursday, 14 August 2025",2025-07-30,41,2.0,1.0,1.0,Apartment / Unit / Flat,1/11 Crimea St,-37.85843,144.98799,2025-09-09 17:53:10,17692312,,8,0,0,False,Apartment,Apartment / Unit / Flat, Gary Peer,273,Leasing Concierge,,https://www.domain.com.au/1-11-crimea-st-st-kilda-vic-3182-17692312
17693107,ST KILDA,3182,895.0,3889.0,"Wednesday, 30 July 2025",2025-07-30,41,2.0,1.0,,House,50A Vale Street,-37.86641,144.98561,2025-09-09 17:53:10,17693107,,13,0,1,False,House,House,Kay & Burton Stonnington,88,Debbie Davut,"Courtyard, Fully fenced, Furnished, Split System AirCon, Split System Heating",https://www.domain.com.au/50a-vale-street-st-kilda-vic-3182-17693107
15862316,ST KILDA,3182,700.0,3042.0,"Saturday, 14 December 2024",2024-11-13,300,2.0,1.0,1.0,Apartment / Unit / Flat,112/80 Carlisle Street,-37.86754,144.98534,2025-09-09 17:53:15,15862316,NR-3262-ZK,11,0,0,False,Apartment,Apartment / Unit / Flat,Levic Group Pty Ltd,32569,Mayu Yamamoto,"Air conditioning, Gas, Internal Laundry, Furnished",https://www.domain.com.au/112-80-carlisle-street-st-kilda-vic-3182-15862316
16451814,ST KILDA,3182,60.0,261.0,"Wednesday, 07 June 2023",2023-05-04,859,,,1.0,House,Carpark354/133-137 Fitzroy Street,-37.859425,144.97838,2025-09-09 17:53:15,16451814,,2,0,0,False,House,House,Ironfish Real Estate Melbourne,21689,Richard Yang,,https://www.domain.com.au/carpark354-133-137-fitzroy-street-st-kilda-vic-3182-16451814
16919272,ST KILDA,3182,550.0,2400.0,"Friday, 01 March 2024",2024-03-12,546,1.0,1.0,1.0,Apartment / Unit / Flat,8/380 Inkerman Street,-37.865,144.98857,2025-09-09 17:53:15,16919272,MG-5923-DO,17,0,0,False,Apartment,Apartment / Unit / Flat,No Agent Property ,20869,No Agent Property - VIC,"Air conditioning, Furnished, Floorboards, Pets Allowed, Gas Enabled, Remote Garage, Broadband, Balcony, Secure Parking, Fully fenced, Ducted Heating",https://www.domain.com.au/8-380-inkerman-street-st-kilda-vic-3182-16919272
16920130,ST KILDA,3182,60.0,261.0,"Monday, 25 March 2024",2024-03-12,546,1.0,1.0,1.0,Apartment / Unit / Flat,Car space/133-137 Fitzroy Street,-37.859425,144.97838,2025-09-09 17:53:15,16920130,,3,0,0,False,Apartment,Apartment / Unit / Flat,Ironfish Real Estate Melbourne,21689,Paul Lin,Air conditioning,https://www.domain.com.au/car-space-133-137-fitzroy-street-st-kilda-vic-3182-16920130
17241988,ST KILDA,3182,,,,2024-10-08,336,2.0,1.0,1.0,Apartment / Unit / Flat,509/181 Fitzroy Street,-37.85773,144.98132,2025-09-09 17:53:15,17241988,YP-6258-EN,10,0,0,False,Apartment,Apartment / Unit / Flat,MICM Real Estate,232,William Chin,"Secure Parking, Built in wardrobes, Dishwasher, Floorboards",https://www.domain.com.au/509-181-fitzroy-street-st-kilda-vic-3182-17241988
17480358,ST KILDA,3182,625.0,2708.0,"Thursday, 30 April 2026",2025-03-12,180,2.0,1.0,,Apartment / Unit / Flat,4/60 Chapel Street,-37.866318,144.99094,2025-09-09 17:53:15,17480358,KE-0377-HW,15,0,2,False,Apartment,Apartment / Unit / Flat,For Sale By Owner,20095,For Rent,"Air conditioning, Balcony/Patio/Terrace, Bath, Built in wardrobes, Garden, Level Lawn, Security Lights, Close to Parklands, Broadband, Courtyard",https://www.domain.com.au/4-60-chapel-street-st-kilda-vic-3182-17480358
17570611,ST KILDA,3182,460.0,1999.0,"Friday, 13 June 2025",2025-05-13,119,2.0,1.0,,Apartment / Unit / Flat,2/32 Grey Street,-37.86054,144.97849,2025-09-09 17:53:15,17570611,MV-2292-SR,8,1,0,False,Apartment,Apartment / Unit / Flat,Whiting & Co,3960,Rose Gilmour,"Split Cooling, Kitchen, Built in wardrobes, High Ceilings, Air conditioning, Intercom, Courtyard, Laundry",https://www.domain.com.au/2-32-grey-street-st-kilda-vic-3182-17570611
17574771,ST KILDA,3182,840.0,2520.0,"Sunday, 18 May 2025",2025-05-15,117,2.0,2.0,1.0,Apartment / Unit / Flat,203/2 Princes St,-37.858475,144.98116,2025-09-09 17:53:15,17574771,LL-3310-IV,16,0,0,False,Apartment,Apartment / Unit / Flat,For Sale By Owner,20095,For Rent,"Gas, Pets Allowed, Air conditioning, Balcony/Patio/Terrace, Ensuite, Furnished, Heating, Lift, Modern Bathroom, Modern Kitchen, Close to transport, Near Waterfront, Beach/Coastal Property, Internal Laundry, Remote Garage, Dishwasher, Living Area",https://www.domain.com.au/203-2-princes-st-st-kilda-vic-3182-17574771
17595879,ST KILDA,3182,599.0,2596.0,"Thursday, 30 April 2026",2025-05-28,103,2.0,1.0,,Apartment / Unit / Flat,2/60 Chapel Street,-37.866318,144.99094,2025-09-09 17:53:15,17595879,MA-9928-ZA,11,0,1,False,Apartment,Apartment / Unit / Flat,For Sale By Owner,20095,For Rent,"Built in wardrobes, Air conditioning, Balcony/Patio/Terrace, BBQ, Entertainment Area, Garden, Level Lawn, Security Lights, Close to Parklands, Broadband, Balcony",https://www.domain.com.au/2-60-chapel-street-st-kilda-vic-3182-17595879
17615623,ST KILDA,3182,595.0,2585.0,"Thursday, 12 June 2025",2025-06-11,90,2.0,1.0,1.0,Apartment / Unit / Flat,UNIT 20/25 Robe Street,-37.86483,144.97813,2025-09-09 17:53:15,17615623,,17,0,0,False,Apartment,Apartment / Unit / Flat,Property Now,10282,Property Now,"Intercom, Split System Heating, Split System Air Conditioning, Air conditioning, Balcony, Built in wardrobes, Floorboards, Furnished",https://www.domain.com.au/unit-20-25-robe-street-st-kilda-vic-3182-17615623
