listing_id,suburb,postcode,weekly_rent,bond,available_date,date_listed,days_listed,bedrooms,bathrooms,carspaces,property_type,address,lat,lon,scraped_date,domain_page_id,property_id,photo_count,video_count,floorplans_count,virtual_tour,primary_type,secondary_type,agency,agency_id,agent_names,structured_features,url
10295644,SUNSHINE,3020,300,1300.0,"Tuesday, 25 March 2025",2025-08-24,16,1.0,1,,Apartment / Unit / Flat,2/13 Chapman Street,-37.794655,144.83276,2025-09-09 16:26:14,10295644,,8,0,0,False,Apartment,Apartment / Unit / Flat,For Sale By Owner,20095,For Rent (VIC),"Air conditioning, Bath, Formal Lounge, Heating, Modern Kitchen, Floorboards, Renovated, Renovated Kitchen, Entertainment Area, Garden, Level Lawn, Shower Facilities, Close to Parklands, Close to schools, Close to shops, Close to transport, Quiet Location, Non Smoking, Gas Enabled, Internal Laundry, Courtyard",https://www.domain.com.au/2-13-chapman-street-sunshine-vic-3020-10295644
15896541,SUNSHINE,3020,310,1347.0,"Monday, 15 September 2025",2025-09-08,1,1.0,1,1.0,Apartment / Unit / Flat,280 Sunshine Road,-37.796318,144.83977,2025-09-09 16:26:14,15896541,,4,0,0,False,Apartment,Apartment / Unit / Flat,Burnham Real Estate Footscray,3381,Bryson De Guzman,,https://www.domain.com.au/280-sunshine-road-sunshine-vic-3020-15896541
16189562,SUNSHINE,3020,500,2173.0,"Tuesday, 12 August 2025",2025-08-07,33,3.0,1,1.0,House,14 Rufford Street,-37.770004,144.83429,2025-09-09 16:26:14,16189562,PT-0167-GO,9,0,0,False,House,House,Burnham Real Estate Footscray,3381,Bryson De Guzman,"Internal Laundry, Secure Parking, Bath, Heating",https://www.domain.com.au/14-rufford-street-sunshine-vic-3020-16189562
17087674,SUNSHINE,3020,370,1608.0,"Friday, 25 July 2025",2025-07-07,64,1.0,1,1.0,Apartment / Unit / Flat,5/35 Sun Crescent,-37.786606,144.82924,2025-09-09 16:26:14,17087674,AB-3226-HV,10,0,0,False,Apartment,Apartment / Unit / Flat,Ray White Sunshine,28523,Shenae Sutherland,"Floorboards, Heating, Secure Parking",https://www.domain.com.au/5-35-sun-crescent-sunshine-vic-3020-17087674
17560047,SUNSHINE,3020,350,,"Tuesday, 06 May 2025",2025-09-03,6,1.0,1,,Apartment / Unit / Flat,205/117 Durham Road,-37.788567,144.83066,2025-09-09 16:26:14,17560047,NF-1001-RD,7,0,0,False,Apartment,Apartment / Unit / Flat,Barry Plant Sunshine,8753,"Alice Mosut, Demi Theoharou","Internal Laundry, Intercom, Heating, Dishwasher, Balcony / Deck",https://www.domain.com.au/205-117-durham-road-sunshine-vic-3020-17560047
17607317,SUNSHINE,3020,560,1120.0,"Thursday, 29 May 2025",2025-06-05,96,1.0,1,1.0,Apartment / Unit / Flat,111/81 Derby Road,-37.790844,144.8329,2025-09-09 16:26:14,17607317,,5,0,0,False,Apartment,Apartment / Unit / Flat,For Sale By Owner,20095,For Rent (VIC),"Internal Laundry, Heating, Air conditioning, Ensuite, Furnished, Lift, Modern Kitchen, Concierge/Manager, Safe, Security Lights, Swipe Card, Close to Parklands, Close to schools, Close to shops, Close to transport, Non Smoking, Rent Includes Utilities, Newly Built Property, Dishwasher, Living Area",https://www.domain.com.au/111-81-derby-road-sunshine-vic-3020-17607317
17676179,SUNSHINE,3020,350,1521.0,"Friday, 18 July 2025",2025-07-18,52,1.0,1,1.0,Apartment / Unit / Flat,3/4-6 Islington Street,-37.784943,144.83858,2025-09-09 16:26:14,17676179,,5,0,0,False,Apartment,Apartment / Unit / Flat,Create Real Estate,13833,Create Rentals,Built in wardrobes,https://www.domain.com.au/3-4-6-islington-street-sunshine-vic-3020-17676179
17699404,SUNSHINE,3020,430,1868.0,"Wednesday, 06 August 2025",2025-08-04,36,3.0,1,2.0,House,24 Boreham,-37.799767,144.82387,2025-09-09 16:26:14,17699404,,5,0,0,False,House,House,Create Real Estate,13833,Create Rentals,"Air conditioning, Built in wardrobes, Separate Dining Room, Heating",https://www.domain.com.au/24-boreham-sunshine-vic-3020-17699404
17710693,SUNSHINE,3020,450,1950.0,"Tuesday, 12 August 2025",2025-08-12,28,3.0,1,2.0,House,98 Wright Street,-37.795605,144.82979,2025-09-09 16:26:14,17710693,,9,0,0,False,House,House,Bells Real Estate Sunshine,4389,"Tris Waters, Rentals Sunshine","Air conditioning, Built in wardrobes, Gas, Internal Laundry",https://www.domain.com.au/98-wright-street-sunshine-vic-3020-17710693
17715223,SUNSHINE,3020,490,2123.0,"Friday, 22 August 2025",2025-08-14,26,3.0,1,,House,169 Morris Street,-37.792473,144.82791,2025-09-09 16:26:14,17715223,,7,0,1,False,House,House,Bells Real Estate Sunshine,4389,"Denisa Rubinic, Rentals Sunshine","Gas, Internal Laundry, Shed",https://www.domain.com.au/169-morris-street-sunshine-vic-3020-17715223
17720419,SUNSHINE,3020,300,1300.0,"Monday, 18 August 2025",2025-08-18,22,,1,,Studio,49B Dickson Street,-37.786766,144.83414,2025-09-09 16:26:14,17720419,,6,0,0,False,Apartment,Studio,For Sale By Owner,20095,For Rent (VIC),,https://www.domain.com.au/49b-dickson-street-sunshine-vic-3020-17720419
17723300,SUNSHINE,3020,480,2173.0,"Wednesday, 20 August 2025",2025-08-20,20,2.0,1,,House,3/55 Monash Street,-37.78978,144.83939,2025-09-09 16:26:14,17723300,,8,0,0,False,House,House,Create Real Estate,13833,Create Rentals,"Built in wardrobes, Garden / Courtyard",https://www.domain.com.au/3-55-monash-street-sunshine-vic-3020-17723300
17727376,SUNSHINE,3020,330,1434.0,"Tuesday, 19 August 2025",2025-08-22,18,2.0,1,1.0,Apartment / Unit / Flat,5/4 Lachlan Road,-37.79252,144.8151,2025-09-09 16:26:14,17727376,,6,0,0,False,Apartment,Apartment / Unit / Flat,Create Real Estate,13833,Create Rentals,"Internal Laundry, Built in wardrobes",https://www.domain.com.au/5-4-lachlan-road-sunshine-vic-3020-17727376
17729999,SUNSHINE,3020,390,1695.0,"Friday, 29 August 2025",2025-08-25,15,2.0,1,1.0,House,6/67-69 Monash St,-37.78949,144.83882,2025-09-09 16:26:14,17729999,,11,0,0,False,House,House,DK Property Partners Melbourne,17655,Nhi Dinh,,https://www.domain.com.au/6-67-69-monash-st-sunshine-vic-3020-17729999
17732246,SUNSHINE,3020,340,1473.0,"Thursday, 28 August 2025",2025-08-26,14,1.0,1,1.0,Apartment / Unit / Flat,3/53 Anderson Road,-37.791336,144.82684,2025-09-09 16:26:14,17732246,,3,0,0,False,Apartment,Apartment / Unit / Flat,Bells Real Estate Sunshine,4389,"Michelle Lia, Rentals Sunshine",Heating,https://www.domain.com.au/3-53-anderson-road-sunshine-vic-3020-17732246
17733979,SUNSHINE,3020,670,2911.0,"Wednesday, 10 September 2025",2025-08-27,13,3.0,3,2.0,Townhouse,6B Cameron Street,-37.784817,144.84053,2025-09-09 16:26:14,17733979,,8,0,0,False,Townhouse/Villa,Townhouse,Douglas Kay Estate Agents,4216,Douglas Kay Rental,"Gas, Secure Parking, Shed, Solar panels, Air conditioning, Built in wardrobes, Close to transport, Close to shops, Alarm System, Close to schools",https://www.domain.com.au/6b-cameron-street-sunshine-vic-3020-17733979
17742724,SUNSHINE,3020,510,2216.0,"Monday, 08 September 2025",2025-09-02,7,3.0,1,2.0,House,24 Dunbar Avenue,-37.797424,144.8261,2025-09-09 16:26:14,17742724,,10,0,1,False,House,House,Biggin & Scott Altona North,31641,Mick Abdou,,https://www.domain.com.au/24-dunbar-avenue-sunshine-vic-3020-17742724
17743259,SUNSHINE,3020,370,1608.0,"Tuesday, 02 September 2025",2025-09-02,7,1.0,1,1.0,Apartment / Unit / Flat,24/437 Ballarat Road,-37.778446,144.8394,2025-09-09 16:26:14,17743259,,10,0,0,False,Apartment,Apartment / Unit / Flat,OBrien Real Estate Sunshine,20260,Tina Rotar,"Air conditioning, Heating, Built in wardrobes, Close to transport, Close to shops, Close to schools, Ensuite, Carpeted, Toilet Facilities",https://www.domain.com.au/24-437-ballarat-road-sunshine-vic-3020-17743259
17753025,SUNSHINE,3020,540,2346.0,"Wednesday, 10 September 2025",2025-09-09,0,3.0,1,1.0,House,17 Wilkinson Road,-37.78436,144.83954,2025-09-09 16:26:14,17753025,,9,0,0,False,House,House,OBrien Real Estate Sunshine,20260,Tina Rotar,"Close to transport, Close to shops, Close to schools",https://www.domain.com.au/17-wilkinson-road-sunshine-vic-3020-17753025
