listing_id,suburb,postcode,weekly_rent,bond,available_date,date_listed,days_listed,bedrooms,bathrooms,carspaces,property_type,address,lat,lon,scraped_date,domain_page_id,property_id,photo_count,video_count,floorplans_count,virtual_tour,primary_type,secondary_type,agency,agency_id,agent_names,structured_features,url
15479194,TRUGANINA,3029,535.0,2325.0,"Wednesday, 24 September 2025",2025-09-09,0,4,2,2.0,House,6 Roccella Avenue,-37.74779,144.6778,2025-09-09 16:31:30,15479194,KV-5664-DR,13,0,0,False,House,House,Ray White Truganina,29324,"Akash Sharma, Palak Joshi",,https://www.domain.com.au/6-roccella-avenue-truganina-vic-3029-15479194
15646176,TRUGANINA,3029,625.0,2716.0,"Tuesday, 09 September 2025",2025-09-09,0,4,2,2.0,House,24 Scottsmith Crescent,-37.83631,144.71916,2025-09-09 16:31:30,15646176,YN-5386-ZI,14,1,0,False,House,House,Ray White Truganina,29324,"Akash Sharma, Palak Joshi","Heating, Dishwasher, Air conditioning, Built in wardrobes, Secure Parking",https://www.domain.com.au/24-scottsmith-crescent-truganina-vic-3029-15646176
15724377,TRUGANINA,3029,540.0,2346.0,"Wednesday, 15 October 2025",2025-09-04,5,3,2,1.0,House,52 Lucerne Drive,-37.816185,144.7102,2025-09-09 16:31:30,15724377,WQ-7317-KR,15,0,0,False,House,House,Ray White Truganina,29324,"Mehreen Tariq, Palak Joshi","Heating, Air conditioning, Built in wardrobes, Secure Parking",https://www.domain.com.au/52-lucerne-drive-truganina-vic-3029-15724377
15906880,TRUGANINA,3029,450.0,1955.0,"Monday, 29 September 2025",2025-09-08,1,3,2,1.0,House,2/28 Orlando Drive,-37.841858,144.72752,2025-09-09 16:31:30,15906880,ZU-6066-UV,11,0,0,False,House,House,Ray White Point Cook,29063,"Palak Grover, Makayla Hurinui","Secure Parking, Heating",https://www.domain.com.au/2-28-orlando-drive-truganina-vic-3029-15906880
16524652,TRUGANINA,3029,580.0,2520.0,"Friday, 26 September 2025",2025-08-12,28,4,2,2.0,House,53 Lucerne Drive,-37.816505,144.70969,2025-09-09 16:31:30,16524652,FF-6071-CS,12,0,0,False,House,House,Ray White Truganina,29324,"Mehreen Tariq, Palak Joshi","Secure Parking, Heating",https://www.domain.com.au/53-lucerne-drive-truganina-vic-3029-16524652
17156776,TRUGANINA,3029,640.0,2781.0,"Tuesday, 07 October 2025",2025-09-08,1,4,2,2.0,House,43 Belvedere Drive,-37.82033,144.71889,2025-09-09 16:31:30,17156776,BL-8634-LG,25,0,0,False,House,House,Ray White Tarneit,23886,"Marvin Paed, Savi Sarain","Secure Parking, Heating",https://www.domain.com.au/43-belvedere-drive-truganina-vic-3029-17156776
17301972,TRUGANINA,3029,490.0,2129.0,"Tuesday, 30 September 2025",2025-09-08,1,3,2,1.0,House,340 Forsyth Rd,-37.841663,144.73222,2025-09-09 16:31:30,17301972,WR-0366-GO,9,0,0,False,House,House,Image Property South Melbourne,31002,Kimmy Nel,"Secure Parking, Heating, Dishwasher",https://www.domain.com.au/340-forsyth-rd-truganina-vic-3029-17301972
17716720,TRUGANINA,3029,520.0,2260.0,"Monday, 18 August 2025",2025-08-15,25,4,2,2.0,House,38 Caucasus Street,-37.76242,144.69594,2025-09-09 16:31:30,17716720,,15,0,0,False,House,House,Sweeney Estate Agents Caroline Springs,7932,Diana Simic,Heating,https://www.domain.com.au/38-caucasus-street-truganina-vic-3029-17716720
17750504,TRUGANINA,3029,640.0,2781.0,"Monday, 29 September 2025",2025-09-08,1,4,2,2.0,House,7 Freemont Circuit,-37.845825,144.73009,2025-09-09 16:31:30,17750504,,23,0,0,False,House,House,Ray White Truganina,29324,"Mounika Reddy, Palak Joshi","Secure Parking, Study",https://www.domain.com.au/7-freemont-circuit-truganina-vic-3029-17750504
17750517,TRUGANINA,3029,495.0,2151.0,"Friday, 05 September 2025",2025-09-08,1,3,2,1.0,House,27 Seaford Circuit,-37.849316,144.7279,2025-09-09 16:31:30,17750517,,6,0,0,False,House,House,.established Property,4979,Established Property Leasing,"Secure Parking, Heating, Dishwasher",https://www.domain.com.au/27-seaford-circuit-truganina-vic-3029-17750517
17750709,TRUGANINA,3029,515.0,2238.0,"Saturday, 04 October 2025",2025-09-08,1,4,2,2.0,House,6 Bushfield Road,-37.865883,144.71982,2025-09-09 16:31:30,17750709,,12,0,0,False,House,House,Reliance Real Estate Point Cook,26805,"Zelda Van Rensburg, Deolinda Moreira, Yash Shaw","Secure Parking, Heating",https://www.domain.com.au/6-bushfield-road-truganina-vic-3029-17750709
17750772,TRUGANINA,3029,490.0,2129.0,"Monday, 08 September 2025",2025-09-08,1,3,2,1.0,House,52 Panaia Boulevard,-37.74945,144.67513,2025-09-09 16:31:30,17750772,,24,1,0,False,House,House,Barry Plant Caroline Springs,11528,"Garnet Rodrigues, Property Management","Internal Laundry, Pets Allowed, Secure Parking, Broadband internet access, Bath, Heating, Dishwasher",https://www.domain.com.au/52-panaia-boulevard-truganina-vic-3029-17750772
17750790,TRUGANINA,3029,570.0,2477.0,"Friday, 19 September 2025",2025-09-08,1,3,3,2.0,House,38 Gemini Cres,-37.833454,144.72502,2025-09-09 16:31:30,17750790,,11,0,0,False,House,House,Image Property South Melbourne,31002,Kimmy Nel,"Built in wardrobes, Secure Parking",https://www.domain.com.au/38-gemini-cres-truganina-vic-3029-17750790
17751230,TRUGANINA,3029,520.0,2260.0,"Tuesday, 07 October 2025",2025-09-08,1,4,2,2.0,House,6 Banahaw Road,-37.75018,144.68143,2025-09-09 16:31:30,17751230,,15,0,1,False,House,House,Xynergy Realty Altona,31396,Kenny Gregorius,"Internal Laundry, Secure Parking, Bath",https://www.domain.com.au/6-banahaw-road-truganina-vic-3029-17751230
17751375,TRUGANINA,3029,520.0,2260.0,"Wednesday, 15 October 2025",2025-09-08,1,4,2,2.0,House,18 Talliver Terrace,-37.84741,144.71667,2025-09-09 16:31:30,17751375,,11,0,0,False,House,House,Huxley Real Estate,38920,"Jetah Keighran, Shae Joiner",Dishwasher,https://www.domain.com.au/18-talliver-terrace-truganina-vic-3029-17751375
17751635,TRUGANINA,3029,540.0,2347.0,"Friday, 03 October 2025",2025-09-08,1,4,2,2.0,House,26 Clearwood Drive,-37.840813,144.7193,2025-09-09 16:31:30,17751635,,10,0,0,False,House,House,VICPROP Point Cook and Williams Landing,33528,"Lisha Wen, Leasing Team Vicprop",Heating,https://www.domain.com.au/26-clearwood-drive-truganina-vic-3029-17751635
17751653,TRUGANINA,3029,550.0,2390.0,"Friday, 12 September 2025",2025-09-08,1,4,2,2.0,House,32 Barmera Way,-37.846157,144.722,2025-09-09 16:31:30,17751653,,8,0,0,False,House,House,First National Westwood ,6441,"Jai Grant, Shenay Caglar","Gas, Internal Laundry, Secure Parking, Ensuite, Dishwasher, Built in wardrobes, Air-Conditioner, Ducted Heating, Ducted Cooling, Split System Heating, Solar panels",https://www.domain.com.au/32-barmera-way-truganina-vic-3029-17751653
17752958,TRUGANINA,3029,540.0,2346.0,"Wednesday, 01 October 2025",2025-09-09,0,4,2,2.0,House,34 Sama Promenade,-37.75683,144.67352,2025-09-09 16:31:30,17752958,,13,0,0,False,House,House,REDDY G REAL ESTATE AGENTS,34544,"Sneha Boya, Sushmitha Reddy","Internal Laundry, Secure Parking, Heating, Air conditioning, Built in wardrobes, Close to transport, Close to shops, Alarm System, Close to schools, Ensuite, Security Access, Prestige Homes, Carpeted, Creative, Dishwasher",https://www.domain.com.au/34-sama-promenade-truganina-vic-3029-17752958
17753709,TRUGANINA,3029,520.0,2260.0,"Monday, 15 September 2025",2025-09-09,0,4,2,2.0,House,102 Conondale Avenue,-37.767994,144.68709,2025-09-09 16:31:30,17753709,,20,0,0,False,House,House,First National Real Estate Lakra,23132,Vivek Rana,"Secure Parking, Bath, Heating, Dishwasher",https://www.domain.com.au/102-conondale-avenue-truganina-vic-3029-17753709
17754251,TRUGANINA,3029,695.0,3011.0,"Tuesday, 09 September 2025",2025-09-09,0,6,3,2.0,House,33 Conondale Avenue,-37.768482,144.69252,2025-09-09 16:31:30,17754251,,8,0,0,False,House,House,Laing+Simmons Point Cook,38497,"Leasing Team, Miraj Mahmud","Heating, Study",https://www.domain.com.au/33-conondale-avenue-truganina-vic-3029-17754251
15764962,TRUGANINA,3029,580.0,2520.0,"Friday, 05 September 2025",2025-08-05,35,4,2,2.0,House,33 Orlando Drive,-37.840923,144.72717,2025-09-09 16:31:36,15764962,YO-2645-JW,11,0,0,False,House,House,Ray White Truganina,29324,"Mehreen Tariq, Palak Joshi","Heating, Air conditioning, Built in wardrobes, Secure Parking",https://www.domain.com.au/33-orlando-drive-truganina-vic-3029-15764962
16477159,TRUGANINA,3029,490.0,2129.0,"Saturday, 02 August 2025",2025-07-04,67,4,2,2.0,House,19 Galeras Street,-37.762417,144.67734,2025-09-09 16:31:36,16477159,GH-6076-XQ,17,0,0,False,House,House,Ray White Tarneit,23886,"Marvin Paed, Savi Sarain","Air conditioning, Gas, Secure Parking, Heating, Ensuite",https://www.domain.com.au/19-galeras-street-truganina-vic-3029-16477159
16519180,TRUGANINA,3029,510.0,2216.0,"Friday, 22 August 2025",2025-08-11,28,4,2,2.0,House,25 Yellowstone Drive,-37.77005,144.69154,2025-09-09 16:31:36,16519180,SE-7512-NY,15,0,0,False,House,House,Ray White Tarneit,23886,"Marvin Paed, Savi Sarain","Built in wardrobes, Internal Laundry, Secure Parking, Heating, Dishwasher, Fully fenced",https://www.domain.com.au/25-yellowstone-drive-truganina-vic-3029-16519180
17396472,TRUGANINA,3029,530.0,2303.0,"Tuesday, 09 September 2025",2025-09-01,8,3,2,2.0,House,7 WANDANA WALK,-37.83406,144.7159,2025-09-09 16:31:36,17396472,UM-4572-TF,13,0,0,False,House,House,Ray White Truganina,29324,"Mehreen Tariq, Palak Joshi","Built in wardrobes, Secure Parking, Bath",https://www.domain.com.au/7-wandana-walk-truganina-vic-3029-17396472
17686193,TRUGANINA,3029,420.0,1825.0,"Friday, 15 August 2025",2025-07-25,46,2,2,1.0,House,57 Altezze Drive,-37.75144,144.68027,2025-09-09 16:31:36,17686193,,8,0,0,False,House,House,Ray White West Realty,28524,"Louise Ericksen, Chantae Jones","Secure Parking, Balcony / Deck",https://www.domain.com.au/57-altezze-drive-truganina-vic-3029-17686193
17703134,TRUGANINA,3029,540.0,2346.0,"Wednesday, 20 August 2025",2025-08-06,34,3,2,2.0,House,33 Glenfern Circuit,-37.845886,144.73883,2025-09-09 16:31:36,17703134,,11,0,0,False,House,House,Ray White Truganina,29324,"Mounika Reddy, Palak Joshi","Air conditioning, Heating",https://www.domain.com.au/33-glenfern-circuit-truganina-vic-3029-17703134
17708406,TRUGANINA,3029,580.0,2513.0,"Monday, 15 September 2025",2025-08-10,30,4,2,2.0,House,9 Edmonton Avenue,-37.843216,144.74263,2025-09-09 16:31:36,17708406,,18,0,0,False,House,House,Shaw Estate Agents,30491,Sophie Shaw,,https://www.domain.com.au/9-edmonton-avenue-truganina-vic-3029-17708406
17713799,TRUGANINA,3029,570.0,2477.0,"Thursday, 21 August 2025",2025-08-13,27,4,2,2.0,House,11 Beatty Avenue,-37.840824,144.71205,2025-09-09 16:31:36,17713799,,12,0,0,False,House,House,Ray White Truganina,29324,"Mehreen Tariq, Palak Joshi","Internal Laundry, Secure Parking, Bath",https://www.domain.com.au/11-beatty-avenue-truganina-vic-3029-17713799
17722072,TRUGANINA,3029,485.0,2107.0,"Friday, 12 September 2025",2025-08-19,21,3,2,2.0,House,12 Oxbow Walk,-37.8311,144.71599,2025-09-09 16:31:36,17722072,,11,0,0,False,House,House,Ray White Truganina,29324,"Mehreen Tariq, Palak Joshi",,https://www.domain.com.au/12-oxbow-walk-truganina-vic-3029-17722072
17725609,TRUGANINA,3029,550.0,2390.0,"Thursday, 11 September 2025",2025-08-21,19,4,2,2.0,House,21 Amukta Road,-37.7612,144.67513,2025-09-09 16:31:36,17725609,,13,0,0,False,House,House,THE LANCORE WEST AND NORTH,35534,"HK  Dhindsa, Jot  Dhaliwal",,https://www.domain.com.au/21-amukta-road-truganina-vic-3029-17725609
17727024,TRUGANINA,3029,500.0,2172.0,"Wednesday, 20 August 2025",2025-08-22,18,4,2,2.0,House,18 Liali Avenue,-37.755993,144.67485,2025-09-09 16:31:36,17727024,,6,0,0,False,House,House,Jellis Craig Inner West,19574,"Sala Liku, Zac Keltie","Air conditioning, Built in wardrobes, Outdoor Entertainment Area, Dishwasher, Ducted Heating",https://www.domain.com.au/18-liali-avenue-truganina-vic-3029-17727024
17731203,TRUGANINA,3029,495.0,2151.0,"Tuesday, 26 August 2025",2025-08-26,14,4,2,2.0,House,13 Coronado Crescent,-37.748085,144.67917,2025-09-09 16:31:36,17731203,,16,0,0,False,House,House,Ray White Truganina,29324,"Mounika Reddy, Palak Joshi",Secure Parking,https://www.domain.com.au/13-coronado-crescent-truganina-vic-3029-17731203
17733096,TRUGANINA,3029,560.0,2433.0,"Tuesday, 16 September 2025",2025-08-26,13,4,2,2.0,House,15 Midgard Street,-37.835796,144.7212,2025-09-09 16:31:36,17733096,,14,0,0,False,House,House,Ray White Truganina,29324,"Mehreen Tariq, Palak Joshi",Secure Parking,https://www.domain.com.au/15-midgard-street-truganina-vic-3029-17733096
17739804,TRUGANINA,3029,520.0,2260.0,"Thursday, 18 September 2025",2025-09-01,8,4,2,2.0,House,26 Galeras Street,-37.762405,144.67682,2025-09-09 16:31:36,17739804,,12,0,0,False,House,House,Ray White Truganina,29324,"Akash Sharma, Palak Joshi","Secure Parking, Solar panels",https://www.domain.com.au/26-galeras-street-truganina-vic-3029-17739804
17739898,TRUGANINA,3029,580.0,2520.0,"Monday, 01 September 2025",2025-09-01,8,4,2,2.0,House,18 Paroo Street,-37.764183,144.68555,2025-09-09 16:31:36,17739898,,18,0,0,False,House,House,Ray White Truganina,29324,"Mounika Reddy, Palak Joshi","Secure Parking, Heating, Study",https://www.domain.com.au/18-paroo-street-truganina-vic-3029-17739898
17741940,TRUGANINA,3029,500.0,2173.0,"Thursday, 18 September 2025",2025-09-01,7,4,2,2.0,House,18 Panaia Boulevard,-37.747425,144.67587,2025-09-09 16:31:36,17741940,,13,0,0,False,House,House,Ray White Truganina,29324,"Mounika Reddy, Palak Joshi",Secure Parking,https://www.domain.com.au/18-panaia-boulevard-truganina-vic-3029-17741940
17746555,TRUGANINA,3029,500.0,2173.0,"Thursday, 04 September 2025",2025-09-04,5,4,2,2.0,House,8 Bruno Avenue,-37.75735,144.67503,2025-09-09 16:31:36,17746555,,13,0,0,False,House,House,Ray White Truganina,29324,"Akash Sharma, Palak Joshi",Secure Parking,https://www.domain.com.au/8-bruno-avenue-truganina-vic-3029-17746555
17746886,TRUGANINA,3029,650.0,2824.0,"Thursday, 04 September 2025",2025-09-04,5,4,2,2.0,House,21 Vantage Place,-37.840664,144.70901,2025-09-09 16:31:36,17746886,,21,0,0,False,House,House,Ray White Truganina,29324,"Mehreen Tariq, Palak Joshi",Secure Parking,https://www.domain.com.au/21-vantage-place-truganina-vic-3029-17746886
17747640,TRUGANINA,3029,550.0,2390.0,"Thursday, 04 September 2025",2025-09-04,5,4,2,1.0,House,7 Tallgrass Avenue,-37.86667,144.71878,2025-09-09 16:31:36,17747640,,13,0,0,False,House,House,Ray White Truganina,29324,"Mehreen Tariq, Palak Joshi","Built in wardrobes, Secure Parking",https://www.domain.com.au/7-tallgrass-avenue-truganina-vic-3029-17747640
17749916,TRUGANINA,3029,470.0,2042.0,"Saturday, 18 October 2025",2025-09-05,3,4,2,2.0,House,30 Bet Street,-37.76242,144.67249,2025-09-09 16:31:36,17749916,,7,0,0,False,House,House,Ray White Truganina,29324,"Akash Sharma, Palak Joshi","Built in wardrobes, Internal Laundry",https://www.domain.com.au/30-bet-street-truganina-vic-3029-17749916
16076984,TRUGANINA,3029,500.0,2166.0,"Monday, 08 September 2025",2025-08-18,21,3,2,1.0,House,77 Alison Street,-37.858147,144.72577,2025-09-09 16:31:41,16076984,FU-5684-YQ,14,0,0,False,House,House,The Eleet Wyndham City,32072,Eleet Property Leasing,"Floorboards, Built in wardrobes, Heating, Fully fenced, Energy efficient appliances, Solar panels",https://www.domain.com.au/77-alison-street-truganina-vic-3029-16076984
16084387,TRUGANINA,3029,620.0,2694.0,"Saturday, 06 September 2025",2025-08-08,32,4,2,2.0,House,31 Mitcham Street,-37.826145,144.72493,2025-09-09 16:31:41,16084387,XU-8728-DT,15,0,0,False,House,House,Ray White Tarneit,23886,"Marvin Paed, Savi Sarain","Heating, Air conditioning, Built in wardrobes, Secure Parking",https://www.domain.com.au/31-mitcham-street-truganina-vic-3029-16084387
16174164,TRUGANINA,3029,520.0,2260.0,"Saturday, 13 September 2025",2025-08-15,25,3,2,2.0,House,37 Holly Green Circuit,-37.838566,144.72629,2025-09-09 16:31:41,16174164,DS-2410-MI,12,0,0,False,House,House,Stockdale & Leggo Laverton / Altona / Point Cook,27481,SUNNY KUMAR,"Internal Laundry, Heating, Dishwasher, Balcony / Deck, Air conditioning, Ensuite, Built in wardrobes, Secure Parking, Solar hot water, Solar panels",https://www.domain.com.au/37-holly-green-circuit-truganina-vic-3029-16174164
16524373,TRUGANINA,3029,500.0,2173.0,"Tuesday, 16 September 2025",2025-08-19,21,4,2,2.0,House,19 Crosby Street,-37.759094,144.68802,2025-09-09 16:31:41,16524373,DG-3161-GX,11,0,0,False,House,House,ACE Real Estate,19089,"Alphie Jacob, Chloe Baira","Built in wardrobes, Gas, Secure Parking, Bath, Heating, Dishwasher",https://www.domain.com.au/19-crosby-street-truganina-vic-3029-16524373
16562681,TRUGANINA,3029,530.0,2303.0,"Saturday, 19 April 2025",2025-04-17,145,4,2,2.0,House,9 Durell Road,-37.826706,144.71114,2025-09-09 16:31:41,16562681,,14,0,0,False,House,House,Shine Real Estate Pty Ltd,27453,Rental Department,"Gas, Secure Parking, Heating, Dishwasher",https://www.domain.com.au/9-durell-road-truganina-vic-3029-16562681
16579134,TRUGANINA,3029,520.0,2253.0,"Tuesday, 30 September 2025",2025-09-03,6,4,2,2.0,House,1 Jude Cl,-37.824787,144.74869,2025-09-09 16:31:41,16579134,ID-5190-RM,15,0,1,False,House,House,Pine Crest Real Estate,35920,"Vijeta Kamboj, Taran Arora","Gas, Secure Parking, Heating, Ensuite",https://www.domain.com.au/1-jude-cl-truganina-vic-3029-16579134
16788040,TRUGANINA,3029,530.0,2303.0,"Sunday, 31 August 2025",2023-12-09,640,4,2,2.0,House,9 Aracar Street,-37.74951,144.68253,2025-09-09 16:31:41,16788040,CZ-2219-PX,16,1,0,False,House,House,BRW Group,34868,"BRW Leasing, Sinclair Mak",,https://www.domain.com.au/9-aracar-street-truganina-vic-3029-16788040
17095249,TRUGANINA,3029,490.0,2129.0,"Thursday, 11 September 2025",2025-08-12,28,4,2,2.0,House,3 Cowal Street,-37.765244,144.68646,2025-09-09 16:31:41,17095249,YX-7273-DN,17,0,0,False,House,House,Ray White Truganina,29324,"Akash Sharma, Palak Joshi",Heating,https://www.domain.com.au/3-cowal-street-truganina-vic-3029-17095249
17139274,TRUGANINA,3029,550.0,2383.0,"Thursday, 04 September 2025",2025-09-04,5,4,2,2.0,House,30 Terrigal Road,-37.754505,144.68127,2025-09-09 16:31:41,17139274,OG-2702-WS,24,0,0,False,House,House,The Eleet Wyndham City,32072,Eleet Property Leasing,"Internal Laundry, Alarm System, Built in wardrobes, Broadband internet access, Heating, Secure Parking, Double glazed windows, Energy efficient appliances",https://www.domain.com.au/30-terrigal-road-truganina-vic-3029-17139274
17346819,TRUGANINA,3029,530.0,2303.0,"Friday, 25 July 2025",2025-06-18,82,4,3,2.0,House,24 Sankuru Road,-37.770752,144.68999,2025-09-09 16:31:41,17346819,UE-3761-NM,11,0,0,False,House,House,Ray White Truganina,29324,"Akash Sharma, Palak Joshi","Secure Parking, Heating",https://www.domain.com.au/24-sankuru-road-truganina-vic-3029-17346819
17684394,TRUGANINA,3029,455.0,1978.0,"Thursday, 24 July 2025",2025-07-24,47,4,3,2.0,Townhouse,9 Craycroft Road,-37.762283,144.6721,2025-09-09 16:31:41,17684394,,13,0,0,False,Townhouse/Villa,Townhouse,Stockdale & Leggo Craigieburn/Mickleham,31877,"Lauren Vicary, Natalie Kent","Secure Parking, Ensuite, Built in wardrobes, Internal Laundry, Bath, Heating, Dishwasher, Water Views",https://www.domain.com.au/9-craycroft-road-truganina-vic-3029-17684394
17711797,TRUGANINA,3029,510.0,2216.0,"Friday, 15 August 2025",2025-08-12,28,4,2,2.0,House,5 Weyba Street,-37.75334,144.68346,2025-09-09 16:31:41,17711797,,7,0,0,False,House,House,Equity Estate Agents,37028,Cathy Boccia,Secure Parking,https://www.domain.com.au/5-weyba-street-truganina-vic-3029-17711797
17714501,TRUGANINA,3029,500.0,2173.0,"Thursday, 14 August 2025",2025-08-13,26,4,2,2.0,Townhouse,6 Cupola Walk,-37.747208,144.68103,2025-09-09 16:31:41,17714501,,14,0,0,False,Townhouse/Villa,Townhouse,Stockdale & Leggo Craigieburn/Mickleham,31877,"Lauren Vicary, Natalie Kent","Ensuite, Floorboards, Built in wardrobes, Internal Laundry, Bath, Heating, Dishwasher, Secure Parking, Fully fenced, Garden / Courtyard, Wall Panel Heating",https://www.domain.com.au/6-cupola-walk-truganina-vic-3029-17714501
17726941,TRUGANINA,3029,460.0,1999.0,"Friday, 22 August 2025",2025-08-21,18,4,2,2.0,House,14 Cupola Walk,-37.747303,144.6813,2025-09-09 16:31:41,17726941,,12,0,0,False,House,House,Stockdale & Leggo Craigieburn/Mickleham,31877,"Lauren Vicary, Natalie Kent","Ensuite, Internal Laundry, Bath, Heating, Dishwasher",https://www.domain.com.au/14-cupola-walk-truganina-vic-3029-17726941
17731608,TRUGANINA,3029,530.0,2303.0,"Tuesday, 26 August 2025",2025-08-26,14,4,2,2.0,House,16 Fenton Court,-37.84382,144.71587,2025-09-09 16:31:41,17731608,,15,0,0,False,House,House,Ray White Tarneit,23886,"Marvin Paed, Savi Sarain","Internal Laundry, Broadband internet access, Bath, Heating, Dishwasher, Air conditioning, Built in wardrobes, Separate Dining Room, Secure Parking",https://www.domain.com.au/16-fenton-court-truganina-vic-3029-17731608
17731954,TRUGANINA,3029,510.0,2216.0,"Tuesday, 26 August 2025",2025-08-26,14,3,2,1.0,House,2 Tobol Street,-37.767033,144.6887,2025-09-09 16:31:41,17731954,,14,0,0,False,House,House,Ray White Truganina,29324,"Akash Sharma, Palak Joshi",Secure Parking,https://www.domain.com.au/2-tobol-street-truganina-vic-3029-17731954
17733585,TRUGANINA,3029,590.0,2564.0,"Wednesday, 24 September 2025",2025-08-27,13,4,2,2.0,House,899 Morris Road,-37.8206,144.71057,2025-09-09 16:31:41,17733585,,14,1,0,False,House,House,Ray White Tarneit,23886,"Marvin Paed, Savi Sarain","Secure Parking, Heating",https://www.domain.com.au/899-morris-road-truganina-vic-3029-17733585
17739110,TRUGANINA,3029,450.0,1956.0,"Saturday, 30 August 2025",2025-08-29,10,4,2,2.0,House,8 Cupola Walk,-37.747234,144.6811,2025-09-09 16:31:41,17739110,,14,0,0,False,House,House,Stockdale & Leggo Craigieburn/Mickleham,31877,"Lauren Vicary, Natalie Kent","Secure Parking, Ensuite, Floorboards, Built in wardrobes, Internal Laundry, Bath, Heating, Dishwasher",https://www.domain.com.au/8-cupola-walk-truganina-vic-3029-17739110
17743048,TRUGANINA,3029,455.0,1978.0,"Tuesday, 02 September 2025",2025-09-02,7,4,3,2.0,Townhouse,7 Craycroft Road,-37.76223,144.67212,2025-09-09 16:31:41,17743048,,12,0,0,False,Townhouse/Villa,Townhouse,Stockdale & Leggo Craigieburn/Mickleham,31877,"Lauren Vicary, Natalie Kent","Secure Parking, Ensuite, Floorboards, Built in wardrobes, Internal Laundry, Bath, Heating, Dishwasher",https://www.domain.com.au/7-craycroft-road-truganina-vic-3029-17743048
17747587,TRUGANINA,3029,550.0,2390.0,"Thursday, 04 September 2025",2025-09-04,5,4,2,2.0,House,16 Roccella Avenue,-37.74771,144.6768,2025-09-09 16:31:41,17747587,,8,0,1,False,House,House,Huxley Real Estate,38920,"Jetah Keighran, Shae Joiner","Internal Laundry, Secure Parking, Broadband internet access, Ensuite, Built in wardrobes, Bath, Heating, Dishwasher",https://www.domain.com.au/16-roccella-avenue-truganina-vic-3029-17747587
15103182,TRUGANINA,3029,610.0,2651.0,"Saturday, 20 September 2025",2025-08-14,26,4,2,2.0,House,8 Morse Street,-37.82444,144.71423,2025-09-09 16:31:47,15103182,RD-5175-MM,15,0,0,False,House,House,Sahara Real Estate,30767,"Robyn Morgan, Sahara RE Admin","Bath, Heating, Study, Air conditioning, Built in wardrobes, Separate Dining Room, Secure Parking",https://www.domain.com.au/8-morse-street-truganina-vic-3029-15103182
15738895,TRUGANINA,3029,510.0,2216.0,"Saturday, 20 September 2025",2025-09-01,8,3,2,2.0,House,3 Choy Street,-37.850964,144.73898,2025-09-09 16:31:47,15738895,JY-9690-ZI,10,0,0,False,House,House,Harcourts Point Cook,20054,Solene Para,"Internal Laundry, Secure Parking, Heating, Ensuite",https://www.domain.com.au/3-choy-street-truganina-vic-3029-15738895
15995858,TRUGANINA,3029,520.0,2260.0,"Monday, 15 September 2025",2025-08-27,13,4,2,2.0,House,35 Gila Way,-37.767735,144.69218,2025-09-09 16:31:47,15995858,UP-6139-RH,16,0,0,False,House,House,Harcourts Point Cook,20054,Solene Para,"Internal Laundry, Secure Parking, Heating, Ensuite",https://www.domain.com.au/35-gila-way-truganina-vic-3029-15995858
16456733,TRUGANINA,3029,460.0,1999.0,"Monday, 18 August 2025",2025-08-13,27,3,2,1.0,House,17 Moombil Road,-37.767166,144.69179,2025-09-09 16:31:47,16456733,SL-5615-FE,10,0,0,False,House,House,ONE Agency Property Masters,32157,"Divya Sachdeva, Dinesh Khurana",Internal Laundry,https://www.domain.com.au/17-moombil-road-truganina-vic-3029-16456733
16539027,TRUGANINA,3029,560.0,2426.0,"Friday, 05 September 2025",2025-09-05,4,4,2,2.0,House,920 Morris Road,-37.818165,144.71164,2025-09-09 16:31:47,16539027,JP-3194-NS,6,0,0,False,House,House,Bal Real Estate ,34023,"Deepti Malhotra, Sandeep Sanjeev","Internal Laundry, Secure Parking, Heating, Dishwasher",https://www.domain.com.au/920-morris-road-truganina-vic-3029-16539027
17412797,TRUGANINA,3029,530.0,2303.0,"Monday, 06 October 2025",2025-09-04,5,4,3,2.0,House,171 Clara Avenue,-37.766983,144.69115,2025-09-09 16:31:47,17412797,WN-7483-TJ,12,0,0,False,House,House,Ray White Werribee,29214,"Maya Hunak, Marc Tanti","Secure Parking, Heating, Dishwasher",https://www.domain.com.au/171-clara-avenue-truganina-vic-3029-17412797
17704658,TRUGANINA,3029,525.0,2281.0,"Wednesday, 13 August 2025",2025-08-07,33,3,2,2.0,Townhouse,6 Artichoke Walk,-37.821644,144.7173,2025-09-09 16:31:47,17704658,,7,0,0,False,Townhouse/Villa,Townhouse,Ray White Werribee,29214,"Maya Hunak, Marc Tanti","Secure Parking, Heating",https://www.domain.com.au/6-artichoke-walk-truganina-vic-3029-17704658
17710924,TRUGANINA,3029,460.0,1999.0,"Tuesday, 12 August 2025",2025-08-12,28,4,2,2.0,House,30 Sama Promenade,-37.75662,144.67363,2025-09-09 16:31:47,17710924,,11,0,0,False,House,House,Ray White Rockbank,34315,"Savvy Sidhu, Reet Sarain","Secure Parking, Heating",https://www.domain.com.au/30-sama-promenade-truganina-vic-3029-17710924
17721215,TRUGANINA,3029,470.0,2129.0,"Saturday, 30 August 2025",2025-08-19,21,3,2,2.0,House,155 Westmeadows Lane Lane,-37.84201,144.71194,2025-09-09 16:31:47,17721215,,3,0,0,False,House,House,Guardian Property & Asset Management Werribee,15427,Guardian Melbourne,"Built in wardrobes, Garden / Courtyard, Dishwasher, Ducted Heating, Fully fenced, Outdoor Entertainment Area, Pets Allowed, Remote Garage, Secure Parking",https://www.domain.com.au/155-westmeadows-lane-lane-truganina-vic-3029-17721215
17735398,TRUGANINA,3029,630.0,2730.0,"Wednesday, 27 August 2025",2025-08-27,12,4,2,2.0,House,52 Trevor Crescent,-37.831936,144.71474,2025-09-09 16:31:47,17735398,,13,0,0,False,House,House,The Eleet Wyndham City,32072,Eleet Property Leasing,"Built in wardrobes, Gas, Internal Laundry, Secure Parking, Broadband internet access, Bath, Heating, Dishwasher",https://www.domain.com.au/52-trevor-crescent-truganina-vic-3029-17735398
17739562,TRUGANINA,3029,500.0,2173.0,"Friday, 29 August 2025",2025-09-01,8,3,2,2.0,House,24 Pedirka Road,-37.766632,144.6862,2025-09-09 16:31:47,17739562,,12,1,0,False,House,House,BRW Group,34868,"BRW Leasing, Sinclair Mak","Secure Parking, Air conditioning, Alarm System, Heating, Dishwasher, Garden / Courtyard, Ground floor, Solar hot water",https://www.domain.com.au/24-pedirka-road-truganina-vic-3029-17739562
17740813,TRUGANINA,3029,500.0,2173.0,"Monday, 01 September 2025",2025-09-04,4,3,2,1.0,House,6 Bunch Walk,-37.81502,144.71645,2025-09-09 16:31:47,17740813,,8,0,0,False,House,House,.established Property,4979,Established Property Leasing,Secure Parking,https://www.domain.com.au/6-bunch-walk-truganina-vic-3029-17740813
17744876,TRUGANINA,3029,560.0,2433.0,"Wednesday, 03 September 2025",2025-09-03,6,3,2,2.0,House,3 Rathmines Road,-37.814075,144.71516,2025-09-09 16:31:47,17744876,,14,0,0,False,House,House,Area Specialist West,37887,"Jordan Chircop, Stephanie Scerri","Intercom, Heating, Dishwasher",https://www.domain.com.au/3-rathmines-road-truganina-vic-3029-17744876
17747826,TRUGANINA,3029,550.0,2390.0,"Wednesday, 01 October 2025",2025-09-04,5,4,2,2.0,House,21 Hanish Street,-37.755844,144.67645,2025-09-09 16:31:47,17747826,,16,0,0,False,House,House,Ray White Point Cook,29063,"Palak Grover, Makayla Hurinui","Secure Parking, Heating, Solar panels",https://www.domain.com.au/21-hanish-street-truganina-vic-3029-17747826
17747863,TRUGANINA,3029,600.0,2607.0,"Thursday, 04 September 2025",2025-09-04,5,4,2,1.0,House,24 Westdahl Street,-37.75748,144.67714,2025-09-09 16:31:47,17747863,,15,0,0,False,House,House,Stockdale & Leggo Glenroy,4131,"Leasing Division, Kristen Oscini","Gas, Internal Laundry, Heating, Built in wardrobes, Close to schools, Close to shops, Close to transport, Dishwasher, Fully fenced, Remote Garage, Air conditioning, Study",https://www.domain.com.au/24-westdahl-street-truganina-vic-3029-17747863
17748204,TRUGANINA,3029,650.0,2824.0,"Monday, 15 September 2025",2025-09-04,4,4,2,2.0,House,3 Education Circuit,-37.85076,144.71634,2025-09-09 16:31:47,17748204,,12,0,0,False,House,House,Avenue West Real Estate,34866,"Perccy Chaudhary, Patrick Chaudhary","Internal Laundry, Secure Parking, Bath",https://www.domain.com.au/3-education-circuit-truganina-vic-3029-17748204
17749461,TRUGANINA,3029,460.0,1999.0,"Sunday, 12 October 2025",2025-09-05,4,3,2,2.0,House,69 Ararat Street,-37.760056,144.67114,2025-09-09 16:31:47,17749461,,14,0,1,False,House,House,THE AGENTS EXCELLENCE IN REAL ESTATE,32651,"Sandy Agrawal, Leasing Team","Secure Parking, Dishwasher, Solar panels, Air conditioning, Heating, Built in wardrobes, Close to transport, Close to shops, Close to schools, Ensuite",https://www.domain.com.au/69-ararat-street-truganina-vic-3029-17749461
17749639,TRUGANINA,3029,550.0,2390.0,"Friday, 12 September 2025",2025-09-05,4,4,2,2.0,House,17 Tottori Road,-37.766674,144.68417,2025-09-09 16:31:47,17749639,,12,0,0,False,House,House,Agents'Agency Network Partners,11919,Pracilla Lal,"Pets Allowed, Ensuite, Floorboards, Built in wardrobes, Internal Laundry, Bath, Heating, Dishwasher, Secure Parking, Fully fenced",https://www.domain.com.au/17-tottori-road-truganina-vic-3029-17749639
17749925,TRUGANINA,3029,520.0,2260.0,"Monday, 08 September 2025",2025-09-05,3,4,2,2.0,House,83 Craycroft Rd,-37.76404,144.67564,2025-09-09 16:31:47,17749925,,12,0,0,False,House,House,Realty Finder Group,37363,"Peter Dang, Tam Huynh",Secure Parking,https://www.domain.com.au/83-craycroft-rd-truganina-vic-3029-17749925
17750093,TRUGANINA,3029,580.0,2520.0,"Wednesday, 03 September 2025",2025-09-05,3,4,3,2.0,House,12 Frank Avenue,-37.750233,144.67435,2025-09-09 16:31:47,17750093,,13,0,0,False,House,House,Alliance Estate Agents Wyndham,34960,"Simon Dangol, Ken Maharjan","Fully fenced, Remote Garage, Built in wardrobes, Dishwasher, Floorboards, Ducted Cooling, Ducted Heating, Ensuite",https://www.domain.com.au/12-frank-avenue-truganina-vic-3029-17750093
15075002,TRUGANINA,3029,575.0,2499.0,"Monday, 08 September 2025",2025-08-26,14,4,2,2.0,House,36 Maling Road,-37.813892,144.71921,2025-09-09 16:31:53,15075002,AI-6964-VW,23,0,0,False,House,House,Stockdale & Leggo Laverton / Altona / Point Cook,27481,SUNNY KUMAR,"Internal Laundry, Secure Parking, Heating, Dishwasher, Ensuite",https://www.domain.com.au/36-maling-road-truganina-vic-3029-15075002
15115919,TRUGANINA,3029,580.0,2520.0,"Friday, 17 October 2025",2025-09-04,5,4,2,2.0,House,20 Doyle Court,-37.845253,144.71529,2025-09-09 16:31:53,15115919,VD-2694-TR,21,0,0,False,House,House,Stockdale & Leggo Laverton / Altona / Point Cook,27481,SUNNY KUMAR,"Internal Laundry, Secure Parking, Heating, Dishwasher, Balcony / Deck, Ensuite",https://www.domain.com.au/20-doyle-court-truganina-vic-3029-15115919
16503528,TRUGANINA,3029,625.0,2708.0,"Thursday, 07 August 2025",2025-06-10,90,4,2,2.0,House,41 Tony Drive,-37.844242,144.71477,2025-09-09 16:31:53,16503528,KJ-1253-BH,11,0,0,False,House,House,Raine & Horne Blackburn,29609,"Rupa Mane, Patrick Mane",Pets Allowed,https://www.domain.com.au/41-tony-drive-truganina-vic-3029-16503528
16885566,TRUGANINA,3029,520.0,2260.0,"Monday, 22 September 2025",2025-08-19,21,3,2,1.0,House,23 Omaroo Street,-37.84718,144.73004,2025-09-09 16:31:53,16885566,WW-1913-WU,11,0,0,False,House,House,Ray White Truganina,29324,"Mehreen Tariq, Palak Joshi",Heating,https://www.domain.com.au/23-omaroo-street-truganina-vic-3029-16885566
16890989,TRUGANINA,3029,550.0,2390.0,"Tuesday, 23 September 2025",2025-09-04,5,3,2,1.0,House,183 Clara Avenue,-37.76751,144.69107,2025-09-09 16:31:53,16890989,GI-6021-NP,14,0,0,False,House,House,Ray White Truganina,29324,"Akash Sharma, Palak Joshi","Secure Parking, Heating",https://www.domain.com.au/183-clara-avenue-truganina-vic-3029-16890989
17006662,TRUGANINA,3029,430.0,1869.0,"Monday, 11 August 2025",2025-07-23,48,3,2,1.0,House,48 Amukta Road,-37.762608,144.67447,2025-09-09 16:31:53,17006662,JC-4437-XO,10,0,0,True,House,House,Stockdale & Leggo Craigieburn/Mickleham,31877,"Natalie Kent, Lauren Vicary","Ensuite, Built in wardrobes, Internal Laundry, Bath, Heating, Dishwasher, Secure Parking",https://www.domain.com.au/48-amukta-road-truganina-vic-3029-17006662
17035934,TRUGANINA,3029,580.0,2520.0,"Saturday, 13 September 2025",2025-08-20,19,4,2,2.0,House,22 Red Robin Road,-37.840393,144.72025,2025-09-09 16:31:53,17035934,RW-4103-GQ,15,0,0,False,House,House,ACE Real Estate,19089,"Riya Sharma, Ajitesh Arora","Internal Laundry, Secure Parking, Heating, Dishwasher, Solar panels",https://www.domain.com.au/22-red-robin-road-truganina-vic-3029-17035934
17146383,TRUGANINA,3029,575.0,2499.0,"Friday, 26 September 2025",2025-09-03,5,4,2,2.0,House,21 Shamrock Way,-37.848682,144.73103,2025-09-09 16:31:53,17146383,II-0437-MA,11,0,0,False,House,House,THE AGENTS EXCELLENCE IN REAL ESTATE,32651,"Sandy Agrawal, Leasing Team","Secure Parking, Air conditioning, Heating, Built in wardrobes, Close to transport, Close to shops, Close to schools, Ensuite",https://www.domain.com.au/21-shamrock-way-truganina-vic-3029-17146383
17195147,TRUGANINA,3029,600.0,2607.0,"Friday, 20 September 2024",2025-08-15,25,5,2,2.0,House,4 BOARDMAN STREET,-37.82793,144.71214,2025-09-09 16:31:53,17195147,TV-0442-TT,12,0,0,False,House,House,The Roof Real Estate,36733,Rita Sehgal,"Secure Parking, Heating",https://www.domain.com.au/4-boardman-street-truganina-vic-3029-17195147
17232209,TRUGANINA,3029,530.0,2296.0,"Wednesday, 03 September 2025",2025-09-03,6,4,2,2.0,House,10 Colorado Street,-37.7661,144.6927,2025-09-09 16:31:53,17232209,AB-7113-XP,18,0,0,False,House,House,Bal Real Estate ,34023,"Deepti Malhotra, Sandeep Sanjeev","Gas, Internal Laundry, Secure Parking, Fireplace(s), Dishwasher",https://www.domain.com.au/10-colorado-street-truganina-vic-3029-17232209
17708928,TRUGANINA,3029,525.0,2281.0,"Monday, 11 August 2025",2025-08-11,29,4,2,2.0,House,25 Vanderbilt Avenue,-37.845367,144.72522,2025-09-09 16:31:53,17708928,,14,0,0,False,House,House,Ray White Truganina,29324,"Mounika Reddy, Palak Joshi","Secure Parking, Bath, Heating, Fully fenced",https://www.domain.com.au/25-vanderbilt-avenue-truganina-vic-3029-17708928
17717628,TRUGANINA,3029,500.0,2173.0,"Saturday, 09 August 2025",2025-08-15,25,4,2,2.0,House,50 Sama Promenade,-37.757736,144.67311,2025-09-09 16:31:53,17717628,,15,0,0,False,House,House,OSKO Real Estate Agency,37723,Osko Rentals,"Internal Laundry, Secure Parking, Heating",https://www.domain.com.au/50-sama-promenade-truganina-vic-3029-17717628
17730903,TRUGANINA,3029,500.0,2173.0,"Monday, 25 August 2025",2025-08-25,14,4,2,,House,10 Sama Promenade,-37.75558,144.67413,2025-09-09 16:31:53,17730903,,14,0,0,False,House,House,Reliance Real Estate Melton,28914,"Daisy Singh, Courtney Jane","Internal Laundry, Secure Parking, Heating",https://www.domain.com.au/10-sama-promenade-truganina-vic-3029-17730903
17740648,TRUGANINA,3029,530.0,2303.0,"Tuesday, 07 October 2025",2025-09-01,8,4,2,2.0,House,84 Clara Avenue,-37.76109,144.69208,2025-09-09 16:31:53,17740648,,17,0,0,False,House,House,Ray White Point Cook,29063,"Palak Grover, Makayla Hurinui","Secure Parking, Heating",https://www.domain.com.au/84-clara-avenue-truganina-vic-3029-17740648
17743545,TRUGANINA,3029,540.0,2346.0,"Tuesday, 23 September 2025",2025-09-02,7,3,2,2.0,House,4 Meadowcroft Drive,-37.847504,144.73189,2025-09-09 16:31:53,17743545,,15,0,0,False,House,House,Ray White Truganina,29324,"Mounika Reddy, Palak Joshi","Secure Parking, Heating",https://www.domain.com.au/4-meadowcroft-drive-truganina-vic-3029-17743545
17744457,TRUGANINA,3029,530.0,2303.0,"Monday, 22 September 2025",2025-09-03,6,4,2,2.0,House,16 Stable Drive,-37.841446,144.72342,2025-09-09 16:31:53,17744457,,10,0,0,False,House,House,Ray White Point Cook,29063,"Palak Grover, Makayla Hurinui","Air conditioning, Internal Laundry, Secure Parking, Heating",https://www.domain.com.au/16-stable-drive-truganina-vic-3029-17744457
17745665,TRUGANINA,3029,590.0,,"Monday, 25 August 2025",2025-09-03,6,4,2,,House,20 Sagittarius Avenue,-37.831673,144.72415,2025-09-09 16:31:53,17745665,,14,0,0,False,House,House,Agents'Agency Network Partners,11919,Lovejit Malhi,Secure Parking,https://www.domain.com.au/20-sagittarius-avenue-truganina-vic-3029-17745665
17746033,TRUGANINA,3029,760.0,3302.0,"Friday, 26 September 2025",2025-09-03,6,6,3,3.0,House,6 Brightly Boulevard,-37.825592,144.72942,2025-09-09 16:31:53,17746033,,11,0,0,False,House,House,ACE Real Estate,19089,"Riya Sharma, Ajitesh Arora","Gas, Internal Laundry, Secure Parking, Heating, Dishwasher, Study, Balcony / Deck",https://www.domain.com.au/6-brightly-boulevard-truganina-vic-3029-17746033
17746592,TRUGANINA,3029,540.0,2346.0,"Tuesday, 23 September 2025",2025-09-04,5,3,2,2.0,House,28 Elderwood Avenue,-37.844173,144.73799,2025-09-09 16:31:53,17746592,,11,0,0,False,House,House,RELIANCE REAL ESTATE TARNEIT,18363,Cassandra Wallace,"Secure Parking, Bath",https://www.domain.com.au/28-elderwood-avenue-truganina-vic-3029-17746592
17746660,TRUGANINA,3029,600.0,2607.0,"Wednesday, 24 September 2025",2025-09-04,5,4,2,2.0,House,1 Virgo Walk,-37.828674,144.70805,2025-09-09 16:31:53,17746660,,10,1,0,False,House,House,Dynamic Estate Group,23759,Rental Dynamic,"Intercom, Alarm System, Rumpus Room, Floorboards, Built in wardrobes, Dishwasher, Gas Appliances, Split System Heating, Split System Air Conditioning, Outdoor Entertainment Area, Balcony, Courtyard, Secure Parking",https://www.domain.com.au/1-virgo-walk-truganina-vic-3029-17746660
17225549,TRUGANINA,3029,500.0,2173.0,"Monday, 01 September 2025",2025-08-20,20,4,3,2.0,House,28 Bakanovi Drive,-37.761078,144.674,2025-09-09 16:31:59,17225549,HF-8225-ED,23,0,0,False,House,House,ACE Real Estate,19089,"Julie  Strnak, Swati Patel","Air conditioning, Built in wardrobes, Gas, Internal Laundry, Secure Parking, Heating, Dishwasher, Solar panels",https://www.domain.com.au/28-bakanovi-drive-truganina-vic-3029-17225549
17654224,TRUGANINA,3029,525.0,2281.0,"Saturday, 09 August 2025",2025-07-04,67,4,2,2.0,House,12 Moombil Road,-37.76678,144.69147,2025-09-09 16:31:59,17654224,,11,0,0,False,House,House,WP Real Estate,8491,"Adam Farrugia, Tania Smith","Secure Parking, Intercom, Bath, Heating, Dishwasher",https://www.domain.com.au/12-moombil-road-truganina-vic-3029-17654224
17709450,TRUGANINA,3029,500.0,2173.0,"Monday, 11 August 2025",2025-08-11,29,3,2,1.0,House,5/12 Cheviot Dr,-37.859306,144.72827,2025-09-09 16:31:59,17709450,,11,0,1,False,House,House,HEDLEY REAL ESTATE,31782,"Kayla Crea, William Saritschniy",,https://www.domain.com.au/5-12-cheviot-dr-truganina-vic-3029-17709450
17717664,TRUGANINA,3029,500.0,2173.0,"Saturday, 09 August 2025",2025-08-15,25,4,2,2.0,House,54 Sama Promenade,-37.75654,144.67387,2025-09-09 16:31:59,17717664,,15,0,0,False,House,House,OSKO Real Estate Agency,37723,Osko Rentals,"Internal Laundry, Secure Parking, Heating",https://www.domain.com.au/54-sama-promenade-truganina-vic-3029-17717664
17720463,TRUGANINA,3029,560.0,2433.0,"Monday, 18 August 2025",2025-08-18,22,4,2,2.0,House,16 Stockyard Street,-37.833843,144.71387,2025-09-09 16:31:59,17720463,,18,0,0,False,House,House,YPA Estate Agents Wyndham City,17920,"Amy McMaster, Taylah Ford","Secure Parking, Heating",https://www.domain.com.au/16-stockyard-street-truganina-vic-3029-17720463
17724002,TRUGANINA,3029,500.0,2173.0,"Friday, 19 September 2025",2025-08-20,20,3,2,2.0,House,20 Lucerne Drive,-37.81642,144.7132,2025-09-09 16:31:59,17724002,,8,1,1,True,House,House,Harcourts Rata & Co,30123,Melissa Di Blasio,"Gas, Secure Parking, Dishwasher, Air conditioning, Heating, Built in wardrobes, Close to shops, Close to schools, Ensuite, Carpeted, Openable Windows",https://www.domain.com.au/20-lucerne-drive-truganina-vic-3029-17724002
17735692,TRUGANINA,3029,550.0,2390.0,"Wednesday, 27 August 2025",2025-08-27,12,4,2,2.0,House,8 Sama Promenade,-37.755474,144.67418,2025-09-09 16:31:59,17735692,,11,0,0,False,House,House,Aston Rose Real Estate,34232,Nalaka Thialakarathna,"Secure Parking, Air conditioning, Ensuite, Floorboards, Internal Laundry, Cable or Satellite, Heating, Dishwasher, Built in wardrobes",https://www.domain.com.au/8-sama-promenade-truganina-vic-3029-17735692
17736679,TRUGANINA,3029,560.0,2433.0,"Saturday, 06 September 2025",2025-08-28,12,4,2,2.0,House,12 Montgomery Drive,-37.821358,144.71802,2025-09-09 16:31:59,17736679,,20,0,0,False,House,House,Biggin Scott Wyndham City | Melton,27527,Elizabeth Tolkacz,"Internal Laundry, Secure Parking, Broadband internet access, Heating, Dishwasher, Study, Ensuite",https://www.domain.com.au/12-montgomery-drive-truganina-vic-3029-17736679
17737296,TRUGANINA,3029,550.0,2390.0,"Wednesday, 27 August 2025",2025-08-28,11,3,3,1.0,House,5 Springsure Street,-37.74818,144.68196,2025-09-09 16:31:59,17737296,,14,0,0,False,House,House,M&K Investment Solutions,38179,,"Fully fenced, Remote Garage, Alarm System, Built in wardrobes, Dishwasher, Floorboards, Intercom, Ducted Heating, Split-System Air Conditioning",https://www.domain.com.au/5-springsure-street-truganina-vic-3029-17737296
17737482,TRUGANINA,3029,425.0,1846.0,"Friday, 29 August 2025",2025-08-28,11,3,2,1.0,House,12 Skeleton Avenue,-37.76314,144.67352,2025-09-09 16:31:59,17737482,,14,1,0,True,House,House,Austrump Glen Pty Ltd,31049,"Yung Khaw, Mary Navarro","Internal Laundry, Secure Parking, Heating, Pets Allowed",https://www.domain.com.au/12-skeleton-avenue-truganina-vic-3029-17737482
17738765,TRUGANINA,3029,650.0,2824.0,"Friday, 05 September 2025",2025-08-29,11,5,2,2.0,House,80 Codrington Road,-37.815536,144.7191,2025-09-09 16:31:59,17738765,,19,0,0,False,House,House,Raine & Horne Point Cook - Williams Landing,23285,Sonny Castillo,"Secure Parking, Broadband internet access, Heating, Dishwasher, Study, Solar panels, Ensuite",https://www.domain.com.au/80-codrington-road-truganina-vic-3029-17738765
17739915,TRUGANINA,3029,560.0,2433.0,"Wednesday, 01 October 2025",2025-09-01,8,4,2,2.0,House,116 Altezze Drive,-37.75574,144.67885,2025-09-09 16:31:59,17739915,,15,0,0,False,House,House,hockingstuart Wyndham City,16107,"Breanna Barnes, Jessica Tong","Heating, Study",https://www.domain.com.au/116-altezze-drive-truganina-vic-3029-17739915
17741120,TRUGANINA,3029,510.0,2216.0,"Monday, 10 July 2023",2025-09-01,8,4,2,2.0,House,16 Gelantipy Drive,-37.76175,144.67537,2025-09-09 16:31:59,17741120,,11,0,0,False,House,House,Equity Wise Real Estate,35180,"Nim Kaur, Priya Kumar","Fully fenced, Outdoor Entertainment Area, Remote Garage, Built in wardrobes, Dishwasher, Floorboards, Ducted Heating, Evaporative Cooling, Ensuite",https://www.domain.com.au/16-gelantipy-drive-truganina-vic-3029-17741120
17741705,TRUGANINA,3029,580.0,2607.0,"Monday, 01 September 2025",2025-09-01,8,4,2,2.0,House,56 Maling Road,-37.81385,144.71779,2025-09-09 16:31:59,17741705,,24,0,1,False,House,House,RELIANCE REAL ESTATE TARNEIT,18363,Bansari Raval,"Secure Parking, Broadband internet access, Heating",https://www.domain.com.au/56-maling-road-truganina-vic-3029-17741705
17741973,TRUGANINA,3029,740.0,3216.0,"Tuesday, 16 September 2025",2025-09-01,7,4,2,2.0,House,28 Ringarooma Drive,-37.824074,144.70724,2025-09-09 16:31:59,17741973,,26,0,1,False,House,House,Area Specialist Wyndham,34164,"Kayla Kelly, Nikki Suhalka","Study, Solar panels",https://www.domain.com.au/28-ringarooma-drive-truganina-vic-3029-17741973
17742248,TRUGANINA,3029,480.0,,"Monday, 01 September 2025",2025-09-02,7,4,2,2.0,House,14 Azas Street,-37.76122,144.67625,2025-09-09 16:31:59,17742248,,12,0,0,False,House,House,Elders Wyndham City,35208,"Ashima Kaloti, Sunaina Puri","Secure Parking, Bath, Heating, Dishwasher",https://www.domain.com.au/14-azas-street-truganina-vic-3029-17742248
17742728,TRUGANINA,3029,550.0,550.0,"Tuesday, 02 September 2025",2025-09-02,7,4,2,1.0,House,20 Scorpio Crescent,-37.83138,144.72458,2025-09-09 16:31:59,17742728,,14,0,0,False,House,House,Rolling Realty,39457,Steven Tan,"Built in wardrobes, Gas, Alarm System, Bath, Dishwasher, Secure Parking",https://www.domain.com.au/20-scorpio-crescent-truganina-vic-3029-17742728
17743113,TRUGANINA,3029,510.0,2216.0,"Thursday, 02 October 2025",2025-09-02,7,4,2,2.0,House,15 Coronado Crescent,-37.748074,144.67903,2025-09-09 16:31:59,17743113,,12,0,0,False,House,House,Elite Agents & Partners,31353,Rebecca Hart,"Outdoor Entertainment Area, Remote Garage, Secure Parking, Built in wardrobes, Dishwasher, Floorboards, Ducted Heating, Evaporative Cooling, Ensuite",https://www.domain.com.au/15-coronado-crescent-truganina-vic-3029-17743113
17743408,TRUGANINA,3029,500.0,2173.0,"Monday, 22 September 2025",2025-09-02,7,3,2,2.0,House,957 Morris Road,-37.816807,144.71112,2025-09-09 16:31:59,17743408,,12,0,0,False,House,House,LJ Hooker Property Point,22180,"Dema Haddad, Nathan Long","Internal Laundry, Dishwasher",https://www.domain.com.au/957-morris-road-truganina-vic-3029-17743408
17743837,TRUGANINA,3029,450.0,1956.0,"Tuesday, 02 September 2025",2025-09-02,7,2,2,1.0,House,2/3 Horseshoe Circuit,-37.842045,144.72264,2025-09-09 16:31:59,17743837,,16,0,0,False,House,House,REMAX ACPA,34510,Camila Jing,Heating,https://www.domain.com.au/2-3-horseshoe-circuit-truganina-vic-3029-17743837
14461655,TRUGANINA,3029,580.0,2520.0,"Saturday, 04 October 2025",2025-08-27,13,4,2,2.0,House,7 Viaduct Parade,-37.866104,144.7213,2025-09-09 16:32:03,14461655,NL-5686-VB,19,0,0,False,House,House,Raine & Horne Point Cook - Williams Landing,23285,Sonny Castillo,"Secure Parking, Heating, Dishwasher, Balcony / Deck, Ensuite",https://www.domain.com.au/7-viaduct-parade-truganina-vic-3029-14461655
15637102,TRUGANINA,3029,690.0,2998.0,"Wednesday, 01 October 2025",2025-08-27,12,5,2,2.0,House,13 Malmaison Crescent,-37.84677,144.7388,2025-09-09 16:32:03,15637102,TC-3575-TC,23,0,0,True,House,House,Raine & Horne Point Cook - Williams Landing,23285,Sonny Castillo,"Secure Parking, Heating, Dishwasher, Study, Solar panels, Air conditioning, Alarm System, Built in wardrobes",https://www.domain.com.au/13-malmaison-crescent-truganina-vic-3029-15637102
17277693,TRUGANINA,3029,530.0,2303.0,"Friday, 12 September 2025",2025-08-27,13,3,2,1.0,House,27 Talliver Terrace,-37.847767,144.71603,2025-09-09 16:32:03,17277693,XE-6051-DH,10,0,0,False,House,House,VICPROP Point Cook and Williams Landing,33528,"Lisha Wen, Leasing Team Vicprop","Built in wardrobes, Secure Parking, Furnished, Heating",https://www.domain.com.au/27-talliver-terrace-truganina-vic-3029-17277693
17449616,TRUGANINA,3029,500.0,2172.0,"Tuesday, 30 September 2025",2025-08-27,13,3,2,1.0,House,19 Etna Road,-37.74854,144.68234,2025-09-09 16:32:03,17449616,VG-0008-XI,11,0,0,False,House,House,Good News Real Estate,35177,Rental Department,Ensuite,https://www.domain.com.au/19-etna-road-truganina-vic-3029-17449616
17725061,TRUGANINA,3029,530.0,2303.0,"Wednesday, 20 August 2025",2025-08-20,19,4,2,2.0,House,12 Kilcunda Drive,-37.81558,144.70996,2025-09-09 16:32:03,17725061,,18,0,0,False,House,House,AGENCY HQ Melbourne West,37657,"Antony Varghese, Giji Antony","Courtyard, Fully fenced, Remote Garage, Broadband Internet Available, Built in wardrobes, Dishwasher, Rumpus Room, Air conditioning, Ducted Heating, Ensuite",https://www.domain.com.au/12-kilcunda-drive-truganina-vic-3029-17725061
17726208,TRUGANINA,3029,485.0,2107.0,"Saturday, 30 August 2025",2025-08-21,19,4,2,2.0,House,8 Burbridge Street,-37.75862,144.6903,2025-09-09 16:32:03,17726208,,11,0,1,False,House,House,First National Real Estate D & K ,15204,"Dorothy Schembri, Jordon Gillett",,https://www.domain.com.au/8-burbridge-street-truganina-vic-3029-17726208
17727732,TRUGANINA,3029,600.0,2607.0,"Friday, 17 October 2025",2025-08-22,18,4,2,1.0,House,21 Ramsgate Crescent,-37.84366,144.74312,2025-09-09 16:32:03,17727732,,13,0,0,False,House,House,.established Property,4979,Established Property Leasing,"Secure Parking, Heating, Study",https://www.domain.com.au/21-ramsgate-crescent-truganina-vic-3029-17727732
17728011,TRUGANINA,3029,600.0,2607.0,"Monday, 08 September 2025",2025-08-22,18,4,2,2.0,House,18 Vetiver Avenue,-37.844013,144.73506,2025-09-09 16:32:03,17728011,,20,0,0,False,House,House,RELIANCE REAL ESTATE TARNEIT,18363,William Feng,Heating,https://www.domain.com.au/18-vetiver-avenue-truganina-vic-3029-17728011
17728081,TRUGANINA,3029,530.0,2303.0,"Saturday, 06 September 2025",2025-08-22,18,3,2,2.0,House,3 Holly Green Circuit,-37.83854,144.72511,2025-09-09 16:32:03,17728081,,15,0,1,False,House,House,RELIANCE REAL ESTATE TARNEIT,18363,Cassandra Wallace,"Air conditioning, Secure Parking, Heating, Dishwasher",https://www.domain.com.au/3-holly-green-circuit-truganina-vic-3029-17728081
17728428,TRUGANINA,3029,550.0,2390.0,"Friday, 19 September 2025",2025-08-22,18,4,2,2.0,House,19 Elsham Grove,-37.848705,144.73604,2025-09-09 16:32:03,17728428,,5,0,0,False,House,House,Reliance Real Estate Point Cook,26805,"Zelda Van Rensburg, Carlie Hoffman, Yash Shaw","Secure Parking, Heating",https://www.domain.com.au/19-elsham-grove-truganina-vic-3029-17728428
17728888,TRUGANINA,3029,460.0,1998.0,"Monday, 25 August 2025",2025-08-22,17,3,2,1.0,House,71 Madeira Drive,-37.763496,144.68459,2025-09-09 16:32:03,17728888,,14,1,0,True,House,House,Austrump Glen Pty Ltd,31049,Vincent Xiao,Pets Allowed,https://www.domain.com.au/71-madeira-drive-truganina-vic-3029-17728888
17729621,TRUGANINA,3029,500.0,2172.0,"Monday, 08 September 2025",2025-08-25,15,3,2,1.0,House,18 Bunch Walk,-37.815056,144.71684,2025-09-09 16:32:03,17729621,,10,0,0,False,House,House,Harcourts Rata & Co,30123,Taylah Lowe,"Gas, Secure Parking, Heating, Built in wardrobes, Close to shops, Close to schools, Ensuite, Openable Windows, Split System Cooling, Dishwasher",https://www.domain.com.au/18-bunch-walk-truganina-vic-3029-17729621
17730124,TRUGANINA,3029,460.0,1999.0,"Tuesday, 26 August 2025",2025-08-25,15,3,2,1.0,House,28 Sechura Road,-37.767254,144.68442,2025-09-09 16:32:03,17730124,,13,0,0,False,House,House,Ray White Point Cook,29063,"Palak Grover, Makayla Hurinui","Internal Laundry, Secure Parking, Heating, Solar panels",https://www.domain.com.au/28-sechura-road-truganina-vic-3029-17730124
17730479,TRUGANINA,3029,510.0,2216.0,"Wednesday, 24 September 2025",2025-08-25,15,4,2,2.0,House,67 Lena Crescent,-37.770092,144.69186,2025-09-09 16:32:03,17730479,,12,0,0,False,House,House,THE AGENTS EXCELLENCE IN REAL ESTATE,32651,"Sandy Agrawal, Leasing Team","Secure Parking, Air conditioning, Heating, Built in wardrobes, Close to transport, Close to shops, Close to schools, Ensuite, Carpeted",https://www.domain.com.au/67-lena-crescent-truganina-vic-3029-17730479
17731856,TRUGANINA,3029,480.0,2086.0,"Tuesday, 02 September 2025",2025-08-26,14,3,2,2.0,House,99 Madeira Drive,-37.76367,144.68652,2025-09-09 16:32:03,17731856,,16,0,1,True,House,House,Care Property Management,29924,Rebecca Storey,"Courtyard, Fully fenced, Remote Garage, Secure Parking, Built in wardrobes, Dishwasher, Floorboards, Air conditioning, Ducted Heating, Ensuite",https://www.domain.com.au/99-madeira-drive-truganina-vic-3029-17731856
17732096,TRUGANINA,3029,550.0,2390.0,"Wednesday, 10 September 2025",2025-08-26,14,3,2,2.0,House,38 Mcdougall Place,-37.845554,144.71518,2025-09-09 16:32:03,17732096,,20,0,0,False,House,House,PANACHE REALTY,35885,Anil Sethi,"Secure Parking, Ensuite",https://www.domain.com.au/38-mcdougall-place-truganina-vic-3029-17732096
17733446,TRUGANINA,3029,490.0,2129.0,"Wednesday, 27 October 2021",2025-08-27,13,3,2,2.0,House,1/5 Fetlock Drive,-37.83844,144.72336,2025-09-09 16:32:03,17733446,,11,0,0,False,House,House,Nicholas Scott Real Estate,8676,Lisa Nguyen,"Internal Laundry, Bath, Heating, Air conditioning",https://www.domain.com.au/1-5-fetlock-drive-truganina-vic-3029-17733446
17733518,TRUGANINA,3029,520.0,2260.0,"Friday, 29 August 2025",2025-08-27,13,3,2,2.0,House,29 Talliver Terrace,-37.84777,144.71593,2025-09-09 16:32:03,17733518,,10,0,0,False,House,House,VICPROP Point Cook and Williams Landing,33528,"Lisha Wen, Leasing Team Vicprop","Built in wardrobes, Secure Parking, Heating",https://www.domain.com.au/29-talliver-terrace-truganina-vic-3029-17733518
17734300,TRUGANINA,3029,550.0,2390.0,"Friday, 05 September 2025",2025-08-27,13,4,2,2.0,House,77 Lena Crescent,-37.76936,144.69206,2025-09-09 16:32:03,17734300,,17,0,1,False,House,House,AGENCY HQ Melbourne West,37657,"Giji Antony, Antony Varghese, Nitin Babbar","Courtyard, Deck, Fully fenced, Remote Garage, Broadband Internet Available, Rumpus Room, Ducted Heating, Evaporative Cooling, Greywater system, Ensuite",https://www.domain.com.au/77-lena-crescent-truganina-vic-3029-17734300
17734390,TRUGANINA,3029,520.0,2260.0,"Wednesday, 27 August 2025",2025-08-27,13,3,2,2.0,House,9 Toorongo Circuit,-37.836338,144.70749,2025-09-09 16:32:03,17734390,,10,0,0,False,House,House,Reliance Werribee,35358,"Nuzhat Miller, Vipul Gaba","Shed, Built in wardrobes, Close to transport, Close to shops, Close to schools, Ensuite, Evaporative Cooling, Ducted Heating",https://www.domain.com.au/9-toorongo-circuit-truganina-vic-3029-17734390
16863408,TRUGANINA,3029,555.0,2412.0,"Friday, 18 July 2025",2025-05-12,120,4,3,2.0,House,11 Gingera Street,-37.76472,144.69496,2025-09-09 16:32:09,16863408,ZE-3650-YE,9,0,0,True,House,House,Ray White Bacchus Marsh,33675,Property Management,"Ensuite, Built in wardrobes, Bath, Heating, Dishwasher, Secure Parking, Fully fenced",https://www.domain.com.au/11-gingera-street-truganina-vic-3029-16863408
16996288,TRUGANINA,3029,425.0,1847.0,"Monday, 11 August 2025",2025-07-21,50,3,2,1.0,House,20 Ararat Street,-37.84174,144.6427,2025-09-09 16:32:09,16996288,FP-0239-CS,14,0,0,False,House,House, Care Property Agents,35571,Sue Yu,"Internal Laundry, Outdoor Entertainment Area, Remote Garage, Secure Parking, Built in wardrobes, Dishwasher, Floorboards, Air conditioning, Ducted Heating, Ensuite",https://www.domain.com.au/20-ararat-street-truganina-vic-3029-16996288
17395393,TRUGANINA,3029,430.0,1869.0,"Monday, 28 April 2025",2025-01-16,235,3,2,1.0,House,28 Rangipo Street,-37.766396,144.68556,2025-09-09 16:32:09,17395393,IF-3411-PY,15,1,0,True,House,House,BRW Group,34868,,,https://www.domain.com.au/28-rangipo-street-truganina-vic-3029-17395393
17669230,TRUGANINA,3029,520.0,2260.0,"Monday, 11 August 2025",2025-07-15,56,3,2,1.0,House,4 Cornell Road,-37.844433,144.72136,2025-09-09 16:32:09,17669230,,9,0,0,False,House,House,Ray White Tarneit,23886,"Marvin Paed, Savi Sarain","Air conditioning, Built in wardrobes, Furnished",https://www.domain.com.au/4-cornell-road-truganina-vic-3029-17669230
17684339,TRUGANINA,3029,470.0,2043.0,"Thursday, 24 July 2025",2025-07-24,47,4,3,2.0,Townhouse,13 Craycroft Road,-37.7624,144.67207,2025-09-09 16:32:09,17684339,,12,0,0,False,Townhouse/Villa,Townhouse,Stockdale & Leggo Craigieburn/Mickleham,31877,"Lauren Vicary, Natalie Kent","Secure Parking, Ensuite, Floorboards, Built in wardrobes, Bath, Heating, Dishwasher, Study, Water Views",https://www.domain.com.au/13-craycroft-road-truganina-vic-3029-17684339
17692788,TRUGANINA,3029,550.0,2390.0,"Thursday, 31 July 2025",2025-07-30,41,4,2,2.0,House,5 Axle Dr,-37.824055,144.7247,2025-09-09 16:32:09,17692788,,11,0,0,False,House,House,Alliance Estate Agents Wyndham,34960,"Simon Dangol, Ken Maharjan","Fully fenced, Remote Garage, Built in wardrobes, Floorboards, Ducted Heating, Evaporative Cooling, Ensuite",https://www.domain.com.au/5-axle-dr-truganina-vic-3029-17692788
17698320,TRUGANINA,3029,550.0,2390.0,"Monday, 04 August 2025",2025-08-04,36,4,2,2.0,House,28 Paroo Drive,-37.76412,144.68484,2025-09-09 16:32:09,17698320,,16,0,0,False,House,House,THE LANCORE WEST AND NORTH,35534,"HK  Dhindsa, Jot  Dhaliwal","Air conditioning, Gas, Secure Parking, Heating",https://www.domain.com.au/28-paroo-drive-truganina-vic-3029-17698320
17707140,TRUGANINA,3029,700.0,3042.0,"Friday, 08 August 2025",2025-08-08,32,5,3,2.0,House,16 Astra Avenue,-37.85295,144.74171,2025-09-09 16:32:09,17707140,,29,0,1,False,House,House,REMAX ACPA,34510,"Camila Jing, Leon Lee","Built in wardrobes, Dishwasher, Heating, Air conditioning, Secure Parking",https://www.domain.com.au/16-astra-avenue-truganina-vic-3029-17707140
17711587,TRUGANINA,3029,580.0,2513.0,"Tuesday, 19 August 2025",2025-08-12,28,4,2,2.0,House,36 Narada Road,-37.83169,144.7218,2025-09-09 16:32:09,17711587,,13,0,0,False,House,House,Bal Real Estate ,34023,"Deepti Malhotra, Sandeep Sanjeev","Gas, Internal Laundry, Secure Parking, Heating, Dishwasher",https://www.domain.com.au/36-narada-road-truganina-vic-3029-17711587
17712067,TRUGANINA,3029,545.0,2369.0,"Tuesday, 12 August 2025",2025-08-12,28,4,2,2.0,House,47 Clearwater Rise Parade,-37.8377,144.70528,2025-09-09 16:32:09,17712067,,12,0,0,False,House,House,VICPROP Point Cook and Williams Landing,33528,"Lisha Wen, Leasing Team Vicprop",,https://www.domain.com.au/47-clearwater-rise-parade-truganina-vic-3029-17712067
17712537,TRUGANINA,3029,570.0,2477.0,"Tuesday, 12 August 2025",2025-08-12,27,4,2,2.0,House,11 Barnsley Street,-37.849182,144.73672,2025-09-09 16:32:09,17712537,,12,0,0,False,House,House,PANACHE REALTY,35885,Anil Sethi,"Air conditioning, Internal Laundry, Secure Parking, Heating, Ensuite",https://www.domain.com.au/11-barnsley-street-truganina-vic-3029-17712537
17713920,TRUGANINA,3029,559.0,2428.0,"Saturday, 06 September 2025",2025-08-13,27,4,2,3.0,House,11 MAPLEWOOD CIRCUIT,-37.822876,144.71213,2025-09-09 16:32:09,17713920,,14,0,1,False,House,House,Property Now,10282,Property Now,"Internal Laundry, Remote Control Garage, Fully fenced, Ducted Cooling, Gas Heating, Evaporative Cooling, Alarm, Ducted Heating, Study, Dishwasher, Built in wardrobes, Floorboards, Broadband Connection, Pets Allowed",https://www.domain.com.au/11-maplewood-circuit-truganina-vic-3029-17713920
17716748,TRUGANINA,3029,530.0,2303.0,"Tuesday, 16 September 2025",2025-08-15,25,4,2,2.0,House,17 Camini Grove,-37.751766,144.67581,2025-09-09 16:32:09,17716748,,1,0,0,False,House,House,361 WYNDHAM CITY,34918,"Pooja Kundu, Nick Miglani","Internal Laundry, Secure Parking, Balcony / Deck, Heating, Close to transport, Close to shops, Intercom, Close to schools, Ensuite, Exhaust, Openable Windows, Toilet Facilities",https://www.domain.com.au/17-camini-grove-truganina-vic-3029-17716748
17718068,TRUGANINA,3029,570.0,2476.0,"Sunday, 31 August 2025",2025-08-15,25,4,2,2.0,House,33 Widmark Road,-37.824604,144.71935,2025-09-09 16:32:09,17718068,,18,0,0,False,House,House,The Roof Real Estate,36733,Rita Sehgal,"Internal Laundry, Secure Parking, Heating, Dishwasher",https://www.domain.com.au/33-widmark-road-truganina-vic-3029-17718068
17719695,TRUGANINA,3029,550.0,2383.0,"Monday, 18 August 2025",2025-08-18,22,4,2,1.0,House,31 Boulder Avenue,-37.81573,144.71799,2025-09-09 16:32:09,17719695,,2,0,0,False,House,House,RAVS REALTORS,37660,Rav Sri,"Secure Parking, Heating, Alarm System, Gas, Broadband internet access, Dishwasher, Ground floor, Wall / ceiling insulation",https://www.domain.com.au/31-boulder-avenue-truganina-vic-3029-17719695
17723055,TRUGANINA,3029,530.0,2173.0,"Monday, 15 September 2025",2025-08-20,20,3,1,1.0,Townhouse,8 Mingay Close,-37.84448,144.72414,2025-09-09 16:32:09,17723055,,13,0,0,False,Townhouse/Villa,Townhouse,LJ Hooker Property Point,22180,"Dema Haddad, Nathan Long","Secure Parking, Balcony / Deck, Built in wardrobes, Dishwasher, Heating, Air conditioning",https://www.domain.com.au/8-mingay-close-truganina-vic-3029-17723055
17723790,TRUGANINA,3029,495.0,2151.0,"Saturday, 30 August 2025",2025-08-20,20,3,2,1.0,House,2/18 Vassar Court,-37.844208,144.72647,2025-09-09 16:32:09,17723790,,15,0,0,False,House,House,LJ Hooker Property Point,22180,"Dema Haddad, Nathan Long","Secure Parking, Heating",https://www.domain.com.au/2-18-vassar-court-truganina-vic-3029-17723790
17724914,TRUGANINA,3029,540.0,2346.0,"Wednesday, 24 September 2025",2025-08-20,19,4,2,2.0,House,4 Moombil Road,-37.76635,144.69147,2025-09-09 16:32:09,17724914,,10,0,1,False,House,House,THE AGENTS EXCELLENCE IN REAL ESTATE,32651,"Sandy Agrawal, Leasing Team","Secure Parking, Air conditioning, Heating, Built in wardrobes, Close to transport, Close to shops, Close to schools, Ensuite",https://www.domain.com.au/4-moombil-road-truganina-vic-3029-17724914
17725657,TRUGANINA,3029,590.0,2564.0,"Monday, 08 September 2025",2025-08-21,19,5,2,2.0,House,38 Ottawa Street,-37.76731,144.68755,2025-09-09 16:32:09,17725657,,15,0,0,False,House,House,Harcourts Rata & Co,30123,Melissa Di Blasio,"Gas, Internal Laundry, Secure Parking, Heating, Close to transport, Close to shops, Close to schools, Ensuite, Carpeted, Openable Windows, Dishwasher",https://www.domain.com.au/38-ottawa-street-truganina-vic-3029-17725657
17725793,TRUGANINA,3029,600.0,2607.0,"Thursday, 21 August 2025",2025-08-21,19,4,2,2.0,House,30 Clearwater Rise Parade,-37.836952,144.70749,2025-09-09 16:32:09,17725793,,16,0,0,False,House,House,P Di Natale Real Estate,15264,Bianca Birnbauer,"Remote Garage, Study, Ducted Cooling, Ducted Heating",https://www.domain.com.au/30-clearwater-rise-parade-truganina-vic-3029-17725793
15399628,TRUGANINA,3029,495.0,2151.0,"Tuesday, 26 August 2025",2025-07-31,40,3,2,1.0,House,1/56 Orlando Drive,-37.84038,144.72716,2025-09-09 16:32:14,15399628,WR-7900-YA,14,0,0,False,House,House,Sahara Real Estate,30767,"Robyn Morgan, Sahara RE Admin","Secure Parking, Heating, Dishwasher, Solar panels",https://www.domain.com.au/1-56-orlando-drive-truganina-vic-3029-15399628
17025482,TRUGANINA,3029,550.0,2390.0,"Saturday, 20 July 2024",2024-05-21,475,3,2,2.0,Townhouse,41 Tannum Circuit,-37.8172,144.7209,2025-09-09 16:32:14,17025482,OP-1346-RZ,17,0,1,False,Townhouse/Villa,Townhouse,AGENCY HQ Melbourne West,37657,"Giji Antony, Antony Varghese","Heating, Courtyard, Fully fenced, Remote Garage, Broadband Internet Available, Built in wardrobes, Dishwasher, Air conditioning, Evaporative Cooling, Ensuite",https://www.domain.com.au/41-tannum-circuit-truganina-vic-3029-17025482
17590312,TRUGANINA,3029,195.0,780.0,"Sunday, 22 June 2025",2025-05-26,106,1,1,,Studio,3 Tirari Street,-37.768673,144.68921,2025-09-09 16:32:14,17590312,,10,0,0,False,Apartment,Studio,The Hopkins Group,17841,Nadine Cotsaris,,https://www.domain.com.au/3-tirari-street-truganina-vic-3029-17590312
17663905,TRUGANINA,3029,450.0,1956.0,"Thursday, 10 July 2025",2025-07-10,60,3,2,2.0,House,3B Rangipo Street,-37.767612,144.68503,2025-09-09 16:32:14,17663905,,1,0,0,False,House,House,BRW Group,34868,,"Built in wardrobes, Internal Laundry, Secure Parking, Heating",https://www.domain.com.au/3b-rangipo-street-truganina-vic-3029-17663905
17666539,TRUGANINA,3029,580.0,2520.0,"Monday, 14 July 2025",2025-07-14,57,4,2,2.0,House,13 Bakewell Crescent,-37.843586,144.74568,2025-09-09 16:32:14,17666539,,15,0,0,False,House,House,Ray White Truganina,29324,"Mehreen Tariq, Palak Joshi",Secure Parking,https://www.domain.com.au/13-bakewell-crescent-truganina-vic-3029-17666539
17675424,TRUGANINA,3029,540.0,,"Tuesday, 19 August 2025",2025-07-18,53,4,2,2.0,House,27 Boulder Avenue,-37.8157,144.71768,2025-09-09 16:32:14,17675424,,19,0,0,False,House,House,CENTURY 21 PARAMOUNT REALTORS CS,35251,Andrew Mouanoutoua,"Secure Parking, Heating, Air conditioning",https://www.domain.com.au/27-boulder-avenue-truganina-vic-3029-17675424
17677886,TRUGANINA,3029,525.0,2281.0,"Tuesday, 12 August 2025",2025-07-21,50,4,2,2.0,House,64 Conondale Ave,-37.76817,144.68996,2025-09-09 16:32:14,17677886,,11,0,0,False,House,House,Hayeswinckle Geelong,33394,Dejana Bailey,"Bath, Heating",https://www.domain.com.au/64-conondale-ave-truganina-vic-3029-17677886
17679520,TRUGANINA,3029,550.0,2390.0,"Saturday, 23 August 2025",2025-07-22,49,4,2,1.0,House,15 Schiller Street,-37.822666,144.71402,2025-09-09 16:32:14,17679520,,14,0,0,False,House,House,Reliance Real Estate Point Cook,26805,"Zelda Van Rensburg, Deolinda Moreira, Yash Shaw","Gas, Secure Parking, Heating, Dishwasher",https://www.domain.com.au/15-schiller-street-truganina-vic-3029-17679520
17681602,TRUGANINA,3029,480.0,,"Thursday, 24 July 2025",2025-07-23,48,4,2,2.0,House,22 Pacaya Street,-37.76081,144.67366,2025-09-09 16:32:14,17681602,,12,0,0,False,House,House,Elders Wyndham City,35208,"Ashima Kaloti, Sunaina Puri","Secure Parking, Bath, Heating, Dishwasher",https://www.domain.com.au/22-pacaya-street-truganina-vic-3029-17681602
17687062,TRUGANINA,3029,500.0,2173.0,"Thursday, 31 July 2025",2025-07-26,45,3,2,2.0,House,929 Morris Road,-37.81821,144.71092,2025-09-09 16:32:14,17687062,,10,0,0,True,House,House,Ironfish Real Estate Melbourne,21689,Sisi Peng,"Bath, Dishwasher, Car Accom: Carport, Pool/Spa Count: 0",https://www.domain.com.au/929-morris-road-truganina-vic-3029-17687062
17687371,TRUGANINA,3029,480.0,2086.0,"Friday, 29 August 2025",2025-07-28,43,3,2,2.0,House,37 Sissinghurst Street,-37.85096,144.73695,2025-09-09 16:32:14,17687371,,10,0,0,False,House,House,Barry Plant Point Cook,11213,Simon Khouri,"Secure Parking, Heating, Dishwasher, Study",https://www.domain.com.au/37-sissinghurst-street-truganina-vic-3029-17687371
17688956,TRUGANINA,3029,560.0,2433.0,"Monday, 25 August 2025",2025-07-28,43,4,2,2.0,House,20 Fortune Street,-37.8519,144.73,2025-09-09 16:32:14,17688956,,11,0,0,False,House,House,Reliance Werribee,35358,"Manpreet Kaur, Vipul Gaba","Air conditioning, Heating, Built in wardrobes, Garage Space, Evaporative Cooling, Ducted Heating",https://www.domain.com.au/20-fortune-street-truganina-vic-3029-17688956
17694665,TRUGANINA,3029,550.0,2390.0,"Thursday, 31 July 2025",2025-07-31,40,4,2,3.0,House,85 Madeira Dr,-37.763596,144.68567,2025-09-09 16:32:14,17694665,,25,0,0,False,House,House,Independent Estate Agents,32477,Khushboo Arya,"Ensuite(s), Remote control garage, Secure Parking, Fully fenced, Floorboards, Evaporative Cooling, Built in wardrobes, Dishwasher, Ducted Heating",https://www.domain.com.au/85-madeira-dr-truganina-vic-3029-17694665
17694991,TRUGANINA,3029,580.0,2520.0,"Tuesday, 26 August 2025",2025-07-31,40,4,2,2.0,House,13 Layton Court,-37.85989,144.72159,2025-09-09 16:32:14,17694991,,9,0,0,False,House,House,YPA Estate Agents Caroline Springs,21306,"Victoria Galea, Rental Department Caroline Springs","Heating, Air conditioning, Built in wardrobes, Close to transport, Close to shops, Close to schools, Ensuite, Study",https://www.domain.com.au/13-layton-court-truganina-vic-3029-17694991
17695376,TRUGANINA,3029,580.0,2513.0,"Friday, 19 September 2025",2025-07-31,39,4,2,2.0,House,89 Highline Boulevard,-37.761196,144.67804,2025-09-09 16:32:14,17695376,,15,0,0,False,House,House,Bal Real Estate ,34023,"Sandeep Sanjeev, Deepti Malhotra","Internal Laundry, Secure Parking, Heating",https://www.domain.com.au/89-highline-boulevard-truganina-vic-3029-17695376
17695530,TRUGANINA,3029,510.0,,"Thursday, 31 July 2025",2025-07-31,39,3,2,2.0,House,14 Andrew Road,-37.84278,144.70898,2025-09-09 16:32:14,17695530,,14,0,0,False,House,House,Ausfortune Property,31919,"John chen, Jackey Jen",,https://www.domain.com.au/14-andrew-road-truganina-vic-3029-17695530
17698953,TRUGANINA,3029,490.0,2129.0,"Tuesday, 05 August 2025",2025-08-04,36,3,2,1.0,House,2/31 Memphis Drive,-37.841003,144.72638,2025-09-09 16:32:14,17698953,,10,0,0,False,House,House, Milestone Real Estate,38025,Yogesh Bhatia,Heating,https://www.domain.com.au/2-31-memphis-drive-truganina-vic-3029-17698953
17699978,TRUGANINA,3029,530.0,2303.0,"Friday, 22 August 2025",2025-08-04,35,3,2,2.0,House,1 Holly Green Circuit,-37.838634,144.72508,2025-09-09 16:32:14,17699978,,10,0,0,False,House,House,Avenue West Real Estate,34866,"Patrick Chaudhary, Perccy Chaudhary","Built in wardrobes, Secure Parking, Heating, Dishwasher",https://www.domain.com.au/1-holly-green-circuit-truganina-vic-3029-17699978
17703824,TRUGANINA,3029,600.0,2607.0,"Friday, 15 August 2025",2025-08-06,34,4,2,2.0,House,5 Sasha Crescent,-37.74744,144.67682,2025-09-09 16:32:14,17703824,,17,0,2,False,House,House,No Agent Property ,20869,No Agent Property - VIC,"Internal Laundry, Broadband internet access, Bath, Air conditioning, Entertainment Area, Pets Allowed, Alarm System, Gas Enabled, Remote Garage, Study, Dishwasher, Secure Parking, Solar hot water, Fully fenced, Ducted Heating, Energy Eff. Rating: 6",https://www.domain.com.au/5-sasha-crescent-truganina-vic-3029-17703824
17704621,TRUGANINA,3029,430.0,1869.0,"Monday, 04 August 2025",2025-08-07,33,4,2,2.0,House,28 Lahar Road,-37.763897,144.67717,2025-09-09 16:32:14,17704621,,14,0,0,False,House,House,REMAX ACPA,34510,Camila Jing,"Air conditioning, Gas, Internal Laundry, Secure Parking, Bath, Heating, Dishwasher",https://www.domain.com.au/28-lahar-road-truganina-vic-3029-17704621
15387450,TRUGANINA,3029,495.0,2151.0,"Friday, 18 July 2025",2025-07-07,63,4,2,2.0,House,17 Cornell Road,-37.84341,144.72104,2025-09-09 16:32:20,15387450,MZ-7434-UK,13,0,1,False,House,House,Everywhere Real Estate,34518,Rentals Department,"Built in wardrobes, Dishwasher, Broadband, Bathtub, Gas Appliances, Ducted Heating, Split System Air Conditioning, Gas Hot Water, Ensuite(s), Outdoor Entertainment Area, Remote Garage, Secure Parking, Fully fenced, Pets Allowed",https://www.domain.com.au/17-cornell-road-truganina-vic-3029-15387450
17090949,TRUGANINA,3029,495.0,2151.0,"Friday, 18 July 2025",2025-07-15,56,4,2,2.0,House,17 Cornell Road,-37.84341,144.72104,2025-09-09 16:32:20,17090949,MZ-7434-UK,13,0,1,False,House,House,Everywhere Real Estate.  Metro,20243,Rentals Department,"Built in wardrobes, Dishwasher, Broadband, Bathtub, Gas Appliances, Ducted Heating, Split System Air Conditioning, Gas Hot Water, Ensuite(s), Outdoor Entertainment Area, Remote Garage, Secure Parking, Fully fenced, Pets Allowed",https://www.domain.com.au/17-cornell-road-truganina-vic-3029-17090949
17242935,TRUGANINA,3029,450.0,1956.0,"Friday, 09 May 2025",2024-10-08,335,3,2,1.0,House,16 Rangipo Street,-37.767044,144.68547,2025-09-09 16:32:20,17242935,OF-5965-HZ,11,1,0,False,House,House,BRW Group,34868,,,https://www.domain.com.au/16-rangipo-street-truganina-vic-3029-17242935
17268764,TRUGANINA,3029,1250.0,5431.0,"Thursday, 24 October 2024",2024-10-24,320,5,4,2.0,House,12 Lena Crescent,-37.76833,144.69543,2025-09-09 16:32:20,17268764,DN-0447-HM,24,0,0,False,House,House,AGENCY HQ Melbourne West,37657,"Antony Varghese, Giji Antony","Courtyard, Fully fenced, Remote Garage, Secure Parking, Broadband Internet Available, Built in wardrobes, Dishwasher, Floorboards, Rumpus Room, Study, Ducted Heating, Evaporative Cooling, Greywater system, Solar hot water, Ensuite",https://www.domain.com.au/12-lena-crescent-truganina-vic-3029-17268764
17333327,TRUGANINA,3029,530.0,,"Thursday, 07 August 2025",2025-07-07,64,5,2,2.0,House,3 Amukta Road,-37.76013,144.67534,2025-09-09 16:32:20,17333327,MZ-6893-CU,18,0,0,False,House,House,Elders Wyndham City,35208,"Ashima Kaloti, Sunaina Puri","Secure Parking, Bath, Heating, Dishwasher",https://www.domain.com.au/3-amukta-road-truganina-vic-3029-17333327
17441249,TRUGANINA,3029,440.0,1825.0,"Monday, 17 February 2025",2025-06-17,83,3,2,2.0,House,6 Bakanovi Dr,-37.759926,144.67416,2025-09-09 16:32:20,17441249,AW-2030-PL,12,0,0,False,House,House,LJ Hooker  Property Link,30303,,"Gas, Internal Laundry, Secure Parking, Heating",https://www.domain.com.au/6-bakanovi-dr-truganina-vic-3029-17441249
17555679,TRUGANINA,3029,525.0,2281.0,"Wednesday, 30 April 2025",2025-05-02,129,4,2,2.0,House,14 Whitehouse Avenue,-37.845516,144.71625,2025-09-09 16:32:20,17555679,PY-6032-IQ,10,0,0,False,House,House,AGENCY HQ Melbourne West,37657,"Giji Antony, Antony Varghese","Internal Laundry, Secure Parking, Broadband Internet Available, Built in wardrobes, Air conditioning, Ducted Heating, Ensuite",https://www.domain.com.au/14-whitehouse-avenue-truganina-vic-3029-17555679
17591139,TRUGANINA,3029,550.0,2390.0,"Monday, 09 June 2025",2025-05-26,106,4,2,2.0,House,21 Mangosteen Drive,-37.815983,144.72083,2025-09-09 16:32:20,17591139,WA-8557-IH,17,0,0,False,House,House,AGENCY HQ Melbourne West,37657,"Antony Varghese, Nitin Babbar, Giji Antony","Courtyard, Fully fenced, Remote Garage, Broadband Internet Available, Built in wardrobes, Dishwasher, Air conditioning, Ducted Heating, Ensuite",https://www.domain.com.au/21-mangosteen-drive-truganina-vic-3029-17591139
17593867,TRUGANINA,3029,850.0,3693.0,"Tuesday, 27 May 2025",2025-05-27,104,5,5,2.0,House,11 Crosby Street,-37.75945,144.68842,2025-09-09 16:32:20,17593867,,29,0,0,False,House,House,AGENCY HQ Melbourne West,37657,"Antony Varghese, Giji Antony","Fireplace(s), Heating, Balcony, Remote Garage, Broadband Internet Available, Built in wardrobes, Dishwasher, Reverse Cycle Air Conditioning, Ensuite",https://www.domain.com.au/11-crosby-street-truganina-vic-3029-17593867
17602947,TRUGANINA,3029,510.0,2216.0,"Friday, 06 June 2025",2025-06-03,98,4,2,2.0,House,18 Cowal Street,-37.764862,144.68544,2025-09-09 16:32:20,17602947,,15,0,0,False,House,House,LJ Hooker Property Point,22180,"Nathan Long, Dema Haddad","Gas, Pets Allowed, Secure Parking, Heating, Dishwasher, Fully fenced",https://www.domain.com.au/18-cowal-street-truganina-vic-3029-17602947
17607957,TRUGANINA,3029,510.0,2216.0,"Thursday, 05 June 2025",2025-06-05,96,3,2,1.0,House,25 Lahar Road,-37.76361,144.67723,2025-09-09 16:32:20,17607957,,10,0,0,False,House,House,AGENCY HQ Melbourne West,37657,"Sai Allamneni, Deepak Devaraj","Fully fenced, Outdoor Entertainment Area, Remote Garage, Dishwasher, Floorboards, Ducted Heating, Split-System Air Conditioning",https://www.domain.com.au/25-lahar-road-truganina-vic-3029-17607957
17609760,TRUGANINA,3029,490.0,2129.0,"Thursday, 15 May 2025",2025-06-06,95,4,2,3.0,House,11 Byrock Street,-37.76201,144.67657,2025-09-09 16:32:20,17609760,,10,0,0,False,House,House,Harcourts Rata & Co,30123,Danielle Zulian,"Gas, Secure Parking, Built in wardrobes, Openable Windows, Split System Cooling, Dishwasher",https://www.domain.com.au/11-byrock-street-truganina-vic-3029-17609760
17613478,TRUGANINA,3029,525.0,2281.0,"Saturday, 02 August 2025",2025-06-10,91,4,2,2.0,House,16 Andes Street,-37.761623,144.69408,2025-09-09 16:32:20,17613478,,13,0,0,False,House,House,Raine & Horne Williamstown,27263,Mitchell Busuttil,"Built in wardrobes, Gas, Internal Laundry, Secure Parking, Bath, Heating, Dishwasher",https://www.domain.com.au/16-andes-street-truganina-vic-3029-17613478
17618897,TRUGANINA,3029,540.0,2346.0,"Tuesday, 30 September 2025",2025-06-12,88,3,2,2.0,House,14 Compton Street,-37.849705,144.73001,2025-09-09 16:32:20,17618897,,13,0,0,False,House,House,Sahara Real Estate,30767,"Robyn Morgan, Sahara RE Admin","Air conditioning, Secure Parking, Heating",https://www.domain.com.au/14-compton-street-truganina-vic-3029-17618897
17619420,TRUGANINA,3029,530.0,2303.0,"Thursday, 03 July 2025",2025-06-13,88,4,2,2.0,House,8 Valentine Way,-37.836563,144.7051,2025-09-09 16:32:20,17619420,,5,0,0,False,House,House,.established Property,4979,Established Property Leasing,"Built in wardrobes, Secure Parking, Heating, Dishwasher, Balcony / Deck",https://www.domain.com.au/8-valentine-way-truganina-vic-3029-17619420
17629694,TRUGANINA,3029,670.0,,"Wednesday, 18 June 2025",2025-06-19,82,5,2,2.0,House,192 Altezze Drive,-37.760437,144.67891,2025-09-09 16:32:20,17629694,,12,0,0,False,House,House,Elders Wyndham City,35208,"Ashima Kaloti, Amann S Jadaun",,https://www.domain.com.au/192-altezze-drive-truganina-vic-3029-17629694
17630998,TRUGANINA,3029,580.0,2520.0,"Saturday, 30 March 2024",2025-06-20,81,4,2,2.0,House,39 Callanish Street,-37.814453,144.71317,2025-09-09 16:32:20,17630998,,11,0,0,False,House,House,OSKO Real Estate Agency,37723,Osko Rentals,"Built in wardrobes, Secure Parking, Heating, Dishwasher",https://www.domain.com.au/39-callanish-street-truganina-vic-3029-17630998
17632048,TRUGANINA,3029,550.0,2390.0,"Thursday, 19 June 2025",2025-06-20,80,4,2,2.0,House,37 Fortune Street,-37.8512,144.73085,2025-09-09 16:32:20,17632048,,24,0,0,False,House,House,Biggin Scott Wyndham City | Melton,27527,"Elizabeth Tolkacz, Jo Arora","Internal Laundry, Secure Parking, Broadband internet access, Dishwasher, Study, Heating, Built in wardrobes, Close to shops, Close to schools",https://www.domain.com.au/37-fortune-street-truganina-vic-3029-17632048
17653846,TRUGANINA,3029,570.0,2477.0,"Wednesday, 13 August 2025",2025-07-04,67,4,2,2.0,House,13 Legacy Drive,-37.844864,144.73611,2025-09-09 16:32:20,17653846,,1,0,0,False,House,House,Ausky Group,20742,"Vivi Liana, Rental Department","Dishwasher, Remote Garage, Built in wardrobes",https://www.domain.com.au/13-legacy-drive-truganina-vic-3029-17653846
17669831,TRUGANINA,3029,560.0,2434.0,"Monday, 21 July 2025",2025-07-15,56,4,2,2.0,House,17 Yamada Street,-37.823822,144.71172,2025-09-09 16:32:20,17669831,,20,0,0,False,House,House,Ray White Sunbury Pty Ltd,12373,Ruby Conte-Scott,"Secure Parking, Fully fenced, Pets Allowed",https://www.domain.com.au/17-yamada-street-truganina-vic-3029-17669831
15082212,TRUGANINA,3029,675.0,2933.0,"Friday, 28 June 2024",2024-06-28,437,5,2,2.0,House,5 Casablanca Court,-37.838097,144.72672,2025-09-09 16:32:26,15082212,AS-7742-OU,28,0,2,False,House,House,Everywhere Real Estate.  Metro,20243,Rentals Department,"Study, Alarm System, Rumpus Room, Floorboards, Built in wardrobes, Dishwasher, Broadband, Bathtub, Gas Appliances, Ducted Heating, Gas Hot Water, Ensuite(s), Outdoor Entertainment Area, Balcony, Courtyard, Deck, Remote Garage, Secure Parking, Fully fenced, Pets Allowed",https://www.domain.com.au/5-casablanca-court-truganina-vic-3029-15082212
16720660,TRUGANINA,3029,570.0,2477.0,"Tuesday, 03 June 2025",2025-05-02,130,4,2,2.0,House,3 Alberfeldie Drive,-37.84236,144.7384,2025-09-09 16:32:26,16720660,NN-7777-VS,12,0,0,False,House,House,Good News Real Estate,35177,Rental Department,Secure Parking,https://www.domain.com.au/3-alberfeldie-drive-truganina-vic-3029-16720660
16776791,TRUGANINA,3029,,2129.0,,2023-12-04,645,3,2,1.0,House,16 Milan Way,-37.81875,144.7147,2025-09-09 16:32:26,16776791,ZL-7934-MO,13,0,0,False,House,House,The Eleet Wyndham City,32072,Monika Beniwal,"Secure Parking, Heating, Ensuite",https://www.domain.com.au/16-milan-way-truganina-vic-3029-16776791
16911002,TRUGANINA,3029,,2260.0,,2024-03-06,552,4,2,2.0,House,3 Mayfield Avenue,-37.84138,144.72475,2025-09-09 16:32:26,16911002,DR-7266-LX,6,0,0,False,House,House,Guardian Property & Asset Management Werribee,15427,Guardian Melbourne,"Split System Air Con, Built in wardrobes, Dishwasher, Ducted Heating, Fully fenced, Outdoor Entertainment Area, Remote Garage, Secure Parking",https://www.domain.com.au/3-mayfield-avenue-truganina-vic-3029-16911002
16930807,TRUGANINA,3029,,2383.0,,2024-03-19,539,4,2,2.0,House,42 Ararat Street,-37.761692,144.67117,2025-09-09 16:32:26,16930807,PG-7511-VR,18,0,0,False,House,House,Bal Real Estate ,34023,,"Secure Parking, Heating, Dishwasher",https://www.domain.com.au/42-ararat-street-truganina-vic-3029-16930807
16935092,TRUGANINA,3029,,2390.0,,2024-03-21,537,4,2,2.0,House,6 Petrolo Street,-37.75085,144.67671,2025-09-09 16:32:26,16935092,NX-1590-RB,12,0,0,False,House,House,Bal Real Estate ,34023,,Heating,https://www.domain.com.au/6-petrolo-street-truganina-vic-3029-16935092
16948191,TRUGANINA,3029,,3466.0,,2024-12-02,281,6,3,2.0,House,6b Aracar Street,-37.749638,144.68288,2025-09-09 16:32:26,16948191,,17,0,0,False,House,House,BRW Group,34868,,,https://www.domain.com.au/6b-aracar-street-truganina-vic-3029-16948191
16949135,TRUGANINA,3029,,2384.0,,2024-04-03,524,4,2,1.0,House,2 YAMUNA STREET,-37.770664,144.68925,2025-09-09 16:32:26,16949135,TN-1707-FE,8,0,0,False,House,House,Beyond Property,33270,Jack Chauhan,,https://www.domain.com.au/2-yamuna-street-truganina-vic-3029-16949135
17045353,TRUGANINA,3029,500.0,,"Monday, 03 June 2024",2024-06-03,462,4,2,2.0,House,14 Bakanovi Drive,-37.76029,144.67406,2025-09-09 16:32:26,17045353,WH-5313-KA,13,0,0,False,House,House,Pink and Blue Real Estate,36805,"Riva Vimal, Neeru Vimal","Heating, Solar panels",https://www.domain.com.au/14-bakanovi-drive-truganina-vic-3029-17045353
17088277,TRUGANINA,3029,680.0,,"Monday, 01 July 2024",2024-06-30,435,4,4,2.0,House,76 McKinley Drive,-37.761253,144.69662,2025-09-09 16:32:26,17088277,OY-3692-QW,15,0,0,False,House,House,Pink and Blue Real Estate,36805,"Riva Vimal, Neeru Vimal",,https://www.domain.com.au/76-mckinley-drive-truganina-vic-3029-17088277
17114998,TRUGANINA,3029,,,,2024-07-16,420,4,3,2.0,House,91 Lena Crescent,-37.76864,144.69214,2025-09-09 16:32:26,17114998,NI-2156-LK,20,0,0,False,House,House,Pink and Blue Real Estate,36805,"Riva Vimal, Neeru Vimal",,https://www.domain.com.au/91-lena-crescent-truganina-vic-3029-17114998
17166247,TRUGANINA,3029,,2346.0,"Friday, 30 August 2024",2024-08-18,386,4,2,2.0,House,19 Woolshed Drive,-37.820255,144.71468,2025-09-09 16:32:26,17166247,BW-0033-XK,13,0,0,True,House,House,Living Victoria Pty Ltd,33572,Danny Vo,"Built in wardrobes, Dishwasher, Air conditioning, Ducted Heating, Ensuite",https://www.domain.com.au/19-woolshed-drive-truganina-vic-3029-17166247
17206524,TRUGANINA,3029,,2600.0,,2024-09-13,361,4,2,2.0,House,4B2B McKinley Drive,-37.756664,144.69804,2025-09-09 16:32:26,17206524,,14,1,1,False,House,House,BRW Group,34868,,,https://www.domain.com.au/4b2b-mckinley-drive-truganina-vic-3029-17206524
17333302,TRUGANINA,3029,,2477.0,"Monday, 30 December 2024",2024-12-02,280,4,4,2.0,House,14 Gambino Crescent,-37.83591,144.71283,2025-09-09 16:32:26,17333302,YY-6008-HN,15,0,0,False,House,House,AGENCY HQ Melbourne West,37657,"Antony Varghese, Manikandan Manoharan","Courtyard, Remote Garage, Broadband Internet Available, Built in wardrobes, Dishwasher, Rumpus Room, Ducted Cooling, Evaporative Cooling, Ensuite",https://www.domain.com.au/14-gambino-crescent-truganina-vic-3029-17333302
17357250,TRUGANINA,3029,600.0,2610.0,"Tuesday, 17 December 2024",2024-12-17,265,4,2,2.0,Duplex,40 Danube Road,-37.765553,144.68665,2025-09-09 16:32:26,17357250,DP-6280-YV,23,0,0,False,Any,Duplex,White Lotus Property Group,35458,"Rajeev Kochhar, Preeti Sehgal","Secure Parking, Heating, Ensuite",https://www.domain.com.au/40-danube-road-truganina-vic-3029-17357250
17391686,TRUGANINA,3029,,2384.0,,2025-01-15,237,3,2,2.0,House,5 Lavelle Way,-37.837936,144.71309,2025-09-09 16:32:26,17391686,TP-5734-KX,11,0,0,False,House,House,Beyond Property,33270,Jack Chauhan,"Pets Allowed, Solar panels, Energy Eff. Rating: 6",https://www.domain.com.au/5-lavelle-way-truganina-vic-3029-17391686
17408062,TRUGANINA,3029,450.0,1956.0,"Saturday, 12 April 2025",2025-01-24,228,3,2,1.0,House,14 Rangipo Street,-37.76716,144.68546,2025-09-09 16:32:26,17408062,SH-5809-WX,15,1,0,False,House,House,BRW Group,34868,,"Built in wardrobes, Internal Laundry, Secure Parking, Heating",https://www.domain.com.au/14-rangipo-street-truganina-vic-3029-17408062
17528283,TRUGANINA,3029,540.0,2346.0,"Saturday, 12 April 2025",2025-04-12,149,4,2,1.0,House,3 Edenbridge Way,-37.84701,144.7432,2025-09-09 16:32:26,17528283,AV-1529-TU,14,0,0,False,House,House,The Eleet Wyndham City,32072,"Eleet Property Leasing, Super Admin",,https://www.domain.com.au/3-edenbridge-way-truganina-vic-3029-17528283
17563833,TRUGANINA,3029,570.0,2477.0,"Tuesday, 06 May 2025",2025-05-08,124,3,3,1.0,House,13 Teak Road,-37.814945,144.71959,2025-09-09 16:32:26,17563833,PP-7343-JY,18,0,0,False,House,House,OSKO Real Estate Agency,37723,Osko Rentals,"Dishwasher, Study",https://www.domain.com.au/13-teak-road-truganina-vic-3029-17563833
17566123,TRUGANINA,3029,600.0,2607.0,"Wednesday, 28 May 2025",2025-05-09,123,4,2,2.0,House,448 Morris Road,-37.842495,144.70818,2025-09-09 16:32:26,17566123,IV-6443-XF,10,0,0,False,House,House,AGENCY HQ Melbourne West,37657,"Sai Allamneni, Deepak Devaraj","Outdoor Entertainment Area, Remote Garage, Secure Parking, Dishwasher, Floorboards, Rumpus Room, Study, Air conditioning, Ducted Heating, Split-System Air Conditioning, Ensuite",https://www.domain.com.au/448-morris-road-truganina-vic-3029-17566123
