listing_id,suburb,postcode,weekly_rent,bond,available_date,date_listed,days_listed,bedrooms,bathrooms,carspaces,property_type,address,lat,lon,scraped_date,domain_page_id,property_id,photo_count,video_count,floorplans_count,virtual_tour,primary_type,secondary_type,agency,agency_id,agent_names,structured_features,url
13685849,WEST FOOTSCRAY,3012,370.0,1608,"Monday, 11 August 2025",2025-07-16,55,1,1,1.0,Apartment / Unit / Flat,11/90 Roberts Street,-37.808815,144.86992,2025-09-09 16:49:05,13685849,PB-2112-JR,8,0,0,False,Apartment,Apartment / Unit / Flat,Raine & Horne Williamstown,27263,Iman Hasan,,https://www.domain.com.au/11-90-roberts-street-west-footscray-vic-3012-13685849
15384482,WEST FOOTSCRAY,3012,440.0,1912,"Tuesday, 23 September 2025",2025-09-04,5,2,1,1.0,Apartment / Unit / Flat,9/22 Blandford Street,-37.794727,144.8772,2025-09-09 16:49:05,15384482,OL-6948-JR,12,0,0,False,Apartment,Apartment / Unit / Flat,Jas Stephens Real Estate,22,Natasha Roman,"Internal Laundry, Built in wardrobes, Split System Heating, Split System Air Conditioning, Balcony",https://www.domain.com.au/9-22-blandford-street-west-footscray-vic-3012-15384482
15851158,WEST FOOTSCRAY,3012,490.0,2129,"Tuesday, 30 September 2025",2025-08-28,12,2,1,1.0,Apartment / Unit / Flat,2/705 Barkly Street,-37.7964,144.86717,2025-09-09 16:49:05,15851158,YB-0267-XV,11,0,0,False,Apartment,Apartment / Unit / Flat,Jas Stephens Real Estate,22,Stephanie Njomkam,"Internal Laundry, Intercom, Floorboards, Built in wardrobes, Bathtub, Split System Heating, Split System Air Conditioning, Outdoor Entertainment Area, Courtyard, Secure Parking, Fully fenced, Pets Allowed",https://www.domain.com.au/2-705-barkly-street-west-footscray-vic-3012-15851158
15869308,WEST FOOTSCRAY,3012,670.0,2911,"Monday, 06 October 2025",2025-09-01,8,4,2,2.0,Townhouse,2/4 Clarendon Parade,-37.80526,144.86978,2025-09-09 16:49:05,15869308,QR-7980-QK,11,0,1,False,Townhouse/Villa,Townhouse,Jas Stephens Real Estate,22,Caitlyn Colquhoun,"Floorboards, Built in wardrobes, Dishwasher, Bathtub, Ducted Heating, Ducted Air Conditioning, Gas Hot Water, Fully fenced",https://www.domain.com.au/2-4-clarendon-parade-west-footscray-vic-3012-15869308
16205669,WEST FOOTSCRAY,3012,550.0,2390,"Monday, 13 October 2025",2025-09-05,4,2,1,1.0,Townhouse,2/1 Stanhope Street,-37.79584,144.87207,2025-09-09 16:49:05,16205669,JG-3915-GX,10,0,0,False,Townhouse/Villa,Townhouse,Jas Stephens Real Estate,22,Illy Bakesy,"Internal Laundry, Balcony / Deck, Floorboards, Built in wardrobes, Dishwasher, Bathtub, Split System Heating, Split System Air Conditioning, Courtyard, Remote Garage, Shed, Pets Allowed",https://www.domain.com.au/2-1-stanhope-street-west-footscray-vic-3012-16205669
16832407,WEST FOOTSCRAY,3012,340.0,1477,"Friday, 29 August 2025",2025-08-29,11,1,1,,Apartment / Unit / Flat,4/12 Carmichael Street,-37.798706,144.87863,2025-09-09 16:49:05,16832407,SG-9387-HO,5,0,0,False,Apartment,Apartment / Unit / Flat,Burnham Real Estate Footscray,3381,Bryson De Guzman,"Dishwasher, Air conditioning",https://www.domain.com.au/4-12-carmichael-street-west-footscray-vic-3012-16832407
17676644,WEST FOOTSCRAY,3012,395.0,1714,"Saturday, 16 August 2025",2025-07-20,51,1,1,1.0,Apartment / Unit / Flat,4/4 Beaumont Parade,-37.80768,144.8694,2025-09-09 16:49:05,17676644,,5,1,0,False,Apartment,Apartment / Unit / Flat,Lease A Property ,21230,Marc Angelone,"Gas, Internal Laundry, Built in wardrobes, Split System Heating, Reverse Cycle Air Conditioning",https://www.domain.com.au/4-4-beaumont-parade-west-footscray-vic-3012-17676644
17680257,WEST FOOTSCRAY,3012,410.0,1846,"Monday, 28 July 2025",2025-07-22,49,2,1,1.0,Apartment / Unit / Flat,2/13 Alberta Street,-37.796555,144.8637,2025-09-09 16:49:05,17680257,,8,0,0,False,Apartment,Apartment / Unit / Flat,Jellis Craig Kensington,20419,"Justin Jovanov, Vicki Lekanis","Internal Laundry, Secure Parking, Built in wardrobes",https://www.domain.com.au/2-13-alberta-street-west-footscray-vic-3012-17680257
17686843,WEST FOOTSCRAY,3012,525.0,2275,"Monday, 18 August 2025",2025-07-25,45,2,1,2.0,Townhouse,75 Cala Street,-37.80046,144.86691,2025-09-09 16:49:05,17686843,,7,0,0,False,Townhouse/Villa,Townhouse,Lease A Property ,21230,Marc Angelone,"Built in wardrobes, Secure Parking, Heating, Dishwasher, Pets Allowed",https://www.domain.com.au/75-cala-street-west-footscray-vic-3012-17686843
17694050,WEST FOOTSCRAY,3012,520.0,2260,"Tuesday, 26 August 2025",2025-07-31,40,2,1,2.0,Apartment / Unit / Flat,1/51 Alma Street,-37.794144,144.86884,2025-09-09 16:49:05,17694050,,11,0,0,False,Apartment,Apartment / Unit / Flat,Buxton Inner West,4371,Eliza O'Donnell,"Bath, Split System Air Con, Split System Heating, Built in wardrobes, Garden / Courtyard, Remote Garage, Floorboards, Secure Parking",https://www.domain.com.au/1-51-alma-street-west-footscray-vic-3012-17694050
17704868,WEST FOOTSCRAY,3012,470.0,2042,"Wednesday, 13 August 2025",2025-08-07,33,1,1,1.0,Apartment / Unit / Flat,14/707 Barkly Street,-37.79637,144.86697,2025-09-09 16:49:05,17704868,,9,0,1,False,Apartment,Apartment / Unit / Flat,Create Real Estate,13833,Create Rentals,Built in wardrobes,https://www.domain.com.au/14-707-barkly-street-west-footscray-vic-3012-17704868
17730954,WEST FOOTSCRAY,3012,365.0,1586,"Wednesday, 03 September 2025",2025-08-26,14,1,1,1.0,Apartment / Unit / Flat,6/13 Clarendon Parade,-37.80573,144.86888,2025-09-09 16:49:05,17730954,,6,0,0,False,Apartment,Apartment / Unit / Flat,Nicholas Scott Real Estate,8676,Lucinda Rose,"Internal Laundry, Air conditioning, Heating, Built in wardrobes, Carpeted",https://www.domain.com.au/6-13-clarendon-parade-west-footscray-vic-3012-17730954
17735569,WEST FOOTSCRAY,3012,395.0,1712,"Thursday, 28 August 2025",2025-08-27,12,1,1,1.0,Apartment / Unit / Flat,4/4 Beaumont Parade,-37.80768,144.8694,2025-09-09 16:49:05,17735569,,3,0,0,False,Apartment,Apartment / Unit / Flat,RentBetter,27499,,"Air conditioning, Built in wardrobes, Heating",https://www.domain.com.au/4-4-beaumont-parade-west-footscray-vic-3012-17735569
17739358,WEST FOOTSCRAY,3012,365.0,1586,"Thursday, 08 August 2024",2025-08-30,10,1,1,1.0,Apartment / Unit / Flat,10/13 Clarendon Parade,-37.80573,144.86888,2025-09-09 16:49:05,17739358,,5,0,0,False,Apartment,Apartment / Unit / Flat,Nicholas Scott Real Estate,8676,Lucinda Rose,"Internal Laundry, Air conditioning, Heating, Built in wardrobes, Carpeted",https://www.domain.com.au/10-13-clarendon-parade-west-footscray-vic-3012-17739358
17740812,WEST FOOTSCRAY,3012,380.0,1651,"Monday, 29 September 2025",2025-09-01,8,1,1,1.0,Apartment / Unit / Flat,6/21 Hampton Parade,-37.806747,144.86778,2025-09-09 16:49:05,17740812,,6,0,0,False,Apartment,Apartment / Unit / Flat,Living Melbourne Property,29950,Megan Giouzelis,Built in wardrobes,https://www.domain.com.au/6-21-hampton-parade-west-footscray-vic-3012-17740812
17742045,WEST FOOTSCRAY,3012,470.0,2042,"Monday, 01 September 2025",2025-09-01,7,2,1,1.0,Apartment / Unit / Flat,4/3 Hatfield Court,-37.808426,144.86913,2025-09-09 16:49:05,17742045,,9,0,0,False,Apartment,Apartment / Unit / Flat,Melo Real Estate Pty Ltd,38412,Carmelo Caputa,"Internal Laundry, Bath, Heating, Built in wardrobes, Reverse Cycle Air Conditioning",https://www.domain.com.au/4-3-hatfield-court-west-footscray-vic-3012-17742045
17742136,WEST FOOTSCRAY,3012,375.0,1630,"Friday, 26 September 2025",2025-09-01,7,1,1,1.0,Apartment / Unit / Flat,9/43-45 Church Street,-37.792824,144.87804,2025-09-09 16:49:05,17742136,,7,0,1,False,Apartment,Apartment / Unit / Flat,Pennisi Real Estate,7307,Pennisi Leasing Team,"Internal Laundry, Bath",https://www.domain.com.au/9-43-45-church-street-west-footscray-vic-3012-17742136
17750231,WEST FOOTSCRAY,3012,580.0,2520,"Thursday, 18 September 2025",2025-09-06,3,3,1,2.0,House,10 Rondell Street,-37.79751,144.86928,2025-09-09 16:49:05,17750231,,11,0,0,False,House,House,Nguyen Real Estate,19313,"Andy Toan Pham, Kevin Nguyen",Secure Parking,https://www.domain.com.au/10-rondell-street-west-footscray-vic-3012-17750231
17751518,WEST FOOTSCRAY,3012,710.0,3085,"Friday, 10 October 2025",2025-09-08,1,3,1,3.0,House,86 Essex Street,-37.79464,144.88023,2025-09-09 16:49:05,17751518,,14,0,0,False,House,House,Village Real Estate ,20880,Cassandra Hutchings,"Internal Laundry, Secure Parking, Bath, Heating, Dishwasher, Balcony / Deck",https://www.domain.com.au/86-essex-street-west-footscray-vic-3012-17751518
17752969,WEST FOOTSCRAY,3012,410.0,1782,"Monday, 15 September 2025",2025-09-09,0,2,1,1.0,Apartment / Unit / Flat,7/1 Hampton Parade,-37.806927,144.86967,2025-09-09 16:49:05,17752969,,3,0,0,False,Apartment,Apartment / Unit / Flat,YPA Estate Agents Sydenham,18194,"Amanda Galea, Cynthia Mercieca","Built in wardrobes, Internal Laundry, Bath",https://www.domain.com.au/7-1-hampton-parade-west-footscray-vic-3012-17752969
14412202,WEST FOOTSCRAY,3012,420.0,1825,"Tuesday, 16 September 2025",2025-08-15,25,2,1,1.0,Apartment / Unit / Flat,6/13 Beaumont Parade,-37.80797,144.86879,2025-09-09 16:49:11,14412202,GO-8827-ID,7,0,0,False,Apartment,Apartment / Unit / Flat,Jas Stephens Real Estate,22,Stephanie Njomkam,"Internal Laundry, Floorboards, Built in wardrobes, Bathtub, Split System Heating, Split System Air Conditioning",https://www.domain.com.au/6-13-beaumont-parade-west-footscray-vic-3012-14412202
16592113,WEST FOOTSCRAY,3012,530.0,2303,"Tuesday, 12 August 2025",2025-07-16,55,3,1,1.0,House,14 Centennial Street,-37.80564,144.8756,2025-09-09 16:49:11,16592113,AK-5337-SB,12,0,0,False,House,House,Jas Stephens Real Estate,22,Christine Baldasso,"Internal Laundry, Floorboards, Bathtub, Split System Heating, Split System Air Conditioning, Shed, Fully fenced, Pets Allowed",https://www.domain.com.au/14-centennial-street-west-footscray-vic-3012-16592113
16911963,WEST FOOTSCRAY,3012,430.0,1868,"Thursday, 03 July 2025",2025-06-18,83,2,1,1.0,Apartment / Unit / Flat,6/3 First Street,-37.797325,144.87079,2025-09-09 16:49:11,16911963,QK-6475-LZ,19,0,0,False,Apartment,Apartment / Unit / Flat,Xynergy Realty Wyndham,37229,Rebekah Singh,"Built in wardrobes, Internal Laundry",https://www.domain.com.au/6-3-first-street-west-footscray-vic-3012-16911963
17029571,WEST FOOTSCRAY,3012,900.0,3911,"Wednesday, 17 September 2025",2025-08-20,20,4,3,2.0,House,56B Clive Street,-37.797745,144.87338,2025-09-09 16:49:11,17029571,MI-7624-UG,18,0,1,False,House,House,Jas Stephens Real Estate,22,Christine Baldasso,"Internal Laundry, Floorboards, Built in wardrobes, Dishwasher, Bathtub, Split System Heating, Split System Air Conditioning, Ensuite(s), Balcony, Courtyard, Remote Garage, Fully fenced, Pets Allowed",https://www.domain.com.au/56b-clive-street-west-footscray-vic-3012-17029571
17074171,WEST FOOTSCRAY,3012,720.0,3128,"Friday, 01 August 2025",2025-06-30,71,3,2,2.0,Townhouse,2/3 Clarendon Parade,-37.80596,144.86964,2025-09-09 16:49:11,17074171,QI-5188-GA,16,0,0,False,Townhouse/Villa,Townhouse,Jas Stephens Real Estate,22,Caitlyn Colquhoun,"Study, Floorboards, Built in wardrobes, Dishwasher, Bathtub, Gas Appliances, Split System Heating, Split System Air Conditioning, Ensuite(s), Courtyard, Remote Garage, Fully fenced, Pets Allowed",https://www.domain.com.au/2-3-clarendon-parade-west-footscray-vic-3012-17074171
17177926,WEST FOOTSCRAY,3012,,2390,"Thursday, 26 September 2024",2024-08-26,379,2,2,1.0,Apartment / Unit / Flat,G11/110 Roberts Street,-37.81031,144.86963,2025-09-09 16:49:11,17177926,LL-7557-HK,6,0,0,False,Apartment,Apartment / Unit / Flat,The Onsite Manager,20828,Twee Nguyen,"Built in wardrobes, Secure Parking",https://www.domain.com.au/g11-110-roberts-street-west-footscray-vic-3012-17177926
17342577,WEST FOOTSCRAY,3012,185.0,804,"Tuesday, 26 August 2025",2025-08-07,33,1,1,,House,Room 6/103 Stanhope Street,-37.795162,144.86513,2025-09-09 16:49:11,17342577,,9,0,0,False,House,House,Burnham Real Estate Footscray,3381,Bryson De Guzman,"Gas, Furnished",https://www.domain.com.au/room-6-103-stanhope-street-west-footscray-vic-3012-17342577
17637116,WEST FOOTSCRAY,3012,545.0,2368,"Monday, 28 July 2025",2025-06-24,76,3,1,1.0,House,32 Alma Street,-37.79399,144.8705,2025-09-09 16:49:11,17637116,,8,0,2,False,House,House,Woodards Yarraville,3724,Cassidy Simmonds,,https://www.domain.com.au/32-alma-street-west-footscray-vic-3012-17637116
17662935,WEST FOOTSCRAY,3012,520.0,2260,"Thursday, 31 July 2025",2025-07-10,61,3,1,2.0,House,28 Dempster Street,-37.801888,144.86159,2025-09-09 16:49:11,17662935,,10,0,0,False,House,House,Nguyen Real Estate,19313,"Andy Toan Pham, Kevin Nguyen",,https://www.domain.com.au/28-dempster-street-west-footscray-vic-3012-17662935
17685684,WEST FOOTSCRAY,3012,630.0,2738,"Monday, 28 July 2025",2025-07-25,46,3,1,,House,7 Dove Street,-37.796654,144.88063,2025-09-09 16:49:11,17685684,,8,0,0,False,House,House,Burnham Real Estate Footscray,3381,Bryson De Guzman,Air conditioning,https://www.domain.com.au/7-dove-street-west-footscray-vic-3012-17685684
17688653,WEST FOOTSCRAY,3012,450.0,1955,"Saturday, 16 August 2025",2025-07-30,40,1,1,1.0,Apartment / Unit / Flat,2/110 Roberts St,-37.81031,144.86963,2025-09-09 16:49:11,17688653,,8,0,0,False,Apartment,Apartment / Unit / Flat,The Advocacy Group Pty Ltd,34905,"Rental Department, Tien Tran","Secure Parking, Heating, Built in wardrobes, Air conditioning, Balcony / Deck",https://www.domain.com.au/2-110-roberts-st-west-footscray-vic-3012-17688653
17689810,WEST FOOTSCRAY,3012,450.0,1955,"Saturday, 16 August 2025",2025-07-29,42,1,1,1.0,Apartment / Unit / Flat,2/110 Roberts St,-37.81031,144.86963,2025-09-09 16:49:11,17689810,,8,0,0,False,Apartment,Apartment / Unit / Flat,The Advocacy Group Pty Ltd,34905,"Rental Department, Tien Tran","Heating, Secure Parking, Air conditioning, Built in wardrobes, Balcony / Deck",https://www.domain.com.au/2-110-roberts-st-west-footscray-vic-3012-17689810
17696199,WEST FOOTSCRAY,3012,540.0,2346,"Monday, 01 September 2025",2025-08-01,39,2,2,1.0,Apartment / Unit / Flat,202/172 Rupert Street,-37.797657,144.8638,2025-09-09 16:49:11,17696199,,7,0,0,False,Apartment,Apartment / Unit / Flat,Village Real Estate ,20880,Ann Borg,"Gas, Internal Laundry, Secure Parking, Heating, Dishwasher, Balcony / Deck",https://www.domain.com.au/202-172-rupert-street-west-footscray-vic-3012-17696199
17707412,WEST FOOTSCRAY,3012,740.0,3215,"Thursday, 11 September 2025",2025-08-08,32,4,2,1.0,House,1 Highbury Street,-37.80478,144.8755,2025-09-09 16:49:11,17707412,,8,0,0,False,House,House,Village Real Estate ,20880,Ann Borg,"Gas, Internal Laundry, Bath, Dishwasher",https://www.domain.com.au/1-highbury-street-west-footscray-vic-3012-17707412
17709416,WEST FOOTSCRAY,3012,750.0,3258,"Monday, 01 September 2025",2025-08-11,29,4,2,2.0,Townhouse,5B Glamis Road,-37.805134,144.87471,2025-09-09 16:49:11,17709416,,11,0,0,False,Townhouse/Villa,Townhouse,Tiga Residential,35305,"Richard Siah, Jay Tee","Internal Laundry, Secure Parking, Bath, Heating, Dishwasher, Split System Air Conditioning, Solar hot water",https://www.domain.com.au/5b-glamis-road-west-footscray-vic-3012-17709416
17716502,WEST FOOTSCRAY,3012,525.0,2275,"Monday, 18 August 2025",2025-08-14,25,2,1,1.0,Townhouse,75 Cala St,-37.80046,144.86691,2025-09-09 16:49:11,17716502,,6,0,0,False,Townhouse/Villa,Townhouse,RentBetter,27499,,"Air conditioning, Built in wardrobes, Dishwasher, Fully fenced, Garden / Courtyard, Heating, Pets Allowed, Secure Parking",https://www.domain.com.au/75-cala-st-west-footscray-vic-3012-17716502
17728974,WEST FOOTSCRAY,3012,440.0,1912,"Monday, 01 September 2025",2025-08-23,17,2,1,1.0,Apartment / Unit / Flat,6/659 Barkly Street,-37.796837,144.87096,2025-09-09 16:49:11,17728974,,17,0,0,False,Apartment,Apartment / Unit / Flat,Kelly & Shiel Pty Ltd,7026,"Paulina Falvo, Wally Omar","Internal Laundry, Heating, Built in wardrobes, Car Parking - Surface",https://www.domain.com.au/6-659-barkly-street-west-footscray-vic-3012-17728974
17730953,WEST FOOTSCRAY,3012,355.0,1543,"Wednesday, 03 September 2025",2025-08-25,14,1,1,1.0,Apartment / Unit / Flat,4/13 Clarendon Parade,-37.80573,144.86888,2025-09-09 16:49:11,17730953,,5,0,0,False,Apartment,Apartment / Unit / Flat,Nicholas Scott Real Estate,8676,Lucinda Rose,"Internal Laundry, Air conditioning, Heating, Built in wardrobes, Carpeted",https://www.domain.com.au/4-13-clarendon-parade-west-footscray-vic-3012-17730953
