listing_id,suburb,postcode,weekly_rent,bond,available_date,date_listed,days_listed,bedrooms,bathrooms,carspaces,property_type,address,lat,lon,scraped_date,domain_page_id,property_id,photo_count,video_count,floorplans_count,virtual_tour,primary_type,secondary_type,agency,agency_id,agent_names,structured_features,url
15852302,WEST MELBOURNE,3003,800.0,3477.0,"Wednesday, 03 September 2025",2025-09-03,6,3.0,2.0,2.0,House,301/118 Dudley Street,-37.809357,144.9514,2025-09-09 16:53:17,15852302,XW-1292-UK,12,0,0,False,House,House,Casa Real Estate,20327,Mario Setiawan,"Secure Parking, Gym, Balcony / Deck",https://www.domain.com.au/301-118-dudley-street-west-melbourne-vic-3003-15852302
17074283,WEST MELBOURNE,3003,595.0,2585.0,"Monday, 04 August 2025",2025-07-27,43,2.0,1.0,,Apartment / Unit / Flat,502/41 Batman Street,-37.810875,144.95183,2025-09-09 16:53:17,17074283,OI-8151-JF,11,0,0,True,Apartment,Apartment / Unit / Flat,Ray White Southbank,20626,"Emma Smith, Alex Mees",Furnished,https://www.domain.com.au/502-41-batman-street-west-melbourne-vic-3003-17074283
17174637,WEST MELBOURNE,3003,1200.0,5214.0,"Tuesday, 11 November 2025",2025-09-08,1,3.0,2.0,2.0,Apartment / Unit / Flat,401/491 Victoria Street,-37.8047,144.94362,2025-09-09 16:53:17,17174637,OO-7302-AZ,12,0,0,False,Apartment,Apartment / Unit / Flat,Gotham Property,32563,Manuel Flores,,https://www.domain.com.au/401-491-victoria-street-west-melbourne-vic-3003-17174637
17615404,WEST MELBOURNE,3003,550.0,,"Friday, 11 July 2025",2025-06-11,90,2.0,1.0,,Apartment / Unit / Flat,1104/53 Batman Street,-37.81091,144.95145,2025-09-09 16:53:17,17615404,,12,1,1,False,Apartment,Apartment / Unit / Flat,MICM Real Estate,232,Vince Ramesan,"Air conditioning, Built in wardrobes, Internal Laundry, Furnished, Gym, Intercom, Broadband internet access, Dishwasher, Balcony / Deck",https://www.domain.com.au/1104-53-batman-street-west-melbourne-vic-3003-17615404
17702422,WEST MELBOURNE,3003,600.0,2607.0,"Monday, 11 August 2025",2025-08-06,34,2.0,1.0,1.0,Apartment / Unit / Flat,405/135 Roden Street,-37.80839,144.94763,2025-09-09 16:53:17,17702422,,10,0,0,True,Apartment,Apartment / Unit / Flat,Ray White Southbank,20626,"Eva Christodoulou, Macy Roberts","Air conditioning, Intercom, Built in wardrobes, Heating, Dishwasher, Secure Parking, Balcony / Deck, City Views",https://www.domain.com.au/405-135-roden-street-west-melbourne-vic-3003-17702422
17708985,WEST MELBOURNE,3003,500.0,,"Friday, 12 September 2025",2025-08-11,29,1.0,1.0,,Apartment / Unit / Flat,507/53 Batman Street,-37.81097,144.95148,2025-09-09 16:53:17,17708985,,9,1,1,False,Apartment,Apartment / Unit / Flat,MICM Real Estate,232,Vince Ramesan,"Internal Laundry, Heating, Air conditioning, Balcony / Deck, Built in wardrobes, Dishwasher, Gym, Intercom",https://www.domain.com.au/507-53-batman-street-west-melbourne-vic-3003-17708985
17713378,WEST MELBOURNE,3003,1280.0,6841.0,"Monday, 08 September 2025",2025-08-13,27,4.0,2.0,2.0,House,185 Stanley Street,-37.810238,144.9462,2025-09-09 16:53:17,17713378,,14,0,0,False,House,House,Jellis Craig - Brunswick,6216,David Johnston,"Split System Air Con, Alarm System, Balcony / Deck, Split System Heating, Study, Dishwasher, Heating, Remote Garage, Secure Parking",https://www.domain.com.au/185-stanley-street-west-melbourne-vic-3003-17713378
17730939,WEST MELBOURNE,3003,850.0,,"Monday, 15 September 2025",2025-08-25,14,2.0,2.0,1.0,Apartment / Unit / Flat,703/23 Batman Street,-37.810738,144.95226,2025-09-09 16:53:17,17730939,,23,0,0,False,Apartment,Apartment / Unit / Flat,MICM Real Estate,232,Vince Ramesan,"Internal Laundry, Heating, Secure Parking, Swimming Pool, Air conditioning, Alarm System, Balcony / Deck, Built in wardrobes, Dishwasher, Gym, Intercom, Furnished",https://www.domain.com.au/703-23-batman-street-west-melbourne-vic-3003-17730939
17738135,WEST MELBOURNE,3003,540.0,2346.0,"Monday, 01 September 2025",2025-08-29,11,1.0,1.0,,Apartment / Unit / Flat,906/23 Batman St,-37.810738,144.95226,2025-09-09 16:53:17,17738135,,11,0,1,False,Apartment,Apartment / Unit / Flat,MATRIX GLOBAL INVESTMENT GROUP MELBOURNE PTY LTD,30850,"Terry Zhang, Tony Gao","Air conditioning, Internal Laundry, Intercom, Gym, Built in wardrobes, Dishwasher, Balcony, Swimming Pool, Furnished",https://www.domain.com.au/906-23-batman-st-west-melbourne-vic-3003-17738135
17746704,WEST MELBOURNE,3003,570.0,2477.0,"Tuesday, 16 September 2025",2025-09-04,5,1.0,1.0,1.0,Apartment / Unit / Flat,101/101 Rosslyn Street,-37.808758,144.95094,2025-09-09 16:53:17,17746704,,11,0,2,False,Apartment,Apartment / Unit / Flat,Bricks and Mortar RE,31967,Juliet Gallen,"Intercom, Built in wardrobes, Dishwasher, Split System Heating, Split System Air Conditioning, Balcony, Pets Allowed",https://www.domain.com.au/101-101-rosslyn-street-west-melbourne-vic-3003-17746704
17746759,WEST MELBOURNE,3003,660.0,2867.0,"Friday, 05 September 2025",2025-09-04,5,1.0,1.0,1.0,Apartment / Unit / Flat,1311/65 Dudley St,-37.810066,144.95055,2025-09-09 16:53:17,17746759,,5,0,1,False,Apartment,Apartment / Unit / Flat,RentBetter,27499,,"Gas, Internal Laundry, Heating, Air conditioning, Balcony / Deck, Built in wardrobes, Dishwasher, Furnished, Gym, Intercom, Secure Parking, Swimming Pool",https://www.domain.com.au/1311-65-dudley-st-west-melbourne-vic-3003-17746759
17747037,WEST MELBOURNE,3003,700.0,3042.0,"Wednesday, 01 October 2025",2025-09-04,5,2.0,1.0,1.0,Apartment / Unit / Flat,604/23 Batman Street,-37.810738,144.95226,2025-09-09 16:53:17,17747037,,15,0,0,False,Apartment,Apartment / Unit / Flat,Forge Group Australia Pty Ltd,32680,"Forge Leasing, Wayne Deng","Internal Laundry, Heating, Balcony, Secure Parking, Swimming Pool - Above Ground, Built in wardrobes, Dishwasher, Floorboards, Gym, Intercom, Air conditioning, Furnished",https://www.domain.com.au/604-23-batman-street-west-melbourne-vic-3003-17747037
17747852,WEST MELBOURNE,3003,550.0,,"Friday, 03 October 2025",2025-09-04,5,1.0,1.0,1.0,Apartment / Unit / Flat,1108/58 Jeffcott Street,-37.81178,144.95174,2025-09-09 16:53:17,17747852,,10,0,0,False,Apartment,Apartment / Unit / Flat,MICM Real Estate,232,Vince Ramesan,,https://www.domain.com.au/1108-58-jeffcott-street-west-melbourne-vic-3003-17747852
17748362,WEST MELBOURNE,3003,575.0,2499.0,"Tuesday, 09 September 2025",2025-09-05,4,1.0,1.0,,Apartment / Unit / Flat,1807/45 Dudley Street,-37.80998,144.95097,2025-09-09 16:53:17,17748362,,14,0,0,True,Apartment,Apartment / Unit / Flat,Areal Property - Melbourne,35843,Rayna Hao,"Air conditioning, Intercom, Balcony / Deck, Built in wardrobes, Dishwasher, Floorboards, Gym, Internal Laundry",https://www.domain.com.au/1807-45-dudley-street-west-melbourne-vic-3003-17748362
17748505,WEST MELBOURNE,3003,640.0,2781.0,"Monday, 29 September 2025",2025-09-05,4,2.0,1.0,1.0,Apartment / Unit / Flat,604/140 Dudley Street,-37.809574,144.95078,2025-09-09 16:53:17,17748505,,8,0,0,False,Apartment,Apartment / Unit / Flat,Joy Realty,20616,Lulu Lee,"Balcony, Outside Spa, Built in wardrobes, Dishwasher, Intercom, Study, Air conditioning, Split-System Air Conditioning",https://www.domain.com.au/604-140-dudley-street-west-melbourne-vic-3003-17748505
17750706,WEST MELBOURNE,3003,500.0,,"Friday, 12 September 2025",2025-09-08,1,1.0,1.0,,Apartment / Unit / Flat,1309/53 Batman Street,-37.81091,144.95145,2025-09-09 16:53:17,17750706,,11,1,0,False,Apartment,Apartment / Unit / Flat,MICM Real Estate,232,Vince Ramesan,"Internal Laundry, Heating, Air conditioning, Balcony / Deck, Broadband internet access, Built in wardrobes, Dishwasher, Gym, Intercom",https://www.domain.com.au/1309-53-batman-street-west-melbourne-vic-3003-17750706
17750941,WEST MELBOURNE,3003,675.0,2934.0,"Thursday, 02 October 2025",2025-09-08,1,2.0,1.0,1.0,Apartment / Unit / Flat,506/10 Wominjeka Walk,-37.810146,144.94904,2025-09-09 16:53:17,17750941,,19,0,1,False,Apartment,Apartment / Unit / Flat,Area Specialist Dynamic,38901,Siena Andrit,"Air conditioning, Alarm System, Secure Parking, Intercom, Swimming Pool, Outdoor Spa, Balcony / Deck, Dishwasher, Gym, Pets Allowed",https://www.domain.com.au/506-10-wominjeka-walk-west-melbourne-vic-3003-17750941
17752092,WEST MELBOURNE,3003,650.0,2824.0,"Monday, 08 September 2025",2025-09-08,1,2.0,1.0,,Apartment / Unit / Flat,2409/105 Batman Street,-37.811592,144.94983,2025-09-09 16:53:17,17752092,,8,0,0,False,Apartment,Apartment / Unit / Flat,Ironfish Real Estate Melbourne,21689,Sisi Peng,"Built in wardrobes, Intercom, Heating, Dishwasher, Balcony / Deck, Pool/Spa Count: 0, Furnished",https://www.domain.com.au/2409-105-batman-street-west-melbourne-vic-3003-17752092
17752399,WEST MELBOURNE,3003,480.0,2086.0,"Wednesday, 10 September 2025",2025-09-08,0,1.0,1.0,,Apartment / Unit / Flat,311/9 Dryburgh Street,-37.80666,144.94249,2025-09-09 16:53:17,17752399,,8,0,0,False,Apartment,Apartment / Unit / Flat,BIGGIN & SCOTT MANNINGHAM,12157,"Tracy Xie, Nancy Ma","Built in wardrobes, Secure Parking, Heating, Balcony / Deck",https://www.domain.com.au/311-9-dryburgh-street-west-melbourne-vic-3003-17752399
17752424,WEST MELBOURNE,3003,650.0,2824.0,"Sunday, 05 October 2025",2025-09-08,0,2.0,1.0,1.0,Apartment / Unit / Flat,2707/130-154 Dudley Street,-37.80955,144.95084,2025-09-09 16:53:17,17752424,,7,0,0,False,Apartment,Apartment / Unit / Flat,LJ Hooker City Residential,18765,Leasing Team,"Balcony / Deck, Built in wardrobes, Close to shops",https://www.domain.com.au/2707-130-154-dudley-street-west-melbourne-vic-3003-17752424
16521573,WEST MELBOURNE,3003,550.0,2390.0,"Monday, 25 August 2025",2025-08-25,15,1.0,1.0,,Apartment / Unit / Flat,301/130 Dudley Street,-37.80955,144.95084,2025-09-09 16:53:22,16521573,OJ-8297-PY,11,0,0,False,Apartment,Apartment / Unit / Flat,MATRIX GLOBAL INVESTMENT GROUP MELBOURNE PTY LTD,30850,"Terry Zhang, Tony Gao","Built in wardrobes, Internal Laundry, Study, Balcony, Furnished",https://www.domain.com.au/301-130-dudley-street-west-melbourne-vic-3003-16521573
17263068,WEST MELBOURNE,3003,1500.0,8000.0,"Tuesday, 22 October 2024",2024-10-21,322,3.0,2.0,2.0,Townhouse,222 Rosslyn Street,-37.809807,144.9478,2025-09-09 16:53:22,17263068,AG-3217-LV,11,0,0,False,Townhouse/Villa,Townhouse,Ridgemiles Real Estate,36166,Fion Lau,"Furnished, Heating, Study",https://www.domain.com.au/222-rosslyn-street-west-melbourne-vic-3003-17263068
17687798,WEST MELBOURNE,3003,649.0,2820.0,"Friday, 05 September 2025",2025-09-01,8,2.0,2.0,1.0,Apartment / Unit / Flat,G4/41 Dryburgh Street,-37.80606,144.94272,2025-09-09 16:53:22,17687798,,10,0,1,False,Apartment,Apartment / Unit / Flat,Melcorp Real Estate,11842,"Romina Alessi, Leasing Team","Built in wardrobes, Internal Laundry, Intercom, Fireplace(s), Heating, Dishwasher",https://www.domain.com.au/g4-41-dryburgh-street-west-melbourne-vic-3003-17687798
17691681,WEST MELBOURNE,3003,788.0,3424.0,"Tuesday, 26 August 2025",2025-07-30,41,1.0,1.0,1.0,Apartment / Unit / Flat,206/150 Dudley Street,-37.8097,144.95055,2025-09-09 16:53:22,17691681,,18,0,1,False,Apartment,Apartment / Unit / Flat,Corporate Keys Australia,7537,CKA Reservations Department,"Air conditioning, Internal Laundry, Furnished, Study, Balcony / Deck",https://www.domain.com.au/206-150-dudley-street-west-melbourne-vic-3003-17691681
17724711,WEST MELBOURNE,3003,660.0,2868.0,"Wednesday, 20 August 2025",2025-08-20,20,2.0,1.0,,Apartment / Unit / Flat,405/392 Spencer Street,-37.811256,144.95097,2025-09-09 16:53:22,17724711,,6,0,0,False,Apartment,Apartment / Unit / Flat,L Real Estate,32806,Support Lrealestate,"Internal Laundry, Intercom, Floorboards, Built in wardrobes, Dishwasher, Air conditioning, Balcony, Furnished",https://www.domain.com.au/405-392-spencer-street-west-melbourne-vic-3003-17724711
17727560,WEST MELBOURNE,3003,600.0,,"Saturday, 27 September 2025",2025-08-25,15,1.0,1.0,1.0,Apartment / Unit / Flat,412/102 Stanley Street,-37.808247,144.94878,2025-09-09 16:53:22,17727560,,6,0,2,False,Apartment,Apartment / Unit / Flat,Stone Real Estate Whittlesea,1195,"Jessica Conte-Singh, Chloe Dwyer-Fraser","Air conditioning, Built in wardrobes, Internal Laundry, Heating, Dishwasher, Balcony / Deck",https://www.domain.com.au/412-102-stanley-street-west-melbourne-vic-3003-17727560
17729225,WEST MELBOURNE,3003,530.0,2303.0,"Thursday, 25 September 2025",2025-08-25,15,1.0,1.0,,Apartment / Unit / Flat,101/130 Dudley Street,-37.80955,144.95084,2025-09-09 16:53:22,17729225,,7,0,0,False,Apartment,Apartment / Unit / Flat,Joy Realty,20616,Lulu Lee,"Balcony, Outside Spa, Built in wardrobes, Dishwasher, Intercom, Study, Split-System Air Conditioning",https://www.domain.com.au/101-130-dudley-street-west-melbourne-vic-3003-17729225
17732500,WEST MELBOURNE,3003,615.0,2672.0,"Friday, 26 September 2025",2025-08-26,14,2.0,1.0,1.0,Apartment / Unit / Flat,303/162 Rosslyn Street,-37.80923,144.94908,2025-09-09 16:53:22,17732500,,5,1,0,False,Apartment,Apartment / Unit / Flat,Wood Property,27439,"Jade Wilson, Brooke `Te Angina","Gas, Internal Laundry, Intercom, Heating, Dishwasher, Balcony / Deck",https://www.domain.com.au/303-162-rosslyn-street-west-melbourne-vic-3003-17732500
17733347,WEST MELBOURNE,3003,990.0,,"Saturday, 30 August 2025",2025-08-27,13,3.0,2.0,1.0,Townhouse,2/166 Stanley Street,-37.809074,144.94725,2025-09-09 16:53:22,17733347,,12,0,1,False,Townhouse/Villa,Townhouse,buymyplace,17238,buymyplace .,"Furnished, Secure Parking, Balcony / Deck, Ensuite, Dishwasher, Study, Built in wardrobes, Floorboards, Living area, Broadband internet access, Alarm System, Intercom, Toilet, Air conditioning, Heating, Hot water service, Garage spaces: 1, Energy Eff. Rating: 6",https://www.domain.com.au/2-166-stanley-street-west-melbourne-vic-3003-17733347
17733942,WEST MELBOURNE,3003,820.0,3563.0,"Monday, 15 September 2025",2025-08-27,13,2.0,2.0,1.0,Apartment / Unit / Flat,1606/65 Dudley Street,-37.810078,144.95055,2025-09-09 16:53:22,17733942,,6,1,0,False,Apartment,Apartment / Unit / Flat,Dynamic Estate Group,23759,Rental Dynamic,"Intercom, Floorboards, Built in wardrobes, Dishwasher, Broadband, Gas Appliances, Split System Heating, Split System Air Conditioning, Gas Hot Water, Balcony, Secure Parking, City Views, Furnished",https://www.domain.com.au/1606-65-dudley-street-west-melbourne-vic-3003-17733942
17735385,WEST MELBOURNE,3003,780.0,3389.0,"Monday, 01 September 2025",2025-08-27,13,2.0,2.0,1.0,Apartment / Unit / Flat,603/15-31 Batman Street,-37.810757,144.95224,2025-09-09 16:53:22,17735385,,19,0,0,False,Apartment,Apartment / Unit / Flat,A Dot Realty VIC,38737,Clark Guan,"Built in wardrobes, Secure Parking, Balcony / Deck",https://www.domain.com.au/603-15-31-batman-street-west-melbourne-vic-3003-17735385
17736171,WEST MELBOURNE,3003,650.0,2824.0,"Friday, 19 September 2025",2025-08-28,12,2.0,1.0,1.0,Apartment / Unit / Flat,712/9 Dryburgh St,-37.80666,144.94249,2025-09-09 16:53:22,17736171,,8,0,0,False,Apartment,Apartment / Unit / Flat,Moment Group,35720,Leasing Consultant,,https://www.domain.com.au/712-9-dryburgh-st-west-melbourne-vic-3003-17736171
17736322,WEST MELBOURNE,3003,750.0,3259.0,"Thursday, 28 August 2025",2025-08-28,12,2.0,2.0,,Apartment / Unit / Flat,1208/105 Batman Street,-37.811592,144.94983,2025-09-09 16:53:22,17736322,,7,0,0,False,Apartment,Apartment / Unit / Flat,Ironfish Real Estate Melbourne,21689,Sisi Peng,"Built in wardrobes, Gas, Internal Laundry, Balcony / Deck, Pool/Spa Count: 0, Furnished",https://www.domain.com.au/1208-105-batman-street-west-melbourne-vic-3003-17736322
17737724,WEST MELBOURNE,3003,470.0,,"Tuesday, 30 September 2025",2025-08-29,11,1.0,1.0,,Apartment / Unit / Flat,406/53 Batman Street,-37.81091,144.95145,2025-09-09 16:53:22,17737724,,7,1,1,False,Apartment,Apartment / Unit / Flat,MICM Real Estate,232,Vince Ramesan,"Internal Laundry, Gym, Broadband internet access, Dishwasher, Air conditioning, Balcony / Deck, Built in wardrobes, Intercom",https://www.domain.com.au/406-53-batman-street-west-melbourne-vic-3003-17737724
17739024,WEST MELBOURNE,3003,965.0,5790.0,"Wednesday, 10 September 2025",2025-08-29,11,4.0,2.0,2.0,House,557 King Street,-37.806892,144.95015,2025-09-09 16:53:22,17739024,,8,0,0,False,House,House,Kay & Burton Stonnington,88,Jonathan Boon,,https://www.domain.com.au/557-king-street-west-melbourne-vic-3003-17739024
17740791,WEST MELBOURNE,3003,750.0,3259.0,"Monday, 22 September 2025",2025-09-01,8,2.0,1.0,1.0,House,613 Spencer Street,-37.80688,144.94594,2025-09-09 16:53:22,17740791,,8,0,0,False,House,House,MRE,20795,Daniel Suarez,"Car Accom: Carport, Pool/Spa Count: 0",https://www.domain.com.au/613-spencer-street-west-melbourne-vic-3003-17740791
17741750,WEST MELBOURNE,3003,880.0,3824.0,"Friday, 05 September 2025",2025-09-01,8,2.0,2.0,1.0,Apartment / Unit / Flat,325/105 Batman Street,-37.811592,144.94983,2025-09-09 16:53:22,17741750,,11,0,1,False,Apartment,Apartment / Unit / Flat,Xynergy Realty Oakleigh,26633,Parker Wang,"Built in wardrobes, Dishwasher, Bathtub, Split System Heating, Split System Air Conditioning, Swimming Pool",https://www.domain.com.au/325-105-batman-street-west-melbourne-vic-3003-17741750
17742984,WEST MELBOURNE,3003,510.0,2216.0,"Tuesday, 30 September 2025",2025-09-02,7,1.0,1.0,,Apartment / Unit / Flat,107/130 Dudley Street,-37.80955,144.95084,2025-09-09 16:53:22,17742984,,9,0,1,False,Apartment,Apartment / Unit / Flat,Ironfish Real Estate Melbourne,21689,Jennifer Lu,"Fireplace(s), Dishwasher, Balcony / Deck, Pool/Spa Count: 0",https://www.domain.com.au/107-130-dudley-street-west-melbourne-vic-3003-17742984
17743886,WEST MELBOURNE,3003,850.0,3693.0,"Wednesday, 01 October 2025",2025-09-02,7,2.0,2.0,1.0,Townhouse,2/225 Adderley Street,-37.808426,144.9446,2025-09-09 16:53:22,17743886,,14,0,1,False,Townhouse/Villa,Townhouse,W. B. Simpson & Son,10300,Sam Campbell,"Gas, Secure Parking, Intercom, Dishwasher, Balcony / Deck, Study, Kitchen, Built in wardrobes, Floorboards, Air conditioning, Alarm System, Laundry",https://www.domain.com.au/2-225-adderley-street-west-melbourne-vic-3003-17743886
17745615,WEST MELBOURNE,3003,725.0,3151.0,"Friday, 03 October 2025",2025-09-03,6,2.0,2.0,1.0,Apartment / Unit / Flat,403/175 Rosslyn Street,-37.80967,144.94907,2025-09-09 16:53:22,17745615,,8,0,0,False,Apartment,Apartment / Unit / Flat,MRE,20795,Tali Leckie,"Balcony / Deck, Car Accom: Carport, Pool/Spa Count: 0",https://www.domain.com.au/403-175-rosslyn-street-west-melbourne-vic-3003-17745615
15894463,WEST MELBOURNE,3003,580.0,2520.0,"Monday, 25 August 2025",2025-08-18,22,1.0,1.0,,Apartment / Unit / Flat,2510/65 Dudley Street,-37.810078,144.95055,2025-09-09 16:53:27,15894463,MG-6082-QE,8,0,0,False,Apartment,Apartment / Unit / Flat,Melbourne Boutique Property,33428,"Chelsea Menjivar, Suzie Inglis","Air conditioning, Built in wardrobes, Gas, Internal Laundry, Furnished, Intercom, Dishwasher",https://www.domain.com.au/2510-65-dudley-street-west-melbourne-vic-3003-15894463
16325784,WEST MELBOURNE,3003,490.0,2130.0,"Friday, 05 September 2025",2025-07-31,40,1.0,1.0,,Apartment / Unit / Flat,214/15-31 Batman Street,-37.810757,144.95224,2025-09-09 16:53:27,16325784,,13,0,0,False,Apartment,Apartment / Unit / Flat,Motion Property,8551,Mark Reading,"Gym, Intercom, Floorboards, Built in wardrobes, Dishwasher, Split System Heating, Air conditioning, Outdoor Entertainment Area, Balcony, Swimming Pool, Spa, Pets Allowed",https://www.domain.com.au/214-15-31-batman-street-west-melbourne-vic-3003-16325784
17073434,WEST MELBOURNE,3003,700.0,3042.0,"Saturday, 30 August 2025",2025-08-01,39,2.0,1.0,,Apartment / Unit / Flat,1601/45 Dudley Street,-37.809994,144.95097,2025-09-09 16:53:27,17073434,RO-5013-UD,18,0,0,False,Apartment,Apartment / Unit / Flat,Areal Property - Melbourne,35843,Rayna Hao,"Gym, Air conditioning, Intercom, Balcony / Deck, Built in wardrobes, Dishwasher, Internal Laundry",https://www.domain.com.au/1601-45-dudley-street-west-melbourne-vic-3003-17073434
17463936,WEST MELBOURNE,3003,1800.0,7821.0,"Monday, 03 March 2025",2025-03-02,191,3.0,3.0,3.0,Apartment / Unit / Flat,2101/45 Dudley Street,-37.80998,144.95097,2025-09-09 16:53:27,17463936,BO-9534-LF,18,0,1,False,Apartment,Apartment / Unit / Flat,JLY Property Group,38219,Leo Yang,"Ensuite(s), Secure Parking, Air conditioning, Ensuite, Floorboards, Gym, Alarm System, Intercom, Built in wardrobes, Furnished, Internal Laundry, Pets Allowed, Gas, Broadband internet access, Separate Dining Room, Heating, Dishwasher, City Views, Double glazed windows, Fully fenced, Balcony / Deck",https://www.domain.com.au/2101-45-dudley-street-west-melbourne-vic-3003-17463936
17606541,WEST MELBOURNE,3003,630.0,2738.0,"Friday, 04 July 2025",2025-06-04,96,2.0,1.0,,Apartment / Unit / Flat,713/65 Dudley Street,-37.810078,144.95055,2025-09-09 16:53:27,17606541,,11,0,0,True,Apartment,Apartment / Unit / Flat,Areal Property - Melbourne,35843,Anna Mou,"Built in wardrobes, Internal Laundry, Intercom, Heating",https://www.domain.com.au/713-65-dudley-street-west-melbourne-vic-3003-17606541
17635243,WEST MELBOURNE,3003,710.0,3085.0,"Thursday, 10 July 2025",2025-06-24,77,2.0,1.0,1.0,Apartment / Unit / Flat,404/130 Dudley Street,-37.80955,144.95084,2025-09-09 16:53:27,17635243,,8,0,0,False,Apartment,Apartment / Unit / Flat,CHN Real Estate Group,29444,"Suki Chan, Winnie Wen","Air conditioning, Built in wardrobes, Gas, Internal Laundry, Intercom, Dishwasher, Balcony / Deck",https://www.domain.com.au/404-130-dudley-street-west-melbourne-vic-3003-17635243
17666738,WEST MELBOURNE,3003,530.0,2303.0,"Thursday, 14 August 2025",2025-07-14,57,1.0,1.0,1.0,Apartment / Unit / Flat,3G02/130-152 Dudley Street,-37.80955,144.95084,2025-09-09 16:53:27,17666738,,14,0,0,True,Apartment,Apartment / Unit / Flat,Dingle Partners,345,Paola Popovski,"Air conditioning, Heating, Built in wardrobes, Close to transport, Close to shops, Intercom",https://www.domain.com.au/3g02-130-152-dudley-street-west-melbourne-vic-3003-17666738
17692581,WEST MELBOURNE,3003,850.0,3694.0,"Wednesday, 03 September 2025",2025-07-30,41,2.0,2.0,1.0,Apartment / Unit / Flat,2005/23 Batman Street,-37.810738,144.95226,2025-09-09 16:53:27,17692581,,11,0,0,False,Apartment,Apartment / Unit / Flat,The Hopkins Group,17841,Nadine Cotsaris,Study,https://www.domain.com.au/2005-23-batman-street-west-melbourne-vic-3003-17692581
17693966,WEST MELBOURNE,3003,760.0,3302.0,"Monday, 25 August 2025",2025-07-31,40,3.0,1.0,1.0,House,28 Milton Street,-37.80786,144.95393,2025-09-09 16:53:27,17693966,,12,0,0,False,House,House,W. B. Simpson & Son,10300,Sam Campbell,"Gas, Dishwasher, Study, Laundry",https://www.domain.com.au/28-milton-street-west-melbourne-vic-3003-17693966
17694624,WEST MELBOURNE,3003,750.0,3259.0,"Monday, 18 August 2025",2025-07-31,40,2.0,2.0,1.0,Apartment / Unit / Flat,102/107 Roden Street,-37.8076,144.94833,2025-09-09 16:53:27,17694624,,9,0,0,False,Apartment,Apartment / Unit / Flat,Ironfish Real Estate Melbourne,21689,Sisi Peng,"Built in wardrobes, Internal Laundry, Intercom, Dishwasher, Balcony / Deck, Pool/Spa Count: 0, Furnished",https://www.domain.com.au/102-107-roden-street-west-melbourne-vic-3003-17694624
17704139,WEST MELBOURNE,3003,530.0,2303.0,"Wednesday, 03 September 2025",2025-08-06,33,1.0,1.0,1.0,Apartment / Unit / Flat,103/118 Dudley Street,-37.809357,144.9514,2025-09-09 16:53:27,17704139,,8,0,0,False,Apartment,Apartment / Unit / Flat,Ray White Southbank,20626,Emma Smith,,https://www.domain.com.au/103-118-dudley-street-west-melbourne-vic-3003-17704139
17710932,WEST MELBOURNE,3003,725.0,3150.0,"Friday, 12 September 2025",2025-08-12,28,2.0,2.0,1.0,Apartment / Unit / Flat,1512/105 Batman Street,-37.811592,144.94983,2025-09-09 16:53:27,17710932,,22,1,0,False,Apartment,Apartment / Unit / Flat,Ironfish Real Estate Melbourne,21689,Sisi Peng,"Built in wardrobes, Intercom, Heating, Dishwasher, Balcony / Deck, Car Accom: Carport, Pool/Spa Count: 0",https://www.domain.com.au/1512-105-batman-street-west-melbourne-vic-3003-17710932
17711067,WEST MELBOURNE,3003,720.0,,"Tuesday, 12 August 2025",2025-08-12,28,2.0,2.0,,Apartment / Unit / Flat,804/65 Dudley Street,-37.810078,144.95055,2025-09-09 16:53:27,17711067,,16,0,1,False,Apartment,Apartment / Unit / Flat,Waterdale Property Agent Pty Ltd,30007,Conny Yang,,https://www.domain.com.au/804-65-dudley-street-west-melbourne-vic-3003-17711067
17712288,WEST MELBOURNE,3003,700.0,3042.0,"Tuesday, 12 August 2025",2025-08-12,28,2.0,2.0,1.0,Apartment / Unit / Flat,212/55 Jeffcott Street,-37.81205,144.95174,2025-09-09 16:53:27,17712288,,11,0,0,False,Apartment,Apartment / Unit / Flat,Melplex Real Estate,20823,"Mark Arnejo, Leah Zhao","Built in wardrobes, Internal Laundry, Intercom, Heating",https://www.domain.com.au/212-55-jeffcott-street-west-melbourne-vic-3003-17712288
17721569,WEST MELBOURNE,3003,800.0,3476.0,"Thursday, 04 September 2025",2025-08-19,21,2.0,2.0,1.0,Apartment / Unit / Flat,3-903/5 Wominjeka Walk,-37.810184,144.94919,2025-09-09 16:53:27,17721569,,12,0,1,False,Apartment,Apartment / Unit / Flat,AZeta Real Estate,31228,Gloria Ye,"Split System Heating, Split System Air Conditioning",https://www.domain.com.au/3-903-5-wominjeka-walk-west-melbourne-vic-3003-17721569
17722901,WEST MELBOURNE,3003,530.0,2303.0,"Tuesday, 19 August 2025",2025-08-19,20,1.0,1.0,,Apartment / Unit / Flat,311/150 Dudley Street,-37.809692,144.95042,2025-09-09 16:53:27,17722901,,12,0,0,False,Apartment,Apartment / Unit / Flat,Motion Property,8551,Mark Reading,Pets Allowed,https://www.domain.com.au/311-150-dudley-street-west-melbourne-vic-3003-17722901
17725412,WEST MELBOURNE,3003,810.0,3519.0,"Friday, 29 August 2025",2025-08-21,19,2.0,2.0,1.0,Apartment / Unit / Flat,812/23 Batman Street,-37.810738,144.95226,2025-09-09 16:53:27,17725412,,20,1,0,True,Apartment,Apartment / Unit / Flat,Austrump Glen Pty Ltd,31049,"Tina GUAN, Mary Navarro","Internal Laundry, Heating, Balcony / Deck, Floorboards, Built in wardrobes, Dishwasher, Secure Parking, Furnished",https://www.domain.com.au/812-23-batman-street-west-melbourne-vic-3003-17725412
17727746,WEST MELBOURNE,3003,500.0,2173.0,"Friday, 22 August 2025",2025-08-22,18,1.0,1.0,,Apartment / Unit / Flat,208/130 Dudley Street,-37.80955,144.95084,2025-09-09 16:53:27,17727746,,9,0,0,False,Apartment,Apartment / Unit / Flat,Inner Real Estate,15712,Hayley Tran,"Balcony / Deck, Air conditioning, Heating, Built in wardrobes, Close to transport, Close to shops, Intercom, Close to schools, Carpeted",https://www.domain.com.au/208-130-dudley-street-west-melbourne-vic-3003-17727746
17727956,WEST MELBOURNE,3003,530.0,2303.0,"Tuesday, 23 September 2025",2025-08-22,18,1.0,1.0,,Apartment / Unit / Flat,1007/58 Jeffcott Street,-37.81178,144.95174,2025-09-09 16:53:27,17727956,,9,0,0,False,Apartment,Apartment / Unit / Flat,LITTLE Real Estate Victoria,24974,"Pelin Vural, Sarah Charmand","Built in wardrobes, Intercom, Dishwasher, Study, Balcony / Deck, Heating: Reverse Cycle Air Conditioning, Cooling: Reverse Cycle Air Conditioning, Kitchen: Modern, Cooking: Gas Hotplates and Electric Oven, Laundry: yes, Pool/Spa Count: 0",https://www.domain.com.au/1007-58-jeffcott-street-west-melbourne-vic-3003-17727956
17728131,WEST MELBOURNE,3003,620.0,2694.0,"Wednesday, 27 August 2025",2025-08-22,18,2.0,1.0,1.0,Apartment / Unit / Flat,504/41 Dryburgh Street,-37.805984,144.94276,2025-09-09 16:53:27,17728131,,14,0,0,False,Apartment,Apartment / Unit / Flat,JALIN REALTY AUSTRALIA PTY LTD,24185,Winnie Yang,"Secure Parking, Intercom, Fireplace(s), Air conditioning, Alarm System, Built in wardrobes, Dishwasher, Out door entertaining area, Internal Laundry",https://www.domain.com.au/504-41-dryburgh-street-west-melbourne-vic-3003-17728131
14699682,WEST MELBOURNE,3003,530.0,2303.0,"Monday, 28 July 2025",2025-07-02,69,1.0,1.0,,Apartment / Unit / Flat,705/429 Spencer Street,-37.810566,144.94995,2025-09-09 16:53:32,14699682,BN-0305-ZB,6,1,0,False,Apartment,Apartment / Unit / Flat,CAN Estate Agents Pty Ltd,27962,Frank Du,"Air conditioning, Study, Floorboards, Broadband, Built in wardrobes, Dishwasher, Reverse cycle air conditioning",https://www.domain.com.au/705-429-spencer-street-west-melbourne-vic-3003-14699682
15671365,WEST MELBOURNE,3003,650.0,2825.0,"Tuesday, 07 March 2023",2023-02-25,926,1.0,1.0,1.0,Apartment / Unit / Flat,1B1B/133 Rosslyn Street,-37.809013,144.95024,2025-09-09 16:53:32,15671365,,1,0,0,False,Apartment,Apartment / Unit / Flat,BRW Group,34868,Ray White Leasing,Furnished,https://www.domain.com.au/1b1b-133-rosslyn-street-west-melbourne-vic-3003-15671365
16598765,WEST MELBOURNE,3003,,2521.0,,2023-08-07,764,1.0,1.0,,Apartment / Unit / Flat,511/45 Dudley Street,-37.80998,144.95097,2025-09-09 16:53:32,16598765,BY-6882-FE,23,0,0,False,Apartment,Apartment / Unit / Flat,BRW Group,34868,Support Team,"Gym, Balcony / Deck",https://www.domain.com.au/511-45-dudley-street-west-melbourne-vic-3003-16598765
16637090,WEST MELBOURNE,3003,670.0,2912.0,"Monday, 25 November 2024",2023-09-01,739,2.0,2.0,,Apartment / Unit / Flat,2B2B/45 Dudley St,-37.80998,144.95097,2025-09-09 16:53:32,16637090,,24,0,0,False,Apartment,Apartment / Unit / Flat,BRW Group,34868,Support Team,"Gym, Balcony / Deck",https://www.domain.com.au/2b2b-45-dudley-st-west-melbourne-vic-3003-16637090
16651211,WEST MELBOURNE,3003,600.0,2608.0,"Friday, 15 September 2023",2023-09-12,728,1.0,1.0,,Apartment / Unit / Flat,1B1B/45 Dudley Street,-37.80998,144.95097,2025-09-09 16:53:32,16651211,,1,0,0,False,Apartment,Apartment / Unit / Flat,BRW Group,34868,Ray White Leasing,"Gym, Balcony / Deck",https://www.domain.com.au/1b1b-45-dudley-street-west-melbourne-vic-3003-16651211
17345179,WEST MELBOURNE,3003,2000.0,12000.0,"Monday, 09 December 2024",2024-12-09,273,3.0,2.0,1.0,Apartment / Unit / Flat,1003/288 Adderley Street,-37.8072,144.94318,2025-09-09 16:53:32,17345179,CE-0936-CU,22,1,1,False,Apartment,Apartment / Unit / Flat,Melcorp Real Estate,11842,"Allison Osborne, Leasing Team","Internal Laundry, Air conditioning, Heating, Area Views, Close to transport, Close to shops, Intercom, Ensuite, City Views, Car Parking - Basement, Balcony, Dishwasher, Gym",https://www.domain.com.au/1003-288-adderley-street-west-melbourne-vic-3003-17345179
17430354,WEST MELBOURNE,3003,50.0,217.0,"Friday, 07 February 2025",2025-02-07,214,,,1.0,House,Carpark/55 Jeffcott Street,-37.81193,144.95137,2025-09-09 16:53:32,17430354,,1,0,0,False,House,House,Melplex Real Estate,20823,"Mark Arnejo, Leah Zhao",,https://www.domain.com.au/carpark-55-jeffcott-street-west-melbourne-vic-3003-17430354
17511671,WEST MELBOURNE,3003,740.0,,"Wednesday, 02 April 2025",2025-04-02,160,2.0,2.0,,Apartment / Unit / Flat,1016/65 Dudley Street,-37.81007,144.95059,2025-09-09 16:53:32,17511671,XQ-7055-HX,14,0,1,False,Apartment,Apartment / Unit / Flat,Waterdale Property Agent Pty Ltd,30007,Conny Yang,,https://www.domain.com.au/1016-65-dudley-street-west-melbourne-vic-3003-17511671
17513527,WEST MELBOURNE,3003,,4346.0,,2025-04-03,159,1.0,1.0,,Apartment / Unit / Flat,806/23 Batman Street,-37.810738,144.95226,2025-09-09 16:53:32,17513527,KC-4623-KK,12,0,0,False,Apartment,Apartment / Unit / Flat,Ausland Melbourne,37848,"Jimmy Ng, Kemmy Feng, Leasing  Team","Air conditioning, Ensuite, Floorboards, Indoor Spa, Gym, Alarm System, Intercom, Built in wardrobes, Furnished, Internal Laundry, Pets Allowed, Cable or Satellite, Gas, Broadband internet access, Bath, Fireplace(s), Separate Dining Room, Heating, Dishwasher, Study, Secure Parking, Swimming Pool",https://www.domain.com.au/806-23-batman-street-west-melbourne-vic-3003-17513527
17513595,WEST MELBOURNE,3003,,6518.0,,2025-04-03,159,2.0,1.0,1.0,Apartment / Unit / Flat,1104/23 Batman Street,-37.810738,144.95226,2025-09-09 16:53:32,17513595,MP-8155-DV,12,0,0,False,Apartment,Apartment / Unit / Flat,Ausland Melbourne,37848,"Jimmy Ng, Leasing  Team, Kemmy Feng","Air conditioning, Floorboards, Indoor Spa, Gym, Alarm System, Intercom, Built in wardrobes, Furnished, Internal Laundry, Cable or Satellite, Gas, Broadband internet access, Bath, Fireplace(s), Separate Dining Room, Heating, Dishwasher, Study, City Views, Secure Parking, Swimming Pool, Balcony / Deck",https://www.domain.com.au/1104-23-batman-street-west-melbourne-vic-3003-17513595
17513717,WEST MELBOURNE,3003,,6953.0,,2025-04-03,159,2.0,2.0,1.0,Apartment / Unit / Flat,1805/23 Batman Street,-37.810738,144.95226,2025-09-09 16:53:32,17513717,ZC-9630-IQ,17,0,0,False,Apartment,Apartment / Unit / Flat,Ausland Melbourne,37848,"Jimmy Ng, Kemmy Feng, Leasing  Team","Air conditioning, Ensuite, Floorboards, Indoor Spa, Gym, Alarm System, Intercom, Built in wardrobes, Furnished, Internal Laundry, Cable or Satellite, City Views, Gas, Broadband internet access, Bath, Fireplace(s), Separate Dining Room, Heating, Dishwasher, Study, Fully fenced, Balcony / Deck, Swimming Pool",https://www.domain.com.au/1805-23-batman-street-west-melbourne-vic-3003-17513717
17522792,WEST MELBOURNE,3003,740.0,3215.0,"Wednesday, 14 May 2025",2025-04-09,153,2.0,2.0,1.0,Apartment / Unit / Flat,912/105 Batman Street,-37.811512,144.94972,2025-09-09 16:53:32,17522792,TU-9059-LR,20,1,1,False,Apartment,Apartment / Unit / Flat,Ironfish Real Estate Melbourne,21689,Sisi Peng,"Intercom, Dishwasher, Built in wardrobes, Gym, Floorboards, Broadband, Ducted Heating, Ducted Cooling, Swimming Pool, Balcony",https://www.domain.com.au/912-105-batman-street-west-melbourne-vic-3003-17522792
17550674,WEST MELBOURNE,3003,750.0,3259.0,"Monday, 02 June 2025",2025-04-30,132,2.0,2.0,1.0,Apartment / Unit / Flat,1313/105 Batman Street,-37.811512,144.94972,2025-09-09 16:53:32,17550674,EJ-0329-YX,18,1,1,False,Apartment,Apartment / Unit / Flat,Ironfish Real Estate Melbourne,21689,Sisi Peng,"Dishwasher, Built in wardrobes, Gym, Floorboards, Air-Conditioner, Split System Heating, Intercom, Swimming Pool, Balcony, Outdoor Entertainment",https://www.domain.com.au/1313-105-batman-street-west-melbourne-vic-3003-17550674
17570163,WEST MELBOURNE,3003,780.0,3389.0,"Thursday, 12 June 2025",2025-05-13,119,2.0,2.0,1.0,Apartment / Unit / Flat,2608/105 Batman Street,-37.811512,144.94972,2025-09-09 16:53:32,17570163,TX-2620-CM,17,1,1,False,Apartment,Apartment / Unit / Flat,Ironfish Real Estate Melbourne,21689,Sisi Peng,"Internal Laundry, Dishwasher, Built in wardrobes, Gym, Floorboards, Air-Conditioner, Split System Heating, Intercom, Swimming Pool, Balcony, Outdoor Entertainment",https://www.domain.com.au/2608-105-batman-street-west-melbourne-vic-3003-17570163
17576651,WEST MELBOURNE,3003,560.0,2433.0,"Friday, 18 July 2025",2025-05-16,116,1.0,1.0,1.0,Apartment / Unit / Flat,908/393 Spencer Street,-37.811325,144.95024,2025-09-09 16:53:32,17576651,DT-2857-QR,20,1,1,False,Apartment,Apartment / Unit / Flat,Ironfish Real Estate Melbourne,21689,Sisi Peng,"Dishwasher, Built in wardrobes, Gym, Floorboards, Air-Conditioner, Split System Heating, Intercom, Swimming Pool, Balcony, Outdoor Entertainment",https://www.domain.com.au/908-393-spencer-street-west-melbourne-vic-3003-17576651
17580381,WEST MELBOURNE,3003,800.0,3476.0,"Monday, 23 June 2025",2025-05-19,113,2.0,1.0,1.0,Apartment / Unit / Flat,307/105 Batman Street,-37.811512,144.94972,2025-09-09 16:53:32,17580381,ZU-3321-OP,21,1,1,False,Apartment,Apartment / Unit / Flat,Ironfish Real Estate Melbourne,21689,Sisi Peng,"Dishwasher, Built in wardrobes, Gym, Floorboards, Air-Conditioner, Split System Heating, Intercom, Swimming Pool, Balcony, Outdoor Entertainment",https://www.domain.com.au/307-105-batman-street-west-melbourne-vic-3003-17580381
17606926,WEST MELBOURNE,3003,575.0,2499.0,"Monday, 30 June 2025",2025-06-05,96,2.0,1.0,1.0,Apartment / Unit / Flat,408/33 Batman Street,-37.81086,144.95183,2025-09-09 16:53:32,17606926,,6,0,0,False,Apartment,Apartment / Unit / Flat,Samma Real Estate,15424,Ismaeel Hussain,Pets Allowed,https://www.domain.com.au/408-33-batman-street-west-melbourne-vic-3003-17606926
17625834,WEST MELBOURNE,3003,830.0,3607.0,"Monday, 23 June 2025",2025-06-17,83,3.0,2.0,1.0,Apartment / Unit / Flat,7/94 Dudley Street,-37.809082,144.95198,2025-09-09 16:53:32,17625834,,8,0,1,False,Apartment,Apartment / Unit / Flat,Biggin & Scott Boroondara,31826,Kris El-Helou,"Gas, Intercom, Balcony / Deck",https://www.domain.com.au/7-94-dudley-street-west-melbourne-vic-3003-17625834
17652110,WEST MELBOURNE,3003,50.0,217.0,"Thursday, 03 July 2025",2025-07-03,68,,,1.0,Car Space,CP 324 (399)/105 Batman Street,-37.811592,144.94983,2025-09-09 16:53:32,17652110,,2,0,0,False,Any,Car Space,Ironfish Real Estate Melbourne,21689,Sisi Peng,"Car Accom: Carport, Pool/Spa Count: 0",https://www.domain.com.au/cp-324-399-105-batman-street-west-melbourne-vic-3003-17652110
17661318,WEST MELBOURNE,3003,640.0,,"Wednesday, 09 July 2025",2025-07-09,62,1.0,1.0,,Apartment / Unit / Flat,1708/65 Dudley Street,-37.81015,144.95064,2025-09-09 16:53:32,17661318,,12,0,1,False,Apartment,Apartment / Unit / Flat,Waterdale Property Agent Pty Ltd,30007,Conny Yang,,https://www.domain.com.au/1708-65-dudley-street-west-melbourne-vic-3003-17661318
15775515,WEST MELBOURNE,3003,50.0,217.0,"Thursday, 10 March 2022",2022-03-10,1279,,,1.0,House,Carpark/105 Batman street,-37.810966,144.9505,2025-09-09 16:53:38,15775515,,5,0,0,False,House,House,Ironfish Real Estate Melbourne,21689,Sisi Peng,,https://www.domain.com.au/carpark-105-batman-street-west-melbourne-vic-3003-15775515
16500954,WEST MELBOURNE,3003,50.0,217.0,"Monday, 05 June 2023",2023-06-05,827,,,1.0,House,Carpark/105 Batman Street,-37.810966,144.9505,2025-09-09 16:53:38,16500954,,2,0,0,False,House,House,Ironfish Real Estate Melbourne,21689,Sisi Peng,,https://www.domain.com.au/carpark-105-batman-street-west-melbourne-vic-3003-16500954
16586922,WEST MELBOURNE,3003,,3250.0,,2023-07-28,773,2.0,2.0,1.0,Apartment / Unit / Flat,45 Dudley Street,-37.80998,144.95097,2025-09-09 16:53:38,16586922,,1,0,0,False,Apartment,Apartment / Unit / Flat,BRW Group,34868,Support Team,"Gym, Balcony / Deck",https://www.domain.com.au/45-dudley-street-west-melbourne-vic-3003-16586922
16668376,WEST MELBOURNE,3003,1550.0,,"Thursday, 21 September 2023",2023-09-22,717,3.0,2.0,2.0,Apartment / Unit / Flat,18/18 Curzon Street,-37.80435,144.94815,2025-09-09 16:53:38,16668376,,9,0,0,False,Apartment,Apartment / Unit / Flat,buymyplace,17238,buymyplace .,"Internal Laundry, Furnished, Broadband internet access, Built in wardrobes, Courtyard, Deck, Dishwasher, Ensuite, Floorboards, Cable or Satellite, Secure Parking, Garage spaces: 1, Car spaces: 1",https://www.domain.com.au/18-18-curzon-street-west-melbourne-vic-3003-16668376
16726700,WEST MELBOURNE,3003,,2390.0,,2023-11-02,677,1.0,1.0,,Apartment / Unit / Flat,45 Dudley Street,-37.80998,144.95097,2025-09-09 16:53:38,16726700,,1,0,0,False,Apartment,Apartment / Unit / Flat,BRW Group,34868,Support Team,"Gym, Balcony / Deck",https://www.domain.com.au/45-dudley-street-west-melbourne-vic-3003-16726700
