listing_id,suburb,postcode,weekly_rent,bond,available_date,date_listed,days_listed,bedrooms,bathrooms,carspaces,property_type,address,lat,lon,scraped_date,domain_page_id,property_id,photo_count,video_count,floorplans_count,virtual_tour,primary_type,secondary_type,agency,agency_id,agent_names,structured_features,url
16484332,WHEELERS HILL,3150,680,2955.0,"Tuesday, 08 July 2025",2025-06-25,76.0,4,2,2,House,38 Cootamundra Drive,-37.910007,145.17229,2025-09-09 17:04:26,16484332,OU-4298-ZP,20.0,0.0,0.0,False,House,House,Ray White Oakleigh,12122.0,"Matthew Swinnerton, Cecily Qiao",Ensuite,https://www.domain.com.au/38-cootamundra-drive-wheelers-hill-vic-3150-16484332
16963573,WHEELERS HILL,3150,800,3476.0,"Wednesday, 10 September 2025",2025-08-13,27.0,5,3,2,House,122 View Mount Road,-37.903126,145.1742,2025-09-09 17:04:26,16963573,BI-9962-GK,11.0,0.0,0.0,False,House,House,First National Burwood,36821.0,John Zhang,"Gas, Secure Parking, Dishwasher, Study, Ducted Heating, Evaporative Cooling",https://www.domain.com.au/122-view-mount-road-wheelers-hill-vic-3150-16963573
17139048,WHEELERS HILL,3150,680,2955.0,"Saturday, 23 August 2025",2025-08-27,13.0,3,2,2,House,17 Mackellar Avenue,-37.911907,145.16814,2025-09-09 17:04:26,17139048,WL-5117-VJ,11.0,0.0,0.0,False,House,House,Biggin Scott Glen Waverley,24636.0,"Leasing Team, Thanasi Mallios",Balcony / Deck,https://www.domain.com.au/17-mackellar-avenue-wheelers-hill-vic-3150-17139048
17644006,WHEELERS HILL,3150,550,2390.0,"Monday, 08 September 2025",2025-09-02,7.0,3,1,1,House,49 Haversham Avenue,-37.912235,145.20227,2025-09-09 17:04:26,17644006,,10.0,1.0,0.0,False,House,House,Roger Davis Real Estate,6422.0,Vicki Zhang,"Gas, Built in wardrobes, Outdoor Entertainment Area, Dishwasher, Ducted Heating, Remote Garage",https://www.domain.com.au/49-haversham-avenue-wheelers-hill-vic-3150-17644006
17703694,WHEELERS HILL,3150,646,,,,,3,2,3,House,8 Dirigo Dr,-37.91545,145.17609,2025-09-09 17:04:26,search results - rent,,,,,,,,,,,,https://www.domain.com.au/8-dirigo-dr-wheelers-hill-vic-3150-17703694
17712347,WHEELERS HILL,3150,750,3259.0,"Friday, 22 August 2025",2025-08-12,28.0,4,2,2,House,49 Darnley Grove,-37.905914,145.17642,2025-09-09 17:04:26,17712347,,8.0,0.0,0.0,False,House,House,Biggin Scott Glen Waverley,24636.0,"Leasing Team, Eric  Sandjaja","Air conditioning, Secure Parking, Heating, Dishwasher",https://www.domain.com.au/49-darnley-grove-wheelers-hill-vic-3150-17712347
17712753,WHEELERS HILL,3150,720,3129.0,"Thursday, 21 August 2025",2025-08-13,27.0,4,2,2,House,12 Meadowbrook Drive,-37.907654,145.17401,2025-09-09 17:04:26,17712753,,7.0,0.0,0.0,True,House,House,Jellis Craig Glen Waverley,5378.0,"Jocelyn  Leong, Andre Barker","Gas, Built in wardrobes, Dishwasher, Ducted Heating, Air conditioning",https://www.domain.com.au/12-meadowbrook-drive-wheelers-hill-vic-3150-17712753
17718418,WHEELERS HILL,3150,880,3824.0,"Wednesday, 10 September 2025",2025-08-15,24.0,5,3,2,House,88 Marykirk Drive,-37.912254,145.19235,2025-09-09 17:04:26,17718418,,16.0,0.0,0.0,False,House,House,Roger Davis Real Estate,6422.0,Vicki Zhang,"Gas, Split System Air Con, Built in wardrobes, Dishwasher, Ducted Heating, Floorboards, Shed, Ensuite",https://www.domain.com.au/88-marykirk-drive-wheelers-hill-vic-3150-17718418
17720325,WHEELERS HILL,3150,580,2520.0,"Monday, 29 September 2025",2025-08-18,22.0,2,1,1,House,2/52 Whalley Drive,-37.91877,145.18996,2025-09-09 17:04:26,17720325,,5.0,0.0,0.0,False,House,House,Ray White (Judd White Group),17402.0,Jennie Tran,"Built in wardrobes, Secure Parking, Heating, Dishwasher",https://www.domain.com.au/2-52-whalley-drive-wheelers-hill-vic-3150-17720325
17722845,WHEELERS HILL,3150,780,3389.0,"Tuesday, 19 August 2025",2025-08-19,20.0,4,2,1,House,193 Lum Road,-37.9081,145.17891,2025-09-09 17:04:26,17722845,,14.0,0.0,0.0,False,House,House,Roger Davis Real Estate,6422.0,Vicki Zhang,"Secure Parking, Balcony / Deck, Built in wardrobes, Outdoor Entertainment Area, Dishwasher, Ducted Heating, Evaporative Cooling",https://www.domain.com.au/193-lum-road-wheelers-hill-vic-3150-17722845
17725758,WHEELERS HILL,3150,730,3172.0,"Friday, 19 September 2025",2025-08-21,19.0,3,2,2,Townhouse,5/607-609 Wellington Road,-37.921707,145.18979,2025-09-09 17:04:26,17725758,,5.0,0.0,0.0,True,Townhouse/Villa,Townhouse,Jellis Craig Glen Waverley,5378.0,"Jayden  Hong, Dragana Popovic","Remote Garage, Balcony / Deck, Garden / Courtyard, Split System Air Con, Built in wardrobes, Ducted Heating",https://www.domain.com.au/5-607-609-wellington-road-wheelers-hill-vic-3150-17725758
17735366,WHEELERS HILL,3150,1000,4346.0,"Friday, 12 September 2025",2025-08-27,13.0,5,2,2,House,3 Yardley Drive,-37.92035,145.18321,2025-09-09 17:04:26,17735366,,13.0,0.0,1.0,False,House,House,Ray White (Judd White Group),17402.0,David Yang,"Ensuite, Floorboards, Alarm System, Built in wardrobes, Heating, Dishwasher, Study, Secure Parking, Shed, Fully fenced, Balcony / Deck, Garden / Courtyard, Carpeted, Close to schools, Close to shops, Close to transport, Disabled Access",https://www.domain.com.au/3-yardley-drive-wheelers-hill-vic-3150-17735366
17744105,WHEELERS HILL,3150,720,3129.0,"Tuesday, 02 September 2025",2025-09-02,6.0,4,2,2,House,10 Leatherwood Crescent,-37.907307,145.17505,2025-09-09 17:04:26,17744105,,8.0,0.0,0.0,False,House,House,Jellis Craig Glen Waverley,5378.0,"Stephanie Petrakis, Andre Barker","Gas, Heating, Dishwasher, Remote Garage, Built in wardrobes, Air conditioning",https://www.domain.com.au/10-leatherwood-crescent-wheelers-hill-vic-3150-17744105
17744260,WHEELERS HILL,3150,845,3672.0,"Tuesday, 02 September 2025",2025-09-02,6.0,4,3,2,Townhouse,224A Brandon Park Drive,-37.916584,145.17816,2025-09-09 17:04:26,17744260,,11.0,0.0,0.0,False,Townhouse/Villa,Townhouse,Jellis Craig Mount Waverley ,17805.0,"Tiffany Pan, Jayden Hong","Split System Air Con, Split System Heating, Built in wardrobes, Dishwasher, Intercom, Outdoor Entertainment Area, Remote Garage, Secure Parking",https://www.domain.com.au/224a-brandon-park-drive-wheelers-hill-vic-3150-17744260
17744337,WHEELERS HILL,3150,950,5700.0,"Tuesday, 02 September 2025",2025-09-03,6.0,4,2,2,House,5 Sunnybrook Drive,-37.894806,145.18733,2025-09-09 17:04:26,17744337,,15.0,0.0,1.0,False,House,House,Jellis Craig Mount Waverley ,17805.0,"Tiffany Pan, Jayden Hong, Lisa Yang","Split System Air Con, Split System Heating, Dishwasher, Ducted Cooling, Ducted Heating, Remote Garage",https://www.domain.com.au/5-sunnybrook-drive-wheelers-hill-vic-3150-17744337
17748007,WHEELERS HILL,3150,650,2824.0,"Tuesday, 07 October 2025",2025-09-04,5.0,4,2,2,House,35 Academy Avenue,-37.907684,145.16786,2025-09-09 17:04:26,17748007,,10.0,0.0,0.0,False,House,House,Ray White (Judd White Group),17402.0,"Karen Zhang, Lida Khem","Air conditioning, Built in wardrobes, Internal Laundry, Secure Parking, Broadband internet access, Bath, Heating",https://www.domain.com.au/35-academy-avenue-wheelers-hill-vic-3150-17748007
17748187,WHEELERS HILL,3150,1300,5649.0,"Friday, 19 September 2025",2025-09-04,4.0,4,4,2,House,8 Erskine Crescent,-37.910248,145.1926,2025-09-09 17:04:26,17748187,,12.0,0.0,0.0,False,House,House,Ray White (Judd White Group),17402.0,David Yang,"Gas, Internal Laundry, Bath, Heating",https://www.domain.com.au/8-erskine-crescent-wheelers-hill-vic-3150-17748187
17748763,WHEELERS HILL,3150,790,3433.0,"Monday, 15 September 2025",2025-09-05,4.0,4,2,2,House,936 Ferntree Gully Road,-37.908295,145.19814,2025-09-09 17:04:26,17748763,,11.0,0.0,0.0,True,House,House,Barry Plant (Waverley),18349.0,Prachi Desai प्राची देसाई,"Gas, Heating, Dishwasher, Built in wardrobes",https://www.domain.com.au/936-ferntree-gully-road-wheelers-hill-vic-3150-17748763
17752912,WHEELERS HILL,3150,670,2911.0,"Friday, 03 October 2025",2025-09-09,0.0,3,1,2,House,598 Springvale Road,-37.90812,145.1612,2025-09-09 17:04:26,17752912,,9.0,0.0,0.0,False,House,House,Biggin Scott Glen Waverley,24636.0,"Leasing Team, Eric  Sandjaja","Air conditioning, Built in wardrobes, Secure Parking, Heating",https://www.domain.com.au/598-springvale-road-wheelers-hill-vic-3150-17752912
17753590,WHEELERS HILL,3150,680,2955.0,"Tuesday, 09 September 2025",2025-09-09,0.0,4,2,2,House,38 Cootamundra Drive,-37.910007,145.17229,2025-09-09 17:04:26,17753590,,11.0,0.0,0.0,False,House,House,Areal Property - Hawthorn,12104.0,Renata Xiang,,https://www.domain.com.au/38-cootamundra-drive-wheelers-hill-vic-3150-17753590
17454899,WHEELERS HILL,3150,650,2600.0,"Friday, 21 March 2025",2025-07-02,69.0,3,1,1,House,21 GRADUATE CRESCENT,-37.9095,145.16623,2025-09-09 17:04:32,17454899,GC-2679-MA,6.0,0.0,0.0,False,House,House,Property Now,10282.0,Property Now,"Air conditioning, Furnished",https://www.domain.com.au/21-graduate-crescent-wheelers-hill-vic-3150-17454899
17576468,WHEELERS HILL,3150,1000,4000.0,"Sunday, 28 April 2024",2025-05-16,116.0,4,2,5,House,1 GRADUATE CRESCENT,-37.90924,145.16422,2025-09-09 17:04:32,17576468,JH-3780-DZ,6.0,0.0,0.0,False,House,House,Property Now,10282.0,Property Now,"Study, Ducted Heating, Dishwasher, Built in wardrobes, Furnished",https://www.domain.com.au/1-graduate-crescent-wheelers-hill-vic-3150-17576468
17669413,WHEELERS HILL,3150,840,3650.0,"Monday, 01 September 2025",2025-07-15,56.0,5,3,2,House,55 Grandview Road,-37.913795,145.19562,2025-09-09 17:04:32,17669413,,10.0,0.0,0.0,False,House,House,Ironfish Real Estate Melbourne,21689.0,Jennifer Lu,"Air conditioning, Intercom, Study, Car Accom: Carport, Pool/Spa Count: 0",https://www.domain.com.au/55-grandview-road-wheelers-hill-vic-3150-17669413
17686706,WHEELERS HILL,3150,900,3911.0,"Monday, 15 September 2025",2025-07-25,46.0,6,3,2,House,7 Karjen Place,-37.8991,145.17891,2025-09-09 17:04:32,17686706,,8.0,0.0,0.0,False,House,House,Fletchers Canterbury,3923.0,"Amy Ma, Fletchers Property Management",,https://www.domain.com.au/7-karjen-place-wheelers-hill-vic-3150-17686706
