listing_id,suburb,postcode,weekly_rent,bond,available_date,date_listed,days_listed,bedrooms,bathrooms,carspaces,property_type,address,lat,lon,scraped_date,domain_page_id,property_id,photo_count,video_count,floorplans_count,virtual_tour,primary_type,secondary_type,agency,agency_id,agent_names,structured_features,url
17170393,WODONGA,3690,490,2130.0,"Thursday, 25 September 2025",2025-09-08,1,3,1,2.0,House,24 Wornes Drive,-36.11795,146.87004,2025-09-09 16:29:05,17170393,GF-5996-LD,8,0,0,False,House,House,Elders Real Estate Albury Wodonga & Howlong,23123,"Sue Ritchie, Kristene Gardner","Air conditioning, Heating, Built in wardrobes, Close to transport, Close to shops, Car Parking - Surface, Carpeted, Dishwasher, Fully fenced",https://www.domain.com.au/24-wornes-drive-wodonga-vic-3690-17170393
17267385,WODONGA,3690,150,650.0,"Friday, 15 November 2024",2024-10-24,320,1,1,3.0,House,20/11-13 Day Street,-36.112427,146.89455,2025-09-09 16:29:05,17267385,,8,0,0,False,House,House,Ray White Albury Central,35291,"Manmohan Singh, Jaccob Grasso-Driscoll",,https://www.domain.com.au/20-11-13-day-street-wodonga-vic-3690-17267385
17716994,WODONGA,3690,540,2160.0,"Friday, 15 August 2025",2025-08-15,25,4,2,1.0,House,4 Amaroo Crescent,-36.14089,146.88383,2025-09-09 16:29:05,17716994,,17,0,0,False,House,House,Leasing Albury Wodonga,23394,"Property Management Team, Melanie Watson","Secure Parking, Floorboards, Built in wardrobes, Dishwasher, Bathtub, Ducted Heating, Ducted Air Conditioning, Ensuite(s), Outdoor Entertainment Area, Fully fenced",https://www.domain.com.au/4-amaroo-crescent-wodonga-vic-3690-17716994
17744777,WODONGA,3690,630,2737.0,"Friday, 10 October 2025",2025-09-03,6,4,2,2.0,House,8 Wintersun Parade,-36.12447,146.88852,2025-09-09 16:29:05,17744777,,9,0,1,False,House,House,PJ Murphy Real Estate,17470,Renee Saunders,Ensuite,https://www.domain.com.au/8-wintersun-parade-wodonga-vic-3690-17744777
17744965,WODONGA,3690,450,1868.0,"Thursday, 25 September 2025",2025-09-03,6,2,1,2.0,Apartment / Unit / Flat,1/39 Kingfisher Drive,-36.131287,146.85304,2025-09-09 16:29:05,17744965,,12,0,0,False,Apartment,Apartment / Unit / Flat,PJ Murphy Real Estate,17470,Renee Saunders,"Built in wardrobes, Garden / Courtyard, Heating",https://www.domain.com.au/1-39-kingfisher-drive-wodonga-vic-3690-17744965
17747952,WODONGA,3690,420,1825.0,"Friday, 26 September 2025",2025-09-04,5,3,1,2.0,Apartment / Unit / Flat,2/21 McMahon Place,-36.138756,146.86147,2025-09-09 16:29:05,17747952,,12,0,0,False,Apartment,Apartment / Unit / Flat,Wodonga Real Estate Best Agents,6983,Jacquie Sterk,,https://www.domain.com.au/2-21-mcmahon-place-wodonga-vic-3690-17747952
17748559,WODONGA,3690,670,2912.0,"Friday, 05 September 2025",2025-09-05,4,3,2,2.0,House,19 Axford Boulevard,-36.139076,146.89912,2025-09-09 16:29:05,17748559,,8,0,0,False,House,House,Elders Real Estate Albury Wodonga & Howlong,23123,"Sue Ritchie, Kristene Gardner","Built in wardrobes, Close to transport, Close to shops, Close to schools",https://www.domain.com.au/19-axford-boulevard-wodonga-vic-3690-17748559
17748718,WODONGA,3690,570,2477.0,"Friday, 19 September 2025",2025-09-05,4,3,2,2.0,House,11 Hallawell Crescent,-36.140526,146.87029,2025-09-09 16:29:05,17748718,,9,0,0,False,House,House,Elders Real Estate Albury Wodonga & Howlong,23123,"Sue Ritchie, Kristene Gardner","Air conditioning, Built in wardrobes, Carpeted",https://www.domain.com.au/11-hallawell-crescent-wodonga-vic-3690-17748718
17749804,WODONGA,3690,400,1738.0,"Friday, 03 October 2025",2025-09-05,4,2,1,1.0,Apartment / Unit / Flat,2/13 Kyle Court,-36.119656,146.85715,2025-09-09 16:29:05,17749804,,12,0,0,False,Apartment,Apartment / Unit / Flat,Wodonga Real Estate Best Agents,6983,Meagan Fisher-Smith,,https://www.domain.com.au/2-13-kyle-court-wodonga-vic-3690-17749804
17749988,WODONGA,3690,640,,"Wednesday, 10 September 2025",2025-09-05,3,4,2,2.0,House,8 Bremer Avenue,-36.1591,146.88388,2025-09-09 16:29:05,17749988,,10,0,0,False,House,House,Elite Property Management Agency,13814,"Lara Walsh, Property Management Team",Heating,https://www.domain.com.au/8-bremer-avenue-wodonga-vic-3690-17749988
17750066,WODONGA,3690,450,1956.0,"Friday, 19 September 2025",2025-09-05,3,2,1,1.0,House,17 Fitzroy Street,-36.113792,146.8389,2025-09-09 16:29:05,17750066,,12,0,0,False,House,House,Elders Real Estate Albury Wodonga & Howlong,23123,"Rhys Tainton, Kristene Gardner","Close to transport, Close to shops, Close to schools, Carpeted, Dishwasher",https://www.domain.com.au/17-fitzroy-street-wodonga-vic-3690-17750066
17750959,WODONGA,3690,550,2390.0,"Monday, 08 September 2025",2025-09-08,1,3,1,3.0,House,8 Noel Street,-36.12458,146.89915,2025-09-09 16:29:05,17750959,,7,0,0,False,House,House,Elders Real Estate Albury Wodonga & Howlong,23123,"Sue Ritchie, Kristene Gardner","Air conditioning, Close to transport, Close to shops, Close to schools, Dishwasher",https://www.domain.com.au/8-noel-street-wodonga-vic-3690-17750959
17751872,WODONGA,3690,540,2346.0,"Monday, 29 September 2025",2025-09-08,1,4,2,2.0,House,2 Victoria Cross Parade,-36.142002,146.8852,2025-09-09 16:29:05,17751872,,20,0,0,False,House,House,Elders Real Estate Albury Wodonga & Howlong,23123,"Karen Cole, Bree Fisher","Air conditioning, Built in wardrobes, Close to transport, Close to shops, Close to schools",https://www.domain.com.au/2-victoria-cross-parade-wodonga-vic-3690-17751872
17752486,WODONGA,3690,510,2216.0,"Thursday, 25 September 2025",2025-09-08,0,3,2,2.0,Townhouse,2/15 Noel Street,-36.124195,146.8989,2025-09-09 16:29:05,17752486,,14,0,0,False,Townhouse/Villa,Townhouse,Wodonga Real Estate Best Agents,6983,Meagan Fisher-Smith,"Air conditioning, Heating, Built in wardrobes, Ensuite",https://www.domain.com.au/2-15-noel-street-wodonga-vic-3690-17752486
17752619,WODONGA,3690,270,1173.0,"Thursday, 25 September 2025",2025-09-09,0,2,1,1.0,Apartment / Unit / Flat,2/31 Cummings Street,-36.129623,146.88515,2025-09-09 16:29:05,17752619,,7,0,0,False,Apartment,Apartment / Unit / Flat,Wodonga Real Estate Best Agents,6983,Gayle Hodgkin,,https://www.domain.com.au/2-31-cummings-street-wodonga-vic-3690-17752619
17752656,WODONGA,3690,310,620.0,"Friday, 26 September 2025",2025-09-09,0,1,1,,Studio,Room 2/5 Kelly Street,-36.117416,146.87456,2025-09-09 16:29:05,17752656,,6,0,0,True,Apartment,Studio,Elite Property Management Agency,13814,"Sophia Mulkearns, Property Management Team","Air conditioning, Heating, Built in wardrobes, Close to transport, Close to shops, Close to schools, Ensuite, Car Parking - Surface, Kitchenette, Openable Windows",https://www.domain.com.au/room-2-5-kelly-street-wodonga-vic-3690-17752656
17753114,WODONGA,3690,440,1760.0,"Tuesday, 09 September 2025",2025-09-09,0,2,1,1.0,Apartment / Unit / Flat,1/3 FORDE COURT,-36.136414,146.86124,2025-09-09 16:29:05,17753114,,11,0,1,False,Apartment,Apartment / Unit / Flat,Sell Buy Rent,19058,Jess Dempsey,"Fully fenced, Remote Garage, Secure Parking, Built in wardrobes, Evaporative Cooling, Gas Heating",https://www.domain.com.au/1-3-forde-court-wodonga-vic-3690-17753114
17753321,WODONGA,3690,530,2120.0,"Tuesday, 09 September 2025",2025-09-09,0,3,1,2.0,House,73 NIGHTINGALE AVENUE,-36.129833,146.85318,2025-09-09 16:29:05,17753321,,12,0,1,False,House,House,Sell Buy Rent,19058,"Jess Dempsey, Maddy Small","Fully fenced, Outdoor Entertainment Area, Remote Garage, Secure Parking, Built in wardrobes, Dishwasher, Evaporative Cooling, Gas Heating",https://www.domain.com.au/73-nightingale-avenue-wodonga-vic-3690-17753321
17753873,WODONGA,3690,490,2129.0,"Friday, 24 October 2025",2025-09-09,0,3,1,4.0,House,46 Stanley Street,-36.12095,146.87898,2025-09-09 16:29:05,17753873,,10,0,0,False,House,House,Elite Property Management Agency,13814,"Property Management Team, Romni Reid","Built in wardrobes, Gas, Dishwasher, Shed",https://www.domain.com.au/46-stanley-street-wodonga-vic-3690-17753873
17754132,WODONGA,3690,510,2216.0,"Friday, 26 September 2025",2025-09-09,0,3,1,2.0,House,4 Elsa Court,-36.128723,146.90652,2025-09-09 16:29:05,17754132,,18,0,1,False,House,House,Professionals Wodonga Pty Ltd,11839,Rental Team,"Ducted Cooling, Kitchen, Built in wardrobes, Dishwasher, Pets Allowed, Outdoor Entertaining Area, Shed, Fully fenced, Workshop, Laundry",https://www.domain.com.au/4-elsa-court-wodonga-vic-3690-17754132
16108381,WODONGA,3690,510,2216.0,"Monday, 13 October 2025",2025-08-29,11,3,2,2.0,House,2 Charles Street,-36.12601,146.88277,2025-09-09 16:29:11,16108381,VC-1089-UW,15,0,0,False,House,House,Ray White Wodonga,28341,Georgia Miller,"Floorboards, Secure Parking",https://www.domain.com.au/2-charles-street-wodonga-vic-3690-16108381
16712802,WODONGA,3690,820,3564.0,"Wednesday, 01 October 2025",2025-09-04,5,4,3,2.0,House,31 Keysor Way,-36.14678,146.89694,2025-09-09 16:29:11,16712802,DE-2191-ZX,13,0,0,False,House,House,Elders Real Estate Albury Wodonga & Howlong,23123,"Sue Ritchie, Kristene Gardner","Air conditioning, Close to transport, Close to shops, Close to schools, Broadband Internet Available, Dishwasher",https://www.domain.com.au/31-keysor-way-wodonga-vic-3690-16712802
17417522,WODONGA,3690,350,1521.0,"Friday, 19 September 2025",2025-09-04,5,2,1,1.0,Apartment / Unit / Flat,2/7 Lowanna Street,-36.13872,146.88255,2025-09-09 16:29:11,17417522,XP-9502-SH,7,0,0,False,Apartment,Apartment / Unit / Flat,Elders Real Estate Albury Wodonga & Howlong,23123,"Rhys Tainton, Kristene Gardner","Air conditioning, Heating, Built in wardrobes, Close to transport, Close to shops, Close to schools, Car Parking - Surface, Carpeted",https://www.domain.com.au/2-7-lowanna-street-wodonga-vic-3690-17417522
17445769,WODONGA,3690,610,2440.0,"Thursday, 04 September 2025",2025-09-02,7,4,2,1.0,House,4 Lynch Court,-36.129555,146.85738,2025-09-09 16:29:11,17445769,DS-9689-WL,6,0,0,False,House,House,Ray White Albury Central,35291,Jaccob Grasso-Driscoll,Shed,https://www.domain.com.au/4-lynch-court-wodonga-vic-3690-17445769
17478398,WODONGA,3690,600,2607.0,"Friday, 19 September 2025",2025-09-02,7,5,2,2.0,House,75 Charles Street,-36.13346,146.88072,2025-09-09 16:29:11,17478398,IL-4554-XW,1,0,0,False,House,House,Ray White Wodonga,28341,Sandra Maher,"Broadband internet access, Dishwasher",https://www.domain.com.au/75-charles-street-wodonga-vic-3690-17478398
17732761,WODONGA,3690,600,2607.0,"Monday, 01 September 2025",2025-08-26,14,4,2,2.0,House,5 Tredegar Street,-36.162804,146.88045,2025-09-09 16:29:11,17732761,,13,0,0,False,House,House,OBRIEN REAL ESTATE WODONGA,35781,"Fiona Keat, Natalee Willson","Secure Parking, Bath, Heating, Dishwasher, Fully fenced",https://www.domain.com.au/5-tredegar-street-wodonga-vic-3690-17732761
17736563,WODONGA,3690,630,2737.0,"Friday, 19 September 2025",2025-08-28,12,4,2,1.0,House,6 Richardson Street,-36.134544,146.89041,2025-09-09 16:29:11,17736563,,27,0,1,False,House,House,First National Real Estate Bonnici & Associates,22622,"Steph Havik, Tayla Bownds",,https://www.domain.com.au/6-richardson-street-wodonga-vic-3690-17736563
17737711,WODONGA,3690,630,2737.0,"Monday, 15 September 2025",2025-08-29,11,4,2,2.0,House,35 Kenna Street,-36.141273,146.89685,2025-09-09 16:29:11,17737711,,6,0,0,False,House,House,First National Real Estate Bonnici & Associates,22622,"Taylah Butler, Tayla Bownds",,https://www.domain.com.au/35-kenna-street-wodonga-vic-3690-17737711
17737927,WODONGA,3690,570,2477.0,"Friday, 12 September 2025",2025-08-29,11,3,2,2.0,House,2 Sapphire Circuit,-36.122505,146.86313,2025-09-09 16:29:11,17737927,,9,0,0,False,House,House,Elders Real Estate Albury Wodonga & Howlong,23123,"Sue Ritchie, Kristene Gardner","Air conditioning, Close to transport, Close to shops, Close to schools, Ensuite, Carpeted, Dishwasher",https://www.domain.com.au/2-sapphire-circuit-wodonga-vic-3690-17737927
17738947,WODONGA,3690,630,2730.0,"Monday, 29 September 2025",2025-08-29,11,4,2,2.0,House,33 Axford Boulevard,-36.14,146.89995,2025-09-09 16:29:11,17738947,,15,0,1,False,House,House,Professionals Wodonga Pty Ltd,11839,Daisy James,"Ceiling Fans, Gas Heating, Ducted Cooling, Ducted Heating, Evaporative Cooling, Kitchen, Built in wardrobes, Dishwasher, Outdoor Entertaining Area, Shed, Fully fenced, Solar panels, Laundry",https://www.domain.com.au/33-axford-boulevard-wodonga-vic-3690-17738947
17739318,WODONGA,3690,530,2302.0,"Thursday, 04 September 2025",2025-08-29,10,3,1,2.0,House,15 Woodland Street,-36.126293,146.8847,2025-09-09 16:29:11,17739318,,6,0,0,False,House,House,Professionals Wodonga Pty Ltd,11839,Christabelle McLaren,"Ducted Cooling, Ducted Heating, Kitchen, Built in wardrobes, Dishwasher, Outdoor Entertaining Area, Fully fenced, Decking, Laundry",https://www.domain.com.au/15-woodland-street-wodonga-vic-3690-17739318
17739840,WODONGA,3690,540,2346.0,"Wednesday, 10 September 2025",2025-09-01,8,3,1,1.0,House,121 Marshall Street,-36.13189,146.85464,2025-09-09 16:29:11,17739840,,9,0,0,False,House,House,Ray White Wodonga,28341,Kayla Brown,"Built in wardrobes, Gas, Internal Laundry, Broadband internet access, Bath, Heating, Dishwasher",https://www.domain.com.au/121-marshall-street-wodonga-vic-3690-17739840
17740592,WODONGA,3690,460,1998.0,"Monday, 06 October 2025",2025-09-01,8,3,1,1.0,House,9 ROSELAND ROAD,-36.125618,146.86859,2025-09-09 16:29:11,17740592,,12,0,0,False,House,House,Sell Buy Rent,19058,Krystal Hyland,"Fully fenced, Outdoor Entertainment Area, Built in wardrobes, Air conditioning, Gas Heating",https://www.domain.com.au/9-roseland-road-wodonga-vic-3690-17740592
17744385,WODONGA,3690,590,2563.0,"Friday, 19 September 2025",2025-09-03,6,4,2,2.0,House,8 Omeara Street,-36.142014,146.88882,2025-09-09 16:29:11,17744385,,14,0,0,False,House,House,First National Real Estate Bonnici & Associates,22622,"Steph Havik, Blair DeFazio",,https://www.domain.com.au/8-omeara-street-wodonga-vic-3690-17744385
17747760,WODONGA,3690,370,1480.0,"Wednesday, 24 September 2025",2025-09-04,5,1,1,1.0,Apartment / Unit / Flat,Room 2/17 Harkin Avenue,-36.158237,146.87988,2025-09-09 16:29:11,17747760,,11,0,0,False,Apartment,Apartment / Unit / Flat,Elite Property Management Agency,13814,"Sophia Mulkearns, Property Management Team","Internal Laundry, Secure Parking, Broadband internet access, Air conditioning, Heating, Built in wardrobes, Close to transport, Close to shops, Close to schools, Ensuite, Furnished",https://www.domain.com.au/room-2-17-harkin-avenue-wodonga-vic-3690-17747760
17747872,WODONGA,3690,720,3129.0,"Thursday, 04 September 2025",2025-09-04,5,4,2,2.0,House,11 Axford Boulevard,-36.138535,146.89912,2025-09-09 16:29:11,17747872,,9,0,0,False,House,House,Elders Real Estate Albury Wodonga & Howlong,23123,"Sue Ritchie, Kristene Gardner","Built in wardrobes, Close to transport, Close to shops, Close to schools, Carpeted, Window Treatments, Dishwasher, Floorboards",https://www.domain.com.au/11-axford-boulevard-wodonga-vic-3690-17747872
17747925,WODONGA,3690,475,2063.0,"Friday, 03 October 2025",2025-09-04,5,2,1,,House,43 Gordon Street,-36.132904,146.8832,2025-09-09 16:29:11,17747925,,14,0,0,False,House,House,Elite Property Management Agency,13814,"Lara Walsh, Property Management Team","Built in wardrobes, Gas, Secure Parking, Dishwasher, Shed",https://www.domain.com.au/43-gordon-street-wodonga-vic-3690-17747925
17747964,WODONGA,3690,720,3129.0,"Thursday, 04 September 2025",2025-09-04,4,4,2,2.0,House,13 Axford Boulevard,-36.13867,146.89912,2025-09-09 16:29:11,17747964,,9,0,0,False,House,House,Elders Real Estate Albury Wodonga & Howlong,23123,"Sue Ritchie, Kristene Gardner","Built in wardrobes, Close to transport, Close to shops, Close to schools, Ensuite, Window Treatments, Dishwasher",https://www.domain.com.au/13-axford-boulevard-wodonga-vic-3690-17747964
17748035,WODONGA,3690,770,3346.0,"Thursday, 04 September 2025",2025-09-04,4,4,2,2.0,House,15 Axford Boulevard,-36.138805,146.89912,2025-09-09 16:29:11,17748035,,9,0,0,False,House,House,Elders Real Estate Albury Wodonga & Howlong,23123,"Sue Ritchie, Kristene Gardner","Built in wardrobes, Close to transport, Close to shops, Close to schools, Carpeted, Window Treatments, Dishwasher",https://www.domain.com.au/15-axford-boulevard-wodonga-vic-3690-17748035
17748445,WODONGA,3690,770,3346.0,"Thursday, 04 September 2025",2025-09-05,4,4,2,2.0,House,17 Axford Boulevard,-36.138943,146.89912,2025-09-09 16:29:11,17748445,,9,0,0,False,House,House,Elders Real Estate Albury Wodonga & Howlong,23123,"Sue Ritchie, Kristene Gardner","Close to transport, Close to shops, Close to schools, Ensuite, Carpeted, Window Treatments, Dishwasher",https://www.domain.com.au/17-axford-boulevard-wodonga-vic-3690-17748445
15537989,WODONGA,3690,410,1781.0,"Friday, 10 October 2025",2025-08-27,13,2,1,1.0,House,6/23 Wilson Street,-36.131733,146.88454,2025-09-09 16:29:16,15537989,YB-9243-PA,8,0,0,False,House,House,Ray White Wodonga,28341,Georgia Miller,"Dishwasher, Garden / Courtyard, Ground floor",https://www.domain.com.au/6-23-wilson-street-wodonga-vic-3690-15537989
17095822,WODONGA,3690,550,2390.0,"Friday, 12 September 2025",2025-08-25,15,4,2,2.0,House,6 Amaroo Crescent,-36.14169,146.88326,2025-09-09 16:29:16,17095822,CK-5024-NS,9,0,0,False,House,House,Elders Real Estate Albury Wodonga & Howlong,23123,"Rhys Tainton, Kristene Gardner","Air conditioning, Heating, Built in wardrobes, Close to transport, Close to shops, Ensuite, Carpeted, Dishwasher, Floorboards, Fully fenced",https://www.domain.com.au/6-amaroo-crescent-wodonga-vic-3690-17095822
17396819,WODONGA,3690,230,460.0,"Thursday, 03 April 2025",2025-01-17,235,7,2,2.0,House,rooms 1-7/4 Lanark Court,-36.11723,146.8657,2025-09-09 16:29:16,17396819,,23,0,0,False,House,House,Hartshorn Property,27509,Tayla Hider,"Swimming Pool, Bath, Heating, Air conditioning, Built in wardrobes, Furnished",https://www.domain.com.au/rooms-1-7-4-lanark-court-wodonga-vic-3690-17396819
17486286,WODONGA,3690,500,2173.0,"Friday, 12 September 2025",2025-08-19,21,3,1,1.0,House,59 William Street,-36.130047,146.88261,2025-09-09 16:29:16,17486286,AD-5755-PQ,13,0,0,False,House,House,Elders Real Estate Albury Wodonga & Howlong,23123,"Keeley Britton, Kristene Gardner","Heating, Built in wardrobes, Close to transport, Close to shops, Close to schools, Carpeted, Fully fenced",https://www.domain.com.au/59-william-street-wodonga-vic-3690-17486286
17582678,WODONGA,3690,275,1191.0,"Tuesday, 20 May 2025",2025-05-20,112,1,1,1.0,House,4/11-13 Day Street,-36.112415,146.89455,2025-09-09 16:29:16,17582678,TF-3471-JI,4,0,0,False,House,House,Ray White Albury Central,35291,Manmohan Singh,Heating,https://www.domain.com.au/4-11-13-day-street-wodonga-vic-3690-17582678
17694043,WODONGA,3690,400,1738.0,"Friday, 22 August 2025",2025-07-31,40,1,1,1.0,Apartment / Unit / Flat,4/11 Griffith Street,-36.13367,146.8844,2025-09-09 16:29:16,17694043,,4,0,1,True,Apartment,Apartment / Unit / Flat,PJ Murphy Real Estate,17470,Kerri-Ann Hudson,,https://www.domain.com.au/4-11-griffith-street-wodonga-vic-3690-17694043
17700431,WODONGA,3690,500,2172.0,"Friday, 15 August 2025",2025-08-05,35,3,1,2.0,House,14 Sinnett Court,-36.129944,146.85875,2025-09-09 16:29:16,17700431,,9,0,1,False,House,House,PJ Murphy Real Estate,17470,Eden Lewis-Borrett,,https://www.domain.com.au/14-sinnett-court-wodonga-vic-3690-17700431
17704364,WODONGA,3690,520,2259.0,"Monday, 11 August 2025",2025-08-07,33,3,2,2.0,Apartment / Unit / Flat,2/31 Church Street,-36.116592,146.88861,2025-09-09 16:29:16,17704364,,14,0,0,False,Apartment,Apartment / Unit / Flat,Wodonga Real Estate Best Agents,6983,Meagan Fisher-Smith,"Air conditioning, Heating, Built in wardrobes, Close to transport, Close to shops, Close to schools, Entertainment Area, Solar",https://www.domain.com.au/2-31-church-street-wodonga-vic-3690-17704364
17713658,WODONGA,3690,350,1520.0,"Wednesday, 13 August 2025",2025-08-13,27,2,1,1.0,Apartment / Unit / Flat,3/5 Lowanna Street,-36.138447,146.88239,2025-09-09 16:29:16,17713658,,3,0,0,False,Apartment,Apartment / Unit / Flat,Elders Real Estate Albury Wodonga & Howlong,23123,"Josh McClelland, Rori Van Bracht","Air conditioning, Built in wardrobes, Close to transport, Close to shops, Close to schools",https://www.domain.com.au/3-5-lowanna-street-wodonga-vic-3690-17713658
17714038,WODONGA,3690,480,2085.0,"Friday, 12 September 2025",2025-08-13,27,3,1,2.0,House,32 Buckland Court,-36.115494,146.85788,2025-09-09 16:29:16,17714038,,10,0,0,False,House,House,Wodonga Real Estate Best Agents,6983,Jacquie Sterk,,https://www.domain.com.au/32-buckland-court-wodonga-vic-3690-17714038
17715098,WODONGA,3690,550,2389.0,"Thursday, 18 September 2025",2025-08-14,26,4,2,2.0,House,7 Chifley Street,-36.136005,146.85948,2025-09-09 16:29:16,17715098,,16,0,0,False,House,House,Wodonga Real Estate Best Agents,6983,Meagan Fisher-Smith,"Air conditioning, Heating, Built in wardrobes, Close to transport, Swimming Pool",https://www.domain.com.au/7-chifley-street-wodonga-vic-3690-17715098
17725637,WODONGA,3690,490,2129.0,"Friday, 22 August 2025",2025-08-21,19,4,1,2.0,House,28 Healey Close,-36.139336,146.87361,2025-09-09 16:29:16,17725637,,11,0,1,False,House,House,Stean Nicholls Real Estate,11631,Jane Stenson,,https://www.domain.com.au/28-healey-close-wodonga-vic-3690-17725637
17725754,WODONGA,3690,500,2085.0,"Friday, 29 August 2025",2025-08-21,19,3,1,2.0,House,1 Carkeek Street,-36.133472,146.87798,2025-09-09 16:29:16,17725754,,9,0,0,False,House,House,Hartshorn Property,27509,Anthony Hartshorn,"Heating, Dishwasher, Air conditioning, Built in wardrobes",https://www.domain.com.au/1-carkeek-street-wodonga-vic-3690-17725754
17726613,WODONGA,3690,610,2650.0,"Thursday, 18 September 2025",2025-08-21,19,4,2,2.0,House,17 Keysor Way,-36.145744,146.897,2025-09-09 16:29:16,17726613,,2,0,0,False,House,House,Professionals Wodonga Pty Ltd,11839,Christabelle McLaren,"Ducted Cooling, Ducted Heating, Kitchen, Separate Living Unit, Walk In Pantry, Formal Entry, Built in wardrobes, Floorboards, Dishwasher, Outdoor Entertaining Area, Fully fenced, Laundry",https://www.domain.com.au/17-keysor-way-wodonga-vic-3690-17726613
17728023,WODONGA,3690,520,2259.0,"Wednesday, 10 September 2025",2025-08-22,18,3,1,2.0,House,4 Kingsbury Court,-36.13264,146.85085,2025-09-09 16:29:16,17728023,,12,0,1,False,House,House,Professionals Wodonga Pty Ltd,11839,Daisy James,"Split Cooling, Gas Heating, Kitchen, Patio, Built in wardrobes, Outdoor Entertaining Area, Shed, Laundry",https://www.domain.com.au/4-kingsbury-court-wodonga-vic-3690-17728023
17729722,WODONGA,3690,460,1998.0,"Friday, 26 September 2025",2025-08-25,15,3,2,2.0,Townhouse,15/2 McKibbin Court,-36.127277,146.8959,2025-09-09 16:29:16,17729722,,11,0,0,False,Townhouse/Villa,Townhouse,Elders Real Estate Albury Wodonga & Howlong,23123,"Josh McClelland, Rori Van Bracht","Air conditioning, Built in wardrobes, Close to transport, Close to shops, Close to schools",https://www.domain.com.au/15-2-mckibbin-court-wodonga-vic-3690-17729722
17730670,WODONGA,3690,520,2259.0,"Friday, 03 October 2025",2025-08-25,15,3,1,2.0,House,5 Sofia Court,-36.127167,146.90338,2025-09-09 16:29:16,17730670,,12,0,0,False,House,House,Wodonga Real Estate Best Agents,6983,Donna Martin,"Air conditioning, Heating, Built in wardrobes",https://www.domain.com.au/5-sofia-court-wodonga-vic-3690-17730670
17733469,WODONGA,3690,340,680.0,"Friday, 05 September 2025",2025-08-27,13,1,1,,Apartment / Unit / Flat,2/44 William Street,-36.129353,146.88321,2025-09-09 16:29:16,17733469,,15,0,0,False,Apartment,Apartment / Unit / Flat,Elite Property Management Agency,13814,"Lara Walsh, Property Management Team","Furnished, Heating, Study",https://www.domain.com.au/2-44-william-street-wodonga-vic-3690-17733469
17733510,WODONGA,3690,680,2954.0,"Friday, 19 September 2025",2025-08-27,13,3,2,2.0,House,16 Garden Cove,-36.123074,146.8474,2025-09-09 16:29:16,17733510,,7,0,0,False,House,House,PJ Murphy Real Estate,17470,Kerri-Ann Hudson,Ensuite,https://www.domain.com.au/16-garden-cove-wodonga-vic-3690-17733510
17735797,WODONGA,3690,650,2824.0,"Sunday, 26 October 2025",2025-08-28,12,4,2,2.0,House,1 Coverdale Drive,-36.16035,146.87776,2025-09-09 16:29:16,17735797,,7,0,0,False,House,House,Elite Property Management Agency,13814,"Property Management Team, Romni Reid","Secure Parking, Dishwasher, Shed, Air conditioning, Heating, Built in wardrobes, Ensuite",https://www.domain.com.au/1-coverdale-drive-wodonga-vic-3690-17735797
